{"text":"〒899-0121 鹿児島県出水市","city":"IZUMI","postcode":"899-0121","muni":"出水市","muni_romaji":"IZUMI SHI","pref":"鹿児島県","lat":32.06779,"lon":130.342953,"dataset":"OpenAddresses/Japanese Ministry of Land, Infrastructure and Transport","source":"overture-2026-06-17.0"}
{"text":"〒771-1200 徳島県板野郡藍住町","city":"ITANO","postcode":"771-1200","muni":"板野郡藍住町","muni_romaji":"ITANO GUN AIZUMI CHO","pref":"徳島県","lat":34.110637,"lon":134.484597,"dataset":"OpenAddresses/Japanese Ministry of Land, Infrastructure and Transport","source":"overture-2026-06-17.0"}
{"text":"〒183-0000 東京都府中市","city":"FUCHU","postcode":"183-0000","muni":"府中市","muni_romaji":"FUCHU SHI","pref":"東京都","lat":35.65815,"lon":139.459738,"dataset":"OpenAddresses/Japanese Ministry of Land, Infrastructure and Transport","source":"overture-2026-06-17.0"}
{"text":"〒868-0000 熊本県人吉市","city":"HITOYOSHI","postcode":"868-0000","muni":"人吉市","muni_romaji":"HITOYOSHI SHI","pref":"熊本県","lat":32.20565,"lon":130.753761,"dataset":"OpenAddresses/Japanese Ministry of Land, Infrastructure and Transport","source":"overture-2026-06-17.0"}
{"text":"〒791-3100 愛媛県伊予郡松前町","city":"IYO","postcode":"791-3100","muni":"伊予郡松前町","muni_romaji":"IYO GUN MASAKI CHO","pref":"愛媛県","lat":33.793982,"lon":132.730298,"dataset":"OpenAddresses/Japanese Ministry of Land, Infrastructure and Transport","source":"overture-2026-06-17.0"}
{"text":"〒722-0411 広島県世羅郡世羅町","city":"SERA","postcode":"722-0411","muni":"世羅郡世羅町","muni_romaji":"SERA GUN SERA CHO","pref":"広島県","lat":34.586568,"lon":133.056979,"dataset":"OpenAddresses/Japanese Ministry of Land, Infrastructure and Transport","source":"overture-2026-06-17.0"}
{"text":"〒859-4801 長崎県平戸市","city":"HIRADO","postcode":"859-4801","muni":"平戸市","muni_romaji":"HIRADO SHI","pref":"長崎県","lat":33.36749,"lon":129.551801,"dataset":"OpenAddresses/Japanese Ministry of Land, Infrastructure and Transport","source":"overture-2026-06-17.0"}
{"text":"〒366-0000 埼玉県深谷市","city":"FUKAYA","postcode":"366-0000","muni":"深谷市","muni_romaji":"FUKAYA SHI","pref":"埼玉県","lat":36.163662,"lon":139.291156,"dataset":"OpenAddresses/Japanese Ministry of Land, Infrastructure and Transport","source":"overture-2026-06-17.0"}
{"text":"〒344-0000 埼玉県春日部市","city":"KASUKABE","postcode":"344-0000","muni":"春日部市","muni_romaji":"KASUKABE SHI","pref":"埼玉県","lat":35.994784,"lon":139.751421,"dataset":"OpenAddresses/Japanese Ministry of Land, Infrastructure and Transport","source":"overture-2026-06-17.0"}
{"text":"〒979-1300 福島県双葉郡大熊町","city":"FUTABA","postcode":"979-1300","muni":"双葉郡大熊町","muni_romaji":"FUTABA GUN OKUMA MACHI","pref":"福島県","lat":37.392128,"lon":140.995495,"dataset":"OpenAddresses/Japanese Ministry of Land, Infrastructure and Transport","source":"overture-2026-06-17.0"}
{"text":"〒680-0000 鳥取県鳥取市","city":"TOTTORI","postcode":"680-0000","muni":"鳥取市","muni_romaji":"TOTTORI SHI","pref":"鳥取県","lat":35.535995,"lon":134.187407,"dataset":"OpenAddresses/Japanese Ministry of Land, Infrastructure and Transport","source":"overture-2026-06-17.0"}
{"text":"〒290-0000 千葉県市原市","city":"ICHIHARA","postcode":"290-0000","muni":"市原市","muni_romaji":"ICHIHARA SHI","pref":"千葉県","lat":35.541407,"lon":140.136989,"dataset":"OpenAddresses/Japanese Ministry of Land, Infrastructure and Transport","source":"overture-2026-06-17.0"}
{"text":"〒649-0300 和歌山県有田市","city":"ARIDA","postcode":"649-0300","muni":"有田市","muni_romaji":"ARIDA SHI","pref":"和歌山県","lat":34.084776,"lon":135.159208,"dataset":"OpenAddresses/Japanese Ministry of Land, Infrastructure and Transport","source":"overture-2026-06-17.0"}
{"text":"〒300-0300 茨城県稲敷郡阿見町","city":"INASHIKI","postcode":"300-0300","muni":"稲敷郡阿見町","muni_romaji":"INASHIKI GUN AMI MACHI","pref":"茨城県","lat":36.039816,"lon":140.235669,"dataset":"OpenAddresses/Japanese Ministry of Land, Infrastructure and Transport","source":"overture-2026-06-17.0"}
{"text":"〒480-1201 愛知県瀬戸市","city":"SETO","postcode":"480-1201","muni":"瀬戸市","muni_romaji":"SETO SHI","pref":"愛知県","lat":35.207222,"lon":137.09159,"dataset":"OpenAddresses/Japanese Ministry of Land, Infrastructure and Transport","source":"overture-2026-06-17.0"}
{"text":"〒501-0400 岐阜県本巣市","city":"MOTOSU","postcode":"501-0400","muni":"本巣市","muni_romaji":"MOTOSU SHI","pref":"岐阜県","lat":35.438923,"lon":136.655049,"dataset":"OpenAddresses/Japanese Ministry of Land, Infrastructure and Transport","source":"overture-2026-06-17.0"}
{"text":"〒431-3301 静岡県浜松市天竜区","city":"HAMAMATSU","postcode":"431-3301","muni":"浜松市天竜区","muni_romaji":"HAMAMATSU SHI TENRYU KU","pref":"静岡県","lat":34.871558,"lon":137.820164,"dataset":"OpenAddresses/Japanese Ministry of Land, Infrastructure and Transport","source":"overture-2026-06-17.0"}
{"text":"〒455-0000 愛知県名古屋市港区","city":"NAGOYA","postcode":"455-0000","muni":"名古屋市港区","muni_romaji":"NAGOYA SHI MINATO KU","pref":"愛知県","lat":35.102466,"lon":136.799961,"dataset":"OpenAddresses/Japanese Ministry of Land, Infrastructure and Transport","source":"overture-2026-06-17.0"}
{"text":"〒899-1131 鹿児島県阿久根市","city":"AKUNE","postcode":"899-1131","muni":"阿久根市","muni_romaji":"AKUNE SHI","pref":"鹿児島県","lat":31.980681,"lon":130.203168,"dataset":"OpenAddresses/Japanese Ministry of Land, Infrastructure and Transport","source":"overture-2026-06-17.0"}
{"text":"〒510-0301 三重県津市","city":"TSU","postcode":"510-0301","muni":"津市","muni_romaji":"TSU SHI","pref":"三重県","lat":34.780547,"lon":136.545541,"dataset":"OpenAddresses/Japanese Ministry of Land, Infrastructure and Transport","source":"overture-2026-06-17.0"}
{"text":"〒480-1201 愛知県瀬戸市","city":"SETO","postcode":"480-1201","muni":"瀬戸市","muni_romaji":"SETO SHI","pref":"愛知県","lat":35.223238,"lon":137.088403,"dataset":"OpenAddresses/Japanese Ministry of Land, Infrastructure and Transport","source":"overture-2026-06-17.0"}
{"text":"〒252-0100 神奈川県相模原市緑区","city":"SAGAMIHARA","postcode":"252-0100","muni":"相模原市緑区","muni_romaji":"SAGAMIHARA SHI MIDORI KU","pref":"神奈川県","lat":35.557739,"lon":139.239777,"dataset":"OpenAddresses/Japanese Ministry of Land, Infrastructure and Transport","source":"overture-2026-06-17.0"}
{"text":"〒322-0601 栃木県栃木市","city":"TOCHIGI","postcode":"322-0601","muni":"栃木市","muni_romaji":"TOCHIGI SHI","pref":"栃木県","lat":36.352748,"lon":139.742471,"dataset":"OpenAddresses/Japanese Ministry of Land, Infrastructure and Transport","source":"overture-2026-06-17.0"}
{"text":"〒906-0000 沖縄県宮古島市","city":"MIYAKOJIMA","postcode":"906-0000","muni":"宮古島市","muni_romaji":"MIYAKOJIMA SHI","pref":"沖縄県","lat":24.760545,"lon":125.360872,"dataset":"OpenAddresses/Japanese Ministry of Land, Infrastructure and Transport","source":"overture-2026-06-17.0"}
{"text":"〒300-1501 茨城県取手市","city":"TORIDE","postcode":"300-1501","muni":"取手市","muni_romaji":"TORIDE SHI","pref":"茨城県","lat":35.9138,"lon":140.095515,"dataset":"OpenAddresses/Japanese Ministry of Land, Infrastructure and Transport","source":"overture-2026-06-17.0"}
{"text":"〒339-0000 埼玉県さいたま市岩槻区","city":"SAITAMA","postcode":"339-0000","muni":"さいたま市岩槻区","muni_romaji":"SAITAMA SHI IWATSUKI KU","pref":"埼玉県","lat":35.957062,"lon":139.684996,"dataset":"OpenAddresses/Japanese Ministry of Land, Infrastructure and Transport","source":"overture-2026-06-17.0"}
{"text":"〒370-0000 群馬県高崎市","city":"TAKASAKI","postcode":"370-0000","muni":"高崎市","muni_romaji":"TAKASAKI SHI","pref":"群馬県","lat":36.343633,"lon":138.988796,"dataset":"OpenAddresses/Japanese Ministry of Land, Infrastructure and Transport","source":"overture-2026-06-17.0"}
{"text":"〒491-0000 愛知県一宮市","city":"ICHINOMIYA","postcode":"491-0000","muni":"一宮市","muni_romaji":"ICHINOMIYA SHI","pref":"愛知県","lat":35.344766,"lon":136.829578,"dataset":"OpenAddresses/Japanese Ministry of Land, Infrastructure and Transport","source":"overture-2026-06-17.0"}
{"text":"〒594-0000 大阪府和泉市","city":"IZUMI","postcode":"594-0000","muni":"和泉市","muni_romaji":"IZUMI SHI","pref":"大阪府","lat":34.374153,"lon":135.478651,"dataset":"OpenAddresses/Japanese Ministry of Land, Infrastructure and Transport","source":"overture-2026-06-17.0"}
{"text":"〒840-0001 佐賀県佐賀市","city":"SAGA","postcode":"840-0001","muni":"佐賀市","muni_romaji":"SAGA SHI","pref":"佐賀県","lat":33.315672,"lon":130.332042,"dataset":"OpenAddresses/Japanese Ministry of Land, Infrastructure and Transport","source":"overture-2026-06-17.0"}
{"text":"〒398-0000 長野県大町市","city":"OMACHI","postcode":"398-0000","muni":"大町市","muni_romaji":"OMACHI SHI","pref":"長野県","lat":36.514777,"lon":137.841428,"dataset":"OpenAddresses/Japanese Ministry of Land, Infrastructure and Transport","source":"overture-2026-06-17.0"}
{"text":"〒036-0000 青森県弘前市","city":"HIROSAKI","postcode":"036-0000","muni":"弘前市","muni_romaji":"HIROSAKI SHI","pref":"青森県","lat":40.593899,"lon":140.518194,"dataset":"OpenAddresses/Japanese Ministry of Land, Infrastructure and Transport","source":"overture-2026-06-17.0"}
{"text":"〒300-2501 茨城県常総市","city":"JOSO","postcode":"300-2501","muni":"常総市","muni_romaji":"JOSO SHI","pref":"茨城県","lat":36.017192,"lon":139.982934,"dataset":"OpenAddresses/Japanese Ministry of Land, Infrastructure and Transport","source":"overture-2026-06-17.0"}
{"text":"〒691-0001 島根県出雲市","city":"IZUMO","postcode":"691-0001","muni":"出雲市","muni_romaji":"IZUMO SHI","pref":"島根県","lat":35.338212,"lon":132.696999,"dataset":"OpenAddresses/Japanese Ministry of Land, Infrastructure and Transport","source":"overture-2026-06-17.0"}
{"text":"〒257-0000 神奈川県秦野市","city":"HADANO","postcode":"257-0000","muni":"秦野市","muni_romaji":"HADANO SHI","pref":"神奈川県","lat":35.391715,"lon":139.210821,"dataset":"OpenAddresses/Japanese Ministry of Land, Infrastructure and Transport","source":"overture-2026-06-17.0"}
{"text":"〒761-4155 香川県小豆郡小豆島町","city":"SHOZU","postcode":"761-4155","muni":"小豆郡小豆島町","muni_romaji":"SHOZU GUN SHODOSHIMA CHO","pref":"香川県","lat":34.48654,"lon":134.308412,"dataset":"OpenAddresses/Japanese Ministry of Land, Infrastructure and Transport","source":"overture-2026-06-17.0"}
{"text":"〒299-3200 千葉県大網白里市","city":"OAMISHIRASATO","postcode":"299-3200","muni":"大網白里市","muni_romaji":"OAMISHIRASATO SHI","pref":"千葉県","lat":35.498348,"lon":140.278255,"dataset":"OpenAddresses/Japanese Ministry of Land, Infrastructure and Transport","source":"overture-2026-06-17.0"}
{"text":"〒714-0101 岡山県浅口市","city":"ASAKUCHI","postcode":"714-0101","muni":"浅口市","muni_romaji":"ASAKUCHI SHI","pref":"岡山県","lat":34.562299,"lon":133.632871,"dataset":"OpenAddresses/Japanese Ministry of Land, Infrastructure and Transport","source":"overture-2026-06-17.0"}
{"text":"〒695-0101 島根県浜田市","city":"HAMADA","postcode":"695-0101","muni":"浜田市","muni_romaji":"HAMADA SHI","pref":"島根県","lat":34.858903,"lon":132.027273,"dataset":"OpenAddresses/Japanese Ministry of Land, Infrastructure and Transport","source":"overture-2026-06-17.0"}
{"text":"〒839-1421 大分県日田市","city":"HITA","postcode":"839-1421","muni":"日田市","muni_romaji":"HITA SHI","pref":"大分県","lat":33.341483,"lon":130.916005,"dataset":"OpenAddresses/Japanese Ministry of Land, Infrastructure and Transport","source":"overture-2026-06-17.0"}
{"text":"〒347-0000 埼玉県加須市","city":"KAZO","postcode":"347-0000","muni":"加須市","muni_romaji":"KAZO SHI","pref":"埼玉県","lat":36.158296,"lon":139.651563,"dataset":"OpenAddresses/Japanese Ministry of Land, Infrastructure and Transport","source":"overture-2026-06-17.0"}
{"text":"〒430-0801 静岡県浜松市中央区","city":"HAMAMATSU","postcode":"430-0801","muni":"浜松市中央区","muni_romaji":"HAMAMATSU SHI CHUO KU","pref":"静岡県","lat":34.706502,"lon":137.765747,"dataset":"OpenAddresses/Japanese Ministry of Land, Infrastructure and Transport","source":"overture-2026-06-17.0"}
{"text":"〒510-0000 三重県四日市市","city":"YOKKAICHI","postcode":"510-0000","muni":"四日市市","muni_romaji":"YOKKAICHI SHI","pref":"三重県","lat":34.951958,"lon":136.581201,"dataset":"OpenAddresses/Japanese Ministry of Land, Infrastructure and Transport","source":"overture-2026-06-17.0"}
{"text":"〒884-0000 宮崎県児湯郡高鍋町","city":"KOYU","postcode":"884-0000","muni":"児湯郡高鍋町","muni_romaji":"KOYU GUN TAKANABE CHO","pref":"宮崎県","lat":32.110074,"lon":131.523846,"dataset":"OpenAddresses/Japanese Ministry of Land, Infrastructure and Transport","source":"overture-2026-06-17.0"}
{"text":"〒237-0061 神奈川県横須賀市","city":"YOKOSUKA","postcode":"237-0061","muni":"横須賀市","muni_romaji":"YOKOSUKA SHI","pref":"神奈川県","lat":35.204891,"lon":139.668935,"dataset":"OpenAddresses/Japanese Ministry of Land, Infrastructure and Transport","source":"overture-2026-06-17.0"}
{"text":"〒581-0000 大阪府八尾市","city":"YAO","postcode":"581-0000","muni":"八尾市","muni_romaji":"YAO SHI","pref":"大阪府","lat":34.64148,"lon":135.614363,"dataset":"OpenAddresses/Japanese Ministry of Land, Infrastructure and Transport","source":"overture-2026-06-17.0"}
{"text":"〒899-1131 鹿児島県阿久根市","city":"AKUNE","postcode":"899-1131","muni":"阿久根市","muni_romaji":"AKUNE SHI","pref":"鹿児島県","lat":32.026306,"lon":130.22645,"dataset":"OpenAddresses/Japanese Ministry of Land, Infrastructure and Transport","source":"overture-2026-06-17.0"}
{"text":"〒501-0400 岐阜県本巣市","city":"MOTOSU","postcode":"501-0400","muni":"本巣市","muni_romaji":"MOTOSU SHI","pref":"岐阜県","lat":35.440626,"lon":136.645677,"dataset":"OpenAddresses/Japanese Ministry of Land, Infrastructure and Transport","source":"overture-2026-06-17.0"}
{"text":"〒409-3231 山梨県西八代郡市川三郷町","city":"NISHIYATSUSHIRO","postcode":"409-3231","muni":"西八代郡市川三郷町","muni_romaji":"NISHIYATSUSHIRO GUN ICHIKAWAMISATO","pref":"山梨県","lat":35.568003,"lon":138.517491,"dataset":"OpenAddresses/Japanese Ministry of Land, Infrastructure and Transport","source":"overture-2026-06-17.0"}
{"text":"〒830-0001 福岡県久留米市","city":"KURUME","postcode":"830-0001","muni":"久留米市","muni_romaji":"KURUME SHI","pref":"福岡県","lat":33.326546,"lon":130.480989,"dataset":"OpenAddresses/Japanese Ministry of Land, Infrastructure and Transport","source":"overture-2026-06-17.0"}
{"text":"〒031-0000 青森県八戸市","city":"HACHINOHE","postcode":"031-0000","muni":"八戸市","muni_romaji":"HACHINOHE SHI","pref":"青森県","lat":40.476094,"lon":141.414382,"dataset":"OpenAddresses/Japanese Ministry of Land, Infrastructure and Transport","source":"overture-2026-06-17.0"}
{"text":"〒283-0000 千葉県東金市","city":"TOGANE","postcode":"283-0000","muni":"東金市","muni_romaji":"TOGANE SHI","pref":"千葉県","lat":35.578485,"lon":140.420747,"dataset":"OpenAddresses/Japanese Ministry of Land, Infrastructure and Transport","source":"overture-2026-06-17.0"}
{"text":"〒270-1500 千葉県印旛郡栄町","city":"IMBA","postcode":"270-1500","muni":"印旛郡栄町","muni_romaji":"IMBA GUN SAKAE MACHI","pref":"千葉県","lat":35.831001,"lon":140.275838,"dataset":"OpenAddresses/Japanese Ministry of Land, Infrastructure and Transport","source":"overture-2026-06-17.0"}
{"text":"〒760-0000 香川県高松市","city":"TAKAMATSU","postcode":"760-0000","muni":"高松市","muni_romaji":"TAKAMATSU SHI","pref":"香川県","lat":34.285195,"lon":134.103764,"dataset":"OpenAddresses/Japanese Ministry of Land, Infrastructure and Transport","source":"overture-2026-06-17.0"}
{"text":"〒511-0200 三重県いなべ市","city":"INABE","postcode":"511-0200","muni":"いなべ市","muni_romaji":"INABE SHI","pref":"三重県","lat":35.125076,"lon":136.525671,"dataset":"OpenAddresses/Japanese Ministry of Land, Infrastructure and Transport","source":"overture-2026-06-17.0"}
{"text":"〒378-0000 群馬県沼田市","city":"NUMATA","postcode":"378-0000","muni":"沼田市","muni_romaji":"NUMATA SHI","pref":"群馬県","lat":36.636918,"lon":139.038997,"dataset":"OpenAddresses/Japanese Ministry of Land, Infrastructure and Transport","source":"overture-2026-06-17.0"}
{"text":"〒444-0000 愛知県岡崎市","city":"OKAZAKI","postcode":"444-0000","muni":"岡崎市","muni_romaji":"OKAZAKI SHI","pref":"愛知県","lat":34.931688,"lon":137.210807,"dataset":"OpenAddresses/Japanese Ministry of Land, Infrastructure and Transport","source":"overture-2026-06-17.0"}
{"text":"〒760-0000 香川県高松市","city":"TAKAMATSU","postcode":"760-0000","muni":"高松市","muni_romaji":"TAKAMATSU SHI","pref":"香川県","lat":34.308105,"lon":134.061117,"dataset":"OpenAddresses/Japanese Ministry of Land, Infrastructure and Transport","source":"overture-2026-06-17.0"}
{"text":"〒430-0801 静岡県浜松市中央区","city":"HAMAMATSU","postcode":"430-0801","muni":"浜松市中央区","muni_romaji":"HAMAMATSU SHI CHUO KU","pref":"静岡県","lat":34.691268,"lon":137.677564,"dataset":"OpenAddresses/Japanese Ministry of Land, Infrastructure and Transport","source":"overture-2026-06-17.0"}
{"text":"〒412-0000 静岡県御殿場市","city":"GOTEMBA","postcode":"412-0000","muni":"御殿場市","muni_romaji":"GOTEMBA SHI","pref":"静岡県","lat":35.310169,"lon":138.909023,"dataset":"OpenAddresses/Japanese Ministry of Land, Infrastructure and Transport","source":"overture-2026-06-17.0"}
{"text":"〒987-1301 宮城県大崎市","city":"OSAKI","postcode":"987-1301","muni":"大崎市","muni_romaji":"OSAKI SHI","pref":"宮城県","lat":38.586823,"lon":140.932424,"dataset":"OpenAddresses/Japanese Ministry of Land, Infrastructure and Transport","source":"overture-2026-06-17.0"}
{"text":"〒283-0000 千葉県東金市","city":"TOGANE","postcode":"283-0000","muni":"東金市","muni_romaji":"TOGANE SHI","pref":"千葉県","lat":35.539275,"lon":140.355691,"dataset":"OpenAddresses/Japanese Ministry of Land, Infrastructure and Transport","source":"overture-2026-06-17.0"}
{"text":"〒474-0000 愛知県大府市","city":"OBU","postcode":"474-0000","muni":"大府市","muni_romaji":"OBU SHI","pref":"愛知県","lat":35.032252,"lon":136.933742,"dataset":"OpenAddresses/Japanese Ministry of Land, Infrastructure and Transport","source":"overture-2026-06-17.0"}
{"text":"〒270-0201 千葉県野田市","city":"NODA","postcode":"270-0201","muni":"野田市","muni_romaji":"NODA SHI","pref":"千葉県","lat":35.956465,"lon":139.86928,"dataset":"OpenAddresses/Japanese Ministry of Land, Infrastructure and Transport","source":"overture-2026-06-17.0"}
{"text":"〒500-0000 岐阜県岐阜市","city":"GIFU","postcode":"500-0000","muni":"岐阜市","muni_romaji":"GIFU SHI","pref":"岐阜県","lat":35.446258,"lon":136.76428,"dataset":"OpenAddresses/Japanese Ministry of Land, Infrastructure and Transport","source":"overture-2026-06-17.0"}
{"text":"〒503-0301 岐阜県海津市","city":"KAIZU","postcode":"503-0301","muni":"海津市","muni_romaji":"KAIZU SHI","pref":"岐阜県","lat":35.228911,"lon":136.656747,"dataset":"OpenAddresses/Japanese Ministry of Land, Infrastructure and Transport","source":"overture-2026-06-17.0"}
{"text":"〒440-0001 愛知県豊橋市","city":"TOYOHASHI","postcode":"440-0001","muni":"豊橋市","muni_romaji":"TOYOHASHI SHI","pref":"愛知県","lat":34.748811,"lon":137.367437,"dataset":"OpenAddresses/Japanese Ministry of Land, Infrastructure and Transport","source":"overture-2026-06-17.0"}
{"text":"〒601-0101 京都府京都市北区","city":"KYOTO","postcode":"601-0101","muni":"京都市北区","muni_romaji":"KYOTO SHI KITA KU","pref":"京都府","lat":35.050047,"lon":135.750318,"dataset":"OpenAddresses/Japanese Ministry of Land, Infrastructure and Transport","source":"overture-2026-06-17.0"}
{"text":"〒362-0000 埼玉県上尾市","city":"AGEO","postcode":"362-0000","muni":"上尾市","muni_romaji":"AGEO SHI","pref":"埼玉県","lat":35.959589,"lon":139.623827,"dataset":"OpenAddresses/Japanese Ministry of Land, Infrastructure and Transport","source":"overture-2026-06-17.0"}
{"text":"〒521-1201 滋賀県東近江市","city":"HIGASHIOMI","postcode":"521-1201","muni":"東近江市","muni_romaji":"HIGASHIOMI SHI","pref":"滋賀県","lat":35.140204,"lon":136.22598,"dataset":"OpenAddresses/Japanese Ministry of Land, Infrastructure and Transport","source":"overture-2026-06-17.0"}
{"text":"〒431-1301 静岡県浜松市浜名区","city":"HAMAMATSU","postcode":"431-1301","muni":"浜松市浜名区","muni_romaji":"HAMAMATSU SHI HAMANA KU","pref":"静岡県","lat":34.775517,"lon":137.788366,"dataset":"OpenAddresses/Japanese Ministry of Land, Infrastructure and Transport","source":"overture-2026-06-17.0"}
{"text":"〒014-0300 秋田県仙北市","city":"SEMBOKU","postcode":"014-0300","muni":"仙北市","muni_romaji":"SEMBOKU SHI","pref":"秋田県","lat":39.591934,"lon":140.543624,"dataset":"OpenAddresses/Japanese Ministry of Land, Infrastructure and Transport","source":"overture-2026-06-17.0"}
{"text":"〒790-0001 愛媛県松山市","city":"MATSUYAMA","postcode":"790-0001","muni":"松山市","muni_romaji":"MATSUYAMA SHI","pref":"愛媛県","lat":33.826263,"lon":132.801669,"dataset":"OpenAddresses/Japanese Ministry of Land, Infrastructure and Transport","source":"overture-2026-06-17.0"}
{"text":"〒378-0000 群馬県沼田市","city":"NUMATA","postcode":"378-0000","muni":"沼田市","muni_romaji":"NUMATA SHI","pref":"群馬県","lat":36.664292,"lon":139.018977,"dataset":"OpenAddresses/Japanese Ministry of Land, Infrastructure and Transport","source":"overture-2026-06-17.0"}
{"text":"〒781-6400 高知県安芸郡安田町","city":"AKI","postcode":"781-6400","muni":"安芸郡安田町","muni_romaji":"AKI GUN YASUDA CHO","pref":"高知県","lat":33.44856,"lon":133.959735,"dataset":"OpenAddresses/Japanese Ministry of Land, Infrastructure and Transport","source":"overture-2026-06-17.0"}
{"text":"〒038-1100 青森県南津軽郡田舎館村","city":"MINAMITSUGARU","postcode":"038-1100","muni":"南津軽郡田舎館村","muni_romaji":"MINAMITSUGARU GUN INAKADATE MURA","pref":"青森県","lat":40.633005,"lon":140.511419,"dataset":"OpenAddresses/Japanese Ministry of Land, Infrastructure and Transport","source":"overture-2026-06-17.0"}
{"text":"〒923-0000 石川県小松市","city":"KOMATSU","postcode":"923-0000","muni":"小松市","muni_romaji":"KOMATSU SHI","pref":"石川県","lat":36.394126,"lon":136.484582,"dataset":"OpenAddresses/Japanese Ministry of Land, Infrastructure and Transport","source":"overture-2026-06-17.0"}
{"text":"〒270-1400 千葉県白井市","city":"SHIROI","postcode":"270-1400","muni":"白井市","muni_romaji":"SHIROI SHI","pref":"千葉県","lat":35.800786,"lon":140.071032,"dataset":"OpenAddresses/Japanese Ministry of Land, Infrastructure and Transport","source":"overture-2026-06-17.0"}
{"text":"〒270-1100 千葉県我孫子市","city":"ABIKO","postcode":"270-1100","muni":"我孫子市","muni_romaji":"ABIKO SHI","pref":"千葉県","lat":35.859865,"lon":140.055543,"dataset":"OpenAddresses/Japanese Ministry of Land, Infrastructure and Transport","source":"overture-2026-06-17.0"}
{"text":"〒870-0001 大分県大分市","city":"OITA","postcode":"870-0001","muni":"大分市","muni_romaji":"OITA SHI","pref":"大分県","lat":33.24542,"lon":131.887478,"dataset":"OpenAddresses/Japanese Ministry of Land, Infrastructure and Transport","source":"overture-2026-06-17.0"}
{"text":"〒549-0021 大阪府泉南市","city":"SENNAN","postcode":"549-0021","muni":"泉南市","muni_romaji":"SENNAN SHI","pref":"大阪府","lat":34.358071,"lon":135.27024,"dataset":"OpenAddresses/Japanese Ministry of Land, Infrastructure and Transport","source":"overture-2026-06-17.0"}
{"text":"〒311-0301 茨城県常陸太田市","city":"HITACHIOTA","postcode":"311-0301","muni":"常陸太田市","muni_romaji":"HITACHIOTA SHI","pref":"茨城県","lat":36.505834,"lon":140.542077,"dataset":"OpenAddresses/Japanese Ministry of Land, Infrastructure and Transport","source":"overture-2026-06-17.0"}
{"text":"〒669-3101 兵庫県丹波市","city":"TAMBA","postcode":"669-3101","muni":"丹波市","muni_romaji":"TAMBA SHI","pref":"兵庫県","lat":35.151118,"lon":135.062301,"dataset":"OpenAddresses/Japanese Ministry of Land, Infrastructure and Transport","source":"overture-2026-06-17.0"}
{"text":"〒799-0101 愛媛県四国中央市","city":"SHIKOKUCHUO","postcode":"799-0101","muni":"四国中央市","muni_romaji":"SHIKOKUCHUO SHI","pref":"愛媛県","lat":33.965515,"lon":133.508394,"dataset":"OpenAddresses/Japanese Ministry of Land, Infrastructure and Transport","source":"overture-2026-06-17.0"}
{"text":"〒386-0000 長野県上田市","city":"UEDA","postcode":"386-0000","muni":"上田市","muni_romaji":"UEDA SHI","pref":"長野県","lat":36.393654,"lon":138.256916,"dataset":"OpenAddresses/Japanese Ministry of Land, Infrastructure and Transport","source":"overture-2026-06-17.0"}
{"text":"〒370-0000 群馬県高崎市","city":"TAKASAKI","postcode":"370-0000","muni":"高崎市","muni_romaji":"TAKASAKI SHI","pref":"群馬県","lat":36.252825,"lon":138.969644,"dataset":"OpenAddresses/Japanese Ministry of Land, Infrastructure and Transport","source":"overture-2026-06-17.0"}
{"text":"〒399-4100 長野県駒ヶ根市","city":"KOMAGANE","postcode":"399-4100","muni":"駒ヶ根市","muni_romaji":"KOMAGANE SHI","pref":"長野県","lat":35.71914,"lon":137.963861,"dataset":"OpenAddresses/Japanese Ministry of Land, Infrastructure and Transport","source":"overture-2026-06-17.0"}
{"text":"〒349-0200 埼玉県白岡市","city":"SHIRAOKA","postcode":"349-0200","muni":"白岡市","muni_romaji":"SHIRAOKA SHI","pref":"埼玉県","lat":36.021849,"lon":139.67142,"dataset":"OpenAddresses/Japanese Ministry of Land, Infrastructure and Transport","source":"overture-2026-06-17.0"}
{"text":"〒475-0000 愛知県半田市","city":"HANDA","postcode":"475-0000","muni":"半田市","muni_romaji":"HANDA SHI","pref":"愛知県","lat":34.88958,"lon":136.929994,"dataset":"OpenAddresses/Japanese Ministry of Land, Infrastructure and Transport","source":"overture-2026-06-17.0"}
{"text":"〒389-0200 長野県北佐久郡御代田町","city":"KITASAKU","postcode":"389-0200","muni":"北佐久郡御代田町","muni_romaji":"KITASAKU GUN MIYOTA MACHI","pref":"長野県","lat":36.317769,"lon":138.485823,"dataset":"OpenAddresses/Japanese Ministry of Land, Infrastructure and Transport","source":"overture-2026-06-17.0"}
{"text":"〒300-4501 茨城県筑西市","city":"CHIKUSEI","postcode":"300-4501","muni":"筑西市","muni_romaji":"CHIKUSEI SHI","pref":"茨城県","lat":36.312002,"lon":140.036819,"dataset":"OpenAddresses/Japanese Ministry of Land, Infrastructure and Transport","source":"overture-2026-06-17.0"}
{"text":"〒520-0000 滋賀県大津市","city":"OTSU","postcode":"520-0000","muni":"大津市","muni_romaji":"OTSU SHI","pref":"滋賀県","lat":34.978324,"lon":135.913761,"dataset":"OpenAddresses/Japanese Ministry of Land, Infrastructure and Transport","source":"overture-2026-06-17.0"}
{"text":"〒300-2300 茨城県つくばみらい市","city":"TSUKUBAMIRAI","postcode":"300-2300","muni":"つくばみらい市","muni_romaji":"TSUKUBAMIRAI SHI","pref":"茨城県","lat":35.939767,"lon":140.065753,"dataset":"OpenAddresses/Japanese Ministry of Land, Infrastructure and Transport","source":"overture-2026-06-17.0"}
{"text":"〒500-0000 岐阜県岐阜市","city":"GIFU","postcode":"500-0000","muni":"岐阜市","muni_romaji":"GIFU SHI","pref":"岐阜県","lat":35.427855,"lon":136.769705,"dataset":"OpenAddresses/Japanese Ministry of Land, Infrastructure and Transport","source":"overture-2026-06-17.0"}
{"text":"〒923-1100 石川県能美市","city":"NOMI","postcode":"923-1100","muni":"能美市","muni_romaji":"NOMI SHI","pref":"石川県","lat":36.429932,"lon":136.509011,"dataset":"OpenAddresses/Japanese Ministry of Land, Infrastructure and Transport","source":"overture-2026-06-17.0"}
{"text":"〒276-0000 千葉県八千代市","city":"YACHIYO","postcode":"276-0000","muni":"八千代市","muni_romaji":"YACHIYO SHI","pref":"千葉県","lat":35.73406,"lon":140.106999,"dataset":"OpenAddresses/Japanese Ministry of Land, Infrastructure and Transport","source":"overture-2026-06-17.0"}
{"text":"〒465-0000 愛知県名古屋市名東区","city":"NAGOYA","postcode":"465-0000","muni":"名古屋市名東区","muni_romaji":"NAGOYA SHI MEITO KU","pref":"愛知県","lat":35.176445,"lon":137.000375,"dataset":"OpenAddresses/Japanese Ministry of Land, Infrastructure and Transport","source":"overture-2026-06-17.0"}
{"text":"〒857-0000 長崎県佐世保市","city":"SASEBO","postcode":"857-0000","muni":"佐世保市","muni_romaji":"SASEBO SHI","pref":"長崎県","lat":33.079059,"lon":129.801514,"dataset":"OpenAddresses/Japanese Ministry of Land, Infrastructure and Transport","source":"overture-2026-06-17.0"}
{"text":"〒596-0000 大阪府岸和田市","city":"KISHIWADA","postcode":"596-0000","muni":"岸和田市","muni_romaji":"KISHIWADA SHI","pref":"大阪府","lat":34.437132,"lon":135.39167,"dataset":"OpenAddresses/Japanese Ministry of Land, Infrastructure and Transport","source":"overture-2026-06-17.0"}
{"text":"〒399-7101 長野県安曇野市","city":"AZUMINO","postcode":"399-7101","muni":"安曇野市","muni_romaji":"AZUMINO SHI","pref":"長野県","lat":36.285512,"lon":137.941,"dataset":"OpenAddresses/Japanese Ministry of Land, Infrastructure and Transport","source":"overture-2026-06-17.0"}
{"text":"〒610-0300 京都府京田辺市","city":"KYOTANABE","postcode":"610-0300","muni":"京田辺市","muni_romaji":"KYOTANABE SHI","pref":"京都府","lat":34.811272,"lon":135.774589,"dataset":"OpenAddresses/Japanese Ministry of Land, Infrastructure and Transport","source":"overture-2026-06-17.0"}
{"text":"〒314-0051 茨城県神栖市","city":"KAMISU","postcode":"314-0051","muni":"神栖市","muni_romaji":"KAMISU SHI","pref":"茨城県","lat":35.91404,"lon":140.633246,"dataset":"OpenAddresses/Japanese Ministry of Land, Infrastructure and Transport","source":"overture-2026-06-17.0"}
{"text":"〒300-0300 茨城県稲敷郡阿見町","city":"INASHIKI","postcode":"300-0300","muni":"稲敷郡阿見町","muni_romaji":"INASHIKI GUN AMI MACHI","pref":"茨城県","lat":36.00759,"lon":140.238935,"dataset":"OpenAddresses/Japanese Ministry of Land, Infrastructure and Transport","source":"overture-2026-06-17.0"}
{"text":"〒583-0000 大阪府羽曳野市","city":"HABIKINO","postcode":"583-0000","muni":"羽曳野市","muni_romaji":"HABIKINO SHI","pref":"大阪府","lat":34.531777,"lon":135.609222,"dataset":"OpenAddresses/Japanese Ministry of Land, Infrastructure and Transport","source":"overture-2026-06-17.0"}
{"text":"〒253-0100 神奈川県高座郡寒川町","city":"KOZA","postcode":"253-0100","muni":"高座郡寒川町","muni_romaji":"KOZA GUN SAMUKAWA MACHI","pref":"神奈川県","lat":35.400726,"lon":139.380258,"dataset":"OpenAddresses/Japanese Ministry of Land, Infrastructure and Transport","source":"overture-2026-06-17.0"}
{"text":"〒946-0000 新潟県魚沼市","city":"UONUMA","postcode":"946-0000","muni":"魚沼市","muni_romaji":"UONUMA SHI","pref":"新潟県","lat":37.232552,"lon":138.960446,"dataset":"OpenAddresses/Japanese Ministry of Land, Infrastructure and Transport","source":"overture-2026-06-17.0"}
{"text":"〒350-2200 埼玉県鶴ヶ島市","city":"TSURUGASHIMA","postcode":"350-2200","muni":"鶴ヶ島市","muni_romaji":"TSURUGASHIMA SHI","pref":"埼玉県","lat":35.928184,"lon":139.353712,"dataset":"OpenAddresses/Japanese Ministry of Land, Infrastructure and Transport","source":"overture-2026-06-17.0"}
{"text":"〒799-0101 愛媛県四国中央市","city":"SHIKOKUCHUO","postcode":"799-0101","muni":"四国中央市","muni_romaji":"SHIKOKUCHUO SHI","pref":"愛媛県","lat":33.966252,"lon":133.501882,"dataset":"OpenAddresses/Japanese Ministry of Land, Infrastructure and Transport","source":"overture-2026-06-17.0"}
{"text":"〒520-2300 滋賀県野洲市","city":"YASU","postcode":"520-2300","muni":"野洲市","muni_romaji":"YASU SHI","pref":"滋賀県","lat":35.082517,"lon":136.040549,"dataset":"OpenAddresses/Japanese Ministry of Land, Infrastructure and Transport","source":"overture-2026-06-17.0"}
{"text":"〒640-0000 和歌山県和歌山市","city":"WAKAYAMA","postcode":"640-0000","muni":"和歌山市","muni_romaji":"WAKAYAMA SHI","pref":"和歌山県","lat":34.262748,"lon":135.186988,"dataset":"OpenAddresses/Japanese Ministry of Land, Infrastructure and Transport","source":"overture-2026-06-17.0"}
{"text":"〒380-0801 長野県長野市","city":"NAGANO","postcode":"380-0801","muni":"長野市","muni_romaji":"NAGANO SHI","pref":"長野県","lat":36.654385,"lon":138.185612,"dataset":"OpenAddresses/Japanese Ministry of Land, Infrastructure and Transport","source":"overture-2026-06-17.0"}
{"text":"〒454-0000 愛知県名古屋市中川区","city":"NAGOYA","postcode":"454-0000","muni":"名古屋市中川区","muni_romaji":"NAGOYA SHI NAKAGAWA KU","pref":"愛知県","lat":35.140723,"lon":136.847116,"dataset":"OpenAddresses/Japanese Ministry of Land, Infrastructure and Transport","source":"overture-2026-06-17.0"}
{"text":"〒324-0000 栃木県大田原市","city":"OTAWARA","postcode":"324-0000","muni":"大田原市","muni_romaji":"OTAWARA SHI","pref":"栃木県","lat":36.906484,"lon":140.041558,"dataset":"OpenAddresses/Japanese Ministry of Land, Infrastructure and Transport","source":"overture-2026-06-17.0"}
{"text":"〒300-2300 茨城県つくばみらい市","city":"TSUKUBAMIRAI","postcode":"300-2300","muni":"つくばみらい市","muni_romaji":"TSUKUBAMIRAI SHI","pref":"茨城県","lat":35.994892,"lon":140.070618,"dataset":"OpenAddresses/Japanese Ministry of Land, Infrastructure and Transport","source":"overture-2026-06-17.0"}
{"text":"〒986-0401 宮城県登米市","city":"TOME","postcode":"986-0401","muni":"登米市","muni_romaji":"TOME SHI","pref":"宮城県","lat":38.700148,"lon":141.19904,"dataset":"OpenAddresses/Japanese Ministry of Land, Infrastructure and Transport","source":"overture-2026-06-17.0"}
{"text":"〒714-0000 岡山県笠岡市","city":"KASAOKA","postcode":"714-0000","muni":"笠岡市","muni_romaji":"KASAOKA SHI","pref":"岡山県","lat":34.468059,"lon":133.540614,"dataset":"OpenAddresses/Japanese Ministry of Land, Infrastructure and Transport","source":"overture-2026-06-17.0"}
{"text":"〒526-0000 滋賀県長浜市","city":"NAGAHAMA","postcode":"526-0000","muni":"長浜市","muni_romaji":"NAGAHAMA SHI","pref":"滋賀県","lat":35.373574,"lon":136.291324,"dataset":"OpenAddresses/Japanese Ministry of Land, Infrastructure and Transport","source":"overture-2026-06-17.0"}
{"text":"〒311-2400 茨城県潮来市","city":"ITAKO","postcode":"311-2400","muni":"潮来市","muni_romaji":"ITAKO SHI","pref":"茨城県","lat":35.966641,"lon":140.53322,"dataset":"OpenAddresses/Japanese Ministry of Land, Infrastructure and Transport","source":"overture-2026-06-17.0"}
{"text":"〒998-0000 山形県酒田市","city":"SAKATA","postcode":"998-0000","muni":"酒田市","muni_romaji":"SAKATA SHI","pref":"山形県","lat":38.950561,"lon":139.868003,"dataset":"OpenAddresses/Japanese Ministry of Land, Infrastructure and Transport","source":"overture-2026-06-17.0"}
{"text":"〒998-0000 山形県酒田市","city":"SAKATA","postcode":"998-0000","muni":"酒田市","muni_romaji":"SAKATA SHI","pref":"山形県","lat":38.864273,"lon":139.847155,"dataset":"OpenAddresses/Japanese Ministry of Land, Infrastructure and Transport","source":"overture-2026-06-17.0"}
{"text":"〒472-0000 愛知県知立市","city":"CHIRYU","postcode":"472-0000","muni":"知立市","muni_romaji":"CHIRYU SHI","pref":"愛知県","lat":35.013215,"lon":137.043662,"dataset":"OpenAddresses/Japanese Ministry of Land, Infrastructure and Transport","source":"overture-2026-06-17.0"}
{"text":"〒370-3571 群馬県前橋市","city":"MAEBASHI","postcode":"370-3571","muni":"前橋市","muni_romaji":"MAEBASHI SHI","pref":"群馬県","lat":36.39451,"lon":139.1569,"dataset":"OpenAddresses/Japanese Ministry of Land, Infrastructure and Transport","source":"overture-2026-06-17.0"}
{"text":"〒690-0000 島根県松江市","city":"MATSUE","postcode":"690-0000","muni":"松江市","muni_romaji":"MATSUE SHI","pref":"島根県","lat":35.491533,"lon":133.012561,"dataset":"OpenAddresses/Japanese Ministry of Land, Infrastructure and Transport","source":"overture-2026-06-17.0"}
{"text":"〒861-1201 熊本県菊池市","city":"KIKUCHI","postcode":"861-1201","muni":"菊池市","muni_romaji":"KIKUCHI SHI","pref":"熊本県","lat":32.91734,"lon":130.803499,"dataset":"OpenAddresses/Japanese Ministry of Land, Infrastructure and Transport","source":"overture-2026-06-17.0"}
{"text":"〒742-0000 山口県柳井市","city":"YANAI","postcode":"742-0000","muni":"柳井市","muni_romaji":"YANAI SHI","pref":"山口県","lat":33.972152,"lon":132.095285,"dataset":"OpenAddresses/Japanese Ministry of Land, Infrastructure and Transport","source":"overture-2026-06-17.0"}
{"text":"〒626-0000 京都府宮津市","city":"MIYAZU","postcode":"626-0000","muni":"宮津市","muni_romaji":"MIYAZU SHI","pref":"京都府","lat":35.501454,"lon":135.165634,"dataset":"OpenAddresses/Japanese Ministry of Land, Infrastructure and Transport","source":"overture-2026-06-17.0"}
{"text":"〒349-0100 埼玉県蓮田市","city":"HASUDA","postcode":"349-0100","muni":"蓮田市","muni_romaji":"HASUDA SHI","pref":"埼玉県","lat":36.028078,"lon":139.63636,"dataset":"OpenAddresses/Japanese Ministry of Land, Infrastructure and Transport","source":"overture-2026-06-17.0"}
{"text":"〒013-0000 秋田県横手市","city":"YOKOTE","postcode":"013-0000","muni":"横手市","muni_romaji":"YOKOTE SHI","pref":"秋田県","lat":39.341058,"lon":140.426695,"dataset":"OpenAddresses/Japanese Ministry of Land, Infrastructure and Transport","source":"overture-2026-06-17.0"}
{"text":"〒601-0701 京都府南丹市","city":"NANTAN","postcode":"601-0701","muni":"南丹市","muni_romaji":"NANTAN SHI","pref":"京都府","lat":35.091662,"lon":135.531707,"dataset":"OpenAddresses/Japanese Ministry of Land, Infrastructure and Transport","source":"overture-2026-06-17.0"}
{"text":"〒920-0000 石川県金沢市","city":"KANAZAWA","postcode":"920-0000","muni":"金沢市","muni_romaji":"KANAZAWA SHI","pref":"石川県","lat":36.562843,"lon":136.609762,"dataset":"OpenAddresses/Japanese Ministry of Land, Infrastructure and Transport","source":"overture-2026-06-17.0"}
{"text":"〒491-0000 愛知県一宮市","city":"ICHINOMIYA","postcode":"491-0000","muni":"一宮市","muni_romaji":"ICHINOMIYA SHI","pref":"愛知県","lat":35.34078,"lon":136.818701,"dataset":"OpenAddresses/Japanese Ministry of Land, Infrastructure and Transport","source":"overture-2026-06-17.0"}
{"text":"〒636-0000 奈良県生駒郡平群町","city":"IKOMA","postcode":"636-0000","muni":"生駒郡平群町","muni_romaji":"IKOMA GUN HEGURI CHO","pref":"奈良県","lat":34.631939,"lon":135.695298,"dataset":"OpenAddresses/Japanese Ministry of Land, Infrastructure and Transport","source":"overture-2026-06-17.0"}
{"text":"〒339-0000 埼玉県さいたま市岩槻区","city":"SAITAMA","postcode":"339-0000","muni":"さいたま市岩槻区","muni_romaji":"SAITAMA SHI IWATSUKI KU","pref":"埼玉県","lat":35.89689,"lon":139.742491,"dataset":"OpenAddresses/Japanese Ministry of Land, Infrastructure and Transport","source":"overture-2026-06-17.0"}
{"text":"〒310-0000 茨城県水戸市","city":"MITO","postcode":"310-0000","muni":"水戸市","muni_romaji":"MITO SHI","pref":"茨城県","lat":36.363909,"lon":140.419702,"dataset":"OpenAddresses/Japanese Ministry of Land, Infrastructure and Transport","source":"overture-2026-06-17.0"}
{"text":"〒300-4501 茨城県筑西市","city":"CHIKUSEI","postcode":"300-4501","muni":"筑西市","muni_romaji":"CHIKUSEI SHI","pref":"茨城県","lat":36.339454,"lon":140.014353,"dataset":"OpenAddresses/Japanese Ministry of Land, Infrastructure and Transport","source":"overture-2026-06-17.0"}
{"text":"〒949-6361 新潟県南魚沼市","city":"MINAMIUONUMA","postcode":"949-6361","muni":"南魚沼市","muni_romaji":"MINAMIUONUMA SHI","pref":"新潟県","lat":37.13277,"lon":138.94954,"dataset":"OpenAddresses/Japanese Ministry of Land, Infrastructure and Transport","source":"overture-2026-06-17.0"}
{"text":"〒294-0000 千葉県館山市","city":"TATEYAMA","postcode":"294-0000","muni":"館山市","muni_romaji":"TATEYAMA SHI","pref":"千葉県","lat":35.020363,"lon":139.855202,"dataset":"OpenAddresses/Japanese Ministry of Land, Infrastructure and Transport","source":"overture-2026-06-17.0"}
{"text":"〒938-0101 富山県下新川郡入善町","city":"SHIMONIIKAWA","postcode":"938-0101","muni":"下新川郡入善町","muni_romaji":"SHIMONIIKAWA GUN NYUZEN MACHI","pref":"富山県","lat":36.943492,"lon":137.500257,"dataset":"OpenAddresses/Japanese Ministry of Land, Infrastructure and Transport","source":"overture-2026-06-17.0"}
{"text":"〒465-0000 愛知県名古屋市名東区","city":"NAGOYA","postcode":"465-0000","muni":"名古屋市名東区","muni_romaji":"NAGOYA SHI MEITO KU","pref":"愛知県","lat":35.166972,"lon":137.016394,"dataset":"OpenAddresses/Japanese Ministry of Land, Infrastructure and Transport","source":"overture-2026-06-17.0"}
{"text":"〒015-0000 秋田県由利本荘市","city":"YURIHONJO","postcode":"015-0000","muni":"由利本荘市","muni_romaji":"YURIHONJO SHI","pref":"秋田県","lat":39.384373,"lon":140.05541,"dataset":"OpenAddresses/Japanese Ministry of Land, Infrastructure and Transport","source":"overture-2026-06-17.0"}
{"text":"〒400-0201 山梨県南アルプス市","city":"MINAMIARUPUSU","postcode":"400-0201","muni":"南アルプス市","muni_romaji":"MINAMIARUPUSU SHI","pref":"山梨県","lat":35.602078,"lon":138.469799,"dataset":"OpenAddresses/Japanese Ministry of Land, Infrastructure and Transport","source":"overture-2026-06-17.0"}
{"text":"〒360-0000 埼玉県熊谷市","city":"KUMAGAYA","postcode":"360-0000","muni":"熊谷市","muni_romaji":"KUMAGAYA SHI","pref":"埼玉県","lat":36.142713,"lon":139.376732,"dataset":"OpenAddresses/Japanese Ministry of Land, Infrastructure and Transport","source":"overture-2026-06-17.0"}
{"text":"〒720-0001 広島県福山市","city":"FUKUYAMA","postcode":"720-0001","muni":"福山市","muni_romaji":"FUKUYAMA SHI","pref":"広島県","lat":34.441348,"lon":133.297617,"dataset":"OpenAddresses/Japanese Ministry of Land, Infrastructure and Transport","source":"overture-2026-06-17.0"}
{"text":"〒790-0001 愛媛県松山市","city":"MATSUYAMA","postcode":"790-0001","muni":"松山市","muni_romaji":"MATSUYAMA SHI","pref":"愛媛県","lat":33.808437,"lon":132.813309,"dataset":"OpenAddresses/Japanese Ministry of Land, Infrastructure and Transport","source":"overture-2026-06-17.0"}
{"text":"〒311-2400 茨城県潮来市","city":"ITAKO","postcode":"311-2400","muni":"潮来市","muni_romaji":"ITAKO SHI","pref":"茨城県","lat":35.957827,"lon":140.518968,"dataset":"OpenAddresses/Japanese Ministry of Land, Infrastructure and Transport","source":"overture-2026-06-17.0"}
{"text":"〒444-0000 愛知県岡崎市","city":"OKAZAKI","postcode":"444-0000","muni":"岡崎市","muni_romaji":"OKAZAKI SHI","pref":"愛知県","lat":34.976622,"lon":137.143991,"dataset":"OpenAddresses/Japanese Ministry of Land, Infrastructure and Transport","source":"overture-2026-06-17.0"}
{"text":"〒890-0000 鹿児島県鹿児島市","city":"KAGOSHIMA","postcode":"890-0000","muni":"鹿児島市","muni_romaji":"KAGOSHIMA SHI","pref":"鹿児島県","lat":31.560249,"lon":130.503619,"dataset":"OpenAddresses/Japanese Ministry of Land, Infrastructure and Transport","source":"overture-2026-06-17.0"}
{"text":"〒362-0800 埼玉県北足立郡伊奈町","city":"KITAADACHI","postcode":"362-0800","muni":"北足立郡伊奈町","muni_romaji":"KITAADACHI GUN INA MACHI","pref":"埼玉県","lat":36.013404,"lon":139.615118,"dataset":"OpenAddresses/Japanese Ministry of Land, Infrastructure and Transport","source":"overture-2026-06-17.0"}
{"text":"〒829-0100 福岡県築上郡築上町","city":"CHIKUJO","postcode":"829-0100","muni":"築上郡築上町","muni_romaji":"CHIKUJO GUN CHIKUJO MACHI","pref":"福岡県","lat":33.64909,"lon":131.069866,"dataset":"OpenAddresses/Japanese Ministry of Land, Infrastructure and Transport","source":"overture-2026-06-17.0"}
{"text":"〒673-0000 兵庫県明石市","city":"AKASHI","postcode":"673-0000","muni":"明石市","muni_romaji":"AKASHI SHI","pref":"兵庫県","lat":34.676183,"lon":134.959977,"dataset":"OpenAddresses/Japanese Ministry of Land, Infrastructure and Transport","source":"overture-2026-06-17.0"}
{"text":"〒910-0001 福井県福井市","city":"FUKUI","postcode":"910-0001","muni":"福井市","muni_romaji":"FUKUI SHI","pref":"福井県","lat":36.065006,"lon":136.19512,"dataset":"OpenAddresses/Japanese Ministry of Land, Infrastructure and Transport","source":"overture-2026-06-17.0"}
{"text":"〒351-0000 埼玉県朝霞市","city":"ASAKA","postcode":"351-0000","muni":"朝霞市","muni_romaji":"ASAKA SHI","pref":"埼玉県","lat":35.831389,"lon":139.605003,"dataset":"OpenAddresses/Japanese Ministry of Land, Infrastructure and Transport","source":"overture-2026-06-17.0"}
{"text":"〒444-1151 愛知県安城市","city":"ANJO","postcode":"444-1151","muni":"安城市","muni_romaji":"ANJO SHI","pref":"愛知県","lat":34.927253,"lon":137.066769,"dataset":"OpenAddresses/Japanese Ministry of Land, Infrastructure and Transport","source":"overture-2026-06-17.0"}
{"text":"〒059-0000 北海道登別市","city":"NOBORIBETSU","postcode":"059-0000","muni":"登別市","muni_romaji":"NOBORIBETSU SHI","pref":"北海道","lat":42.366893,"lon":141.03899,"dataset":"OpenAddresses/Japanese Ministry of Land, Infrastructure and Transport","source":"overture-2026-06-17.0"}
{"text":"〒282-0001 千葉県成田市","city":"NARITA","postcode":"282-0001","muni":"成田市","muni_romaji":"NARITA SHI","pref":"千葉県","lat":35.757908,"lon":140.358794,"dataset":"OpenAddresses/Japanese Ministry of Land, Infrastructure and Transport","source":"overture-2026-06-17.0"}
{"text":"〒521-1201 滋賀県東近江市","city":"HIGASHIOMI","postcode":"521-1201","muni":"東近江市","muni_romaji":"HIGASHIOMI SHI","pref":"滋賀県","lat":35.124831,"lon":136.204712,"dataset":"OpenAddresses/Japanese Ministry of Land, Infrastructure and Transport","source":"overture-2026-06-17.0"}
{"text":"〒811-4200 福岡県遠賀郡岡垣町","city":"ONGA","postcode":"811-4200","muni":"遠賀郡岡垣町","muni_romaji":"ONGA GUN OKAGAKI MACHI","pref":"福岡県","lat":33.847714,"lon":130.646015,"dataset":"OpenAddresses/Japanese Ministry of Land, Infrastructure and Transport","source":"overture-2026-06-17.0"}
{"text":"〒345-0000 埼玉県南埼玉郡宮代町","city":"MINAMISAITAMA","postcode":"345-0000","muni":"南埼玉郡宮代町","muni_romaji":"MINAMISAITAMA GUN MIYASHIRO MACHI","pref":"埼玉県","lat":36.036484,"lon":139.695174,"dataset":"OpenAddresses/Japanese Ministry of Land, Infrastructure and Transport","source":"overture-2026-06-17.0"}
{"text":"〒762-0000 香川県坂出市","city":"SAKAIDE","postcode":"762-0000","muni":"坂出市","muni_romaji":"SAKAIDE SHI","pref":"香川県","lat":34.2935,"lon":133.924163,"dataset":"OpenAddresses/Japanese Ministry of Land, Infrastructure and Transport","source":"overture-2026-06-17.0"}
{"text":"〒619-0200 京都府木津川市","city":"KIZUGAWA","postcode":"619-0200","muni":"木津川市","muni_romaji":"KIZUGAWA SHI","pref":"京都府","lat":34.758525,"lon":135.871328,"dataset":"OpenAddresses/Japanese Ministry of Land, Infrastructure and Transport","source":"overture-2026-06-17.0"}
{"text":"〒276-0000 千葉県八千代市","city":"YACHIYO","postcode":"276-0000","muni":"八千代市","muni_romaji":"YACHIYO SHI","pref":"千葉県","lat":35.732768,"lon":140.108314,"dataset":"OpenAddresses/Japanese Ministry of Land, Infrastructure and Transport","source":"overture-2026-06-17.0"}
{"text":"〒306-0300 茨城県猿島郡五霞町","city":"SASHIMA","postcode":"306-0300","muni":"猿島郡五霞町","muni_romaji":"SASHIMA GUN GOKA MACHI","pref":"茨城県","lat":36.090795,"lon":139.747152,"dataset":"OpenAddresses/Japanese Ministry of Land, Infrastructure and Transport","source":"overture-2026-06-17.0"}
{"text":"〒961-0000 福島県白河市","city":"SHIRAKAWA","postcode":"961-0000","muni":"白河市","muni_romaji":"SHIRAKAWA SHI","pref":"福島県","lat":37.127431,"lon":140.199449,"dataset":"OpenAddresses/Japanese Ministry of Land, Infrastructure and Transport","source":"overture-2026-06-17.0"}
{"text":"〒068-0000 北海道岩見沢市","city":"IWAMIZAWA","postcode":"068-0000","muni":"岩見沢市","muni_romaji":"IWAMIZAWA SHI","pref":"北海道","lat":43.207311,"lon":141.780608,"dataset":"OpenAddresses/Japanese Ministry of Land, Infrastructure and Transport","source":"overture-2026-06-17.0"}
{"text":"〒756-0000 山口県山陽小野田市","city":"SANYOONODA","postcode":"756-0000","muni":"山陽小野田市","muni_romaji":"SANYOONODA SHI","pref":"山口県","lat":34.010584,"lon":131.198327,"dataset":"OpenAddresses/Japanese Ministry of Land, Infrastructure and Transport","source":"overture-2026-06-17.0"}
{"text":"〒387-0000 長野県千曲市","city":"CHIKUMA","postcode":"387-0000","muni":"千曲市","muni_romaji":"CHIKUMA SHI","pref":"長野県","lat":36.513014,"lon":138.109551,"dataset":"OpenAddresses/Japanese Ministry of Land, Infrastructure and Transport","source":"overture-2026-06-17.0"}
{"text":"〒790-0001 愛媛県松山市","city":"MATSUYAMA","postcode":"790-0001","muni":"松山市","muni_romaji":"MATSUYAMA SHI","pref":"愛媛県","lat":33.886901,"lon":132.732325,"dataset":"OpenAddresses/Japanese Ministry of Land, Infrastructure and Transport","source":"overture-2026-06-17.0"}
{"text":"〒899-5201 鹿児島県姶良市","city":"AIRA","postcode":"899-5201","muni":"姶良市","muni_romaji":"AIRA SHI","pref":"鹿児島県","lat":31.743691,"lon":130.651916,"dataset":"OpenAddresses/Japanese Ministry of Land, Infrastructure and Transport","source":"overture-2026-06-17.0"}
{"text":"〒358-0000 埼玉県入間市","city":"IRUMA","postcode":"358-0000","muni":"入間市","muni_romaji":"IRUMA SHI","pref":"埼玉県","lat":35.837319,"lon":139.358196,"dataset":"OpenAddresses/Japanese Ministry of Land, Infrastructure and Transport","source":"overture-2026-06-17.0"}
{"text":"〒602-0000 京都府京都市上京区","city":"KYOTO","postcode":"602-0000","muni":"京都市上京区","muni_romaji":"KYOTO SHI KAMIGYO KU","pref":"京都府","lat":35.025156,"lon":135.745533,"dataset":"OpenAddresses/Japanese Ministry of Land, Infrastructure and Transport","source":"overture-2026-06-17.0"}
{"text":"〒518-0000 三重県伊賀市","city":"IGA","postcode":"518-0000","muni":"伊賀市","muni_romaji":"IGA SHI","pref":"三重県","lat":34.74481,"lon":136.181364,"dataset":"OpenAddresses/Japanese Ministry of Land, Infrastructure and Transport","source":"overture-2026-06-17.0"}
{"text":"〒838-0000 福岡県朝倉郡筑前町","city":"ASAKURA","postcode":"838-0000","muni":"朝倉郡筑前町","muni_romaji":"ASAKURA GUN CHIKUZEN MACHI","pref":"福岡県","lat":33.436112,"lon":130.646349,"dataset":"OpenAddresses/Japanese Ministry of Land, Infrastructure and Transport","source":"overture-2026-06-17.0"}
{"text":"〒036-0000 青森県弘前市","city":"HIROSAKI","postcode":"036-0000","muni":"弘前市","muni_romaji":"HIROSAKI SHI","pref":"青森県","lat":40.617117,"lon":140.399649,"dataset":"OpenAddresses/Japanese Ministry of Land, Infrastructure and Transport","source":"overture-2026-06-17.0"}
{"text":"〒448-0000 愛知県刈谷市","city":"KARIYA","postcode":"448-0000","muni":"刈谷市","muni_romaji":"KARIYA SHI","pref":"愛知県","lat":34.983384,"lon":136.990287,"dataset":"OpenAddresses/Japanese Ministry of Land, Infrastructure and Transport","source":"overture-2026-06-17.0"}
{"text":"〒549-0001 大阪府泉佐野市","city":"IZUMISANO","postcode":"549-0001","muni":"泉佐野市","muni_romaji":"IZUMISANO SHI","pref":"大阪府","lat":34.37085,"lon":135.32781,"dataset":"OpenAddresses/Japanese Ministry of Land, Infrastructure and Transport","source":"overture-2026-06-17.0"}
{"text":"〒761-2101 香川県綾歌郡綾川町","city":"AYAUTA","postcode":"761-2101","muni":"綾歌郡綾川町","muni_romaji":"AYAUTA GUN AYAGAWA CHO","pref":"香川県","lat":34.264984,"lon":133.955473,"dataset":"OpenAddresses/Japanese Ministry of Land, Infrastructure and Transport","source":"overture-2026-06-17.0"}
{"text":"〒835-0000 福岡県みやま市","city":"MIYAMA","postcode":"835-0000","muni":"みやま市","muni_romaji":"MIYAMA SHI","pref":"福岡県","lat":33.157216,"lon":130.475559,"dataset":"OpenAddresses/Japanese Ministry of Land, Infrastructure and Transport","source":"overture-2026-06-17.0"}
{"text":"〒416-0901 静岡県富士市","city":"FUJI","postcode":"416-0901","muni":"富士市","muni_romaji":"FUJI SHI","pref":"静岡県","lat":35.149699,"lon":138.676662,"dataset":"OpenAddresses/Japanese Ministry of Land, Infrastructure and Transport","source":"overture-2026-06-17.0"}
{"text":"〒670-0000 兵庫県姫路市","city":"HIMEJI","postcode":"670-0000","muni":"姫路市","muni_romaji":"HIMEJI SHI","pref":"兵庫県","lat":34.900001,"lon":134.592149,"dataset":"OpenAddresses/Japanese Ministry of Land, Infrastructure and Transport","source":"overture-2026-06-17.0"}
{"text":"〒840-0001 佐賀県佐賀市","city":"SAGA","postcode":"840-0001","muni":"佐賀市","muni_romaji":"SAGA SHI","pref":"佐賀県","lat":33.251554,"lon":130.275701,"dataset":"OpenAddresses/Japanese Ministry of Land, Infrastructure and Transport","source":"overture-2026-06-17.0"}
{"text":"〒329-1571 栃木県矢板市","city":"YAITA","postcode":"329-1571","muni":"矢板市","muni_romaji":"YAITA SHI","pref":"栃木県","lat":36.78865,"lon":139.924396,"dataset":"OpenAddresses/Japanese Ministry of Land, Infrastructure and Transport","source":"overture-2026-06-17.0"}
{"text":"〒505-0130 岐阜県可児市","city":"KANI","postcode":"505-0130","muni":"可児市","muni_romaji":"KANI SHI","pref":"岐阜県","lat":35.380919,"lon":137.108993,"dataset":"OpenAddresses/Japanese Ministry of Land, Infrastructure and Transport","source":"overture-2026-06-17.0"}
{"text":"〒861-1100 熊本県合志市","city":"KOSHI","postcode":"861-1100","muni":"合志市","muni_romaji":"KOSHI SHI","pref":"熊本県","lat":32.918097,"lon":130.731174,"dataset":"OpenAddresses/Japanese Ministry of Land, Infrastructure and Transport","source":"overture-2026-06-17.0"}
{"text":"〒444-0000 愛知県岡崎市","city":"OKAZAKI","postcode":"444-0000","muni":"岡崎市","muni_romaji":"OKAZAKI SHI","pref":"愛知県","lat":34.95618,"lon":137.142928,"dataset":"OpenAddresses/Japanese Ministry of Land, Infrastructure and Transport","source":"overture-2026-06-17.0"}
{"text":"〒270-1300 千葉県印西市","city":"INZAI","postcode":"270-1300","muni":"印西市","muni_romaji":"INZAI SHI","pref":"千葉県","lat":35.796388,"lon":140.111121,"dataset":"OpenAddresses/Japanese Ministry of Land, Infrastructure and Transport","source":"overture-2026-06-17.0"}
{"text":"〒347-0000 埼玉県加須市","city":"KAZO","postcode":"347-0000","muni":"加須市","muni_romaji":"KAZO SHI","pref":"埼玉県","lat":36.208947,"lon":139.649631,"dataset":"OpenAddresses/Japanese Ministry of Land, Infrastructure and Transport","source":"overture-2026-06-17.0"}
{"text":"〒389-1300 長野県上水内郡信濃町","city":"KAMIMINOCHI","postcode":"389-1300","muni":"上水内郡信濃町","muni_romaji":"KAMIMINOCHI GUN SHINANO MACHI","pref":"長野県","lat":36.804651,"lon":138.213378,"dataset":"OpenAddresses/Japanese Ministry of Land, Infrastructure and Transport","source":"overture-2026-06-17.0"}
{"text":"〒323-0101 栃木県下野市","city":"SHIMOTSUKE","postcode":"323-0101","muni":"下野市","muni_romaji":"SHIMOTSUKE SHI","pref":"栃木県","lat":36.377488,"lon":139.901928,"dataset":"OpenAddresses/Japanese Ministry of Land, Infrastructure and Transport","source":"overture-2026-06-17.0"}
{"text":"〒004-0000 北海道札幌市厚別区","city":"SAPPORO","postcode":"004-0000","muni":"札幌市厚別区","muni_romaji":"SAPPORO SHI ATSUBETSU KU","pref":"北海道","lat":43.039537,"lon":141.50103,"dataset":"OpenAddresses/Japanese Ministry of Land, Infrastructure and Transport","source":"overture-2026-06-17.0"}
{"text":"〒020-0891 岩手県紫波郡矢巾町","city":"SHIWA","postcode":"020-0891","muni":"紫波郡矢巾町","muni_romaji":"SHIWA GUN YAHABA CHO","pref":"岩手県","lat":39.610435,"lon":141.154791,"dataset":"OpenAddresses/Japanese Ministry of Land, Infrastructure and Transport","source":"overture-2026-06-17.0"}
{"text":"〒484-0000 愛知県犬山市","city":"INUYAMA","postcode":"484-0000","muni":"犬山市","muni_romaji":"INUYAMA SHI","pref":"愛知県","lat":35.34525,"lon":136.95709,"dataset":"OpenAddresses/Japanese Ministry of Land, Infrastructure and Transport","source":"overture-2026-06-17.0"}
{"text":"〒580-0000 大阪府松原市","city":"MATSUBARA","postcode":"580-0000","muni":"松原市","muni_romaji":"MATSUBARA SHI","pref":"大阪府","lat":34.592965,"lon":135.535078,"dataset":"OpenAddresses/Japanese Ministry of Land, Infrastructure and Transport","source":"overture-2026-06-17.0"}
{"text":"〒496-0000 愛知県津島市","city":"TSUSHIMA","postcode":"496-0000","muni":"津島市","muni_romaji":"TSUSHIMA SHI","pref":"愛知県","lat":35.169528,"lon":136.751572,"dataset":"OpenAddresses/Japanese Ministry of Land, Infrastructure and Transport","source":"overture-2026-06-17.0"}
{"text":"〒700-0000 岡山県岡山市東区","city":"OKAYAMA","postcode":"700-0000","muni":"岡山市東区","muni_romaji":"OKAYAMA SHI HIGASHI KU","pref":"岡山県","lat":34.62501,"lon":134.009365,"dataset":"OpenAddresses/Japanese Ministry of Land, Infrastructure and Transport","source":"overture-2026-06-17.0"}
{"text":"〒437-1201 静岡県磐田市","city":"IWATA","postcode":"437-1201","muni":"磐田市","muni_romaji":"IWATA SHI","pref":"静岡県","lat":34.742191,"lon":137.841975,"dataset":"OpenAddresses/Japanese Ministry of Land, Infrastructure and Transport","source":"overture-2026-06-17.0"}
{"text":"〒020-0891 岩手県紫波郡矢巾町","city":"SHIWA","postcode":"020-0891","muni":"紫波郡矢巾町","muni_romaji":"SHIWA GUN YAHABA CHO","pref":"岩手県","lat":39.623345,"lon":141.147479,"dataset":"OpenAddresses/Japanese Ministry of Land, Infrastructure and Transport","source":"overture-2026-06-17.0"}
{"text":"〒836-0000 福岡県大牟田市","city":"OMUTA","postcode":"836-0000","muni":"大牟田市","muni_romaji":"OMUTA SHI","pref":"福岡県","lat":33.028057,"lon":130.458143,"dataset":"OpenAddresses/Japanese Ministry of Land, Infrastructure and Transport","source":"overture-2026-06-17.0"}
{"text":"〒421-1101 静岡県藤枝市","city":"FUJIEDA","postcode":"421-1101","muni":"藤枝市","muni_romaji":"FUJIEDA SHI","pref":"静岡県","lat":34.894159,"lon":138.276834,"dataset":"OpenAddresses/Japanese Ministry of Land, Infrastructure and Transport","source":"overture-2026-06-17.0"}
{"text":"〒300-0500 茨城県稲敷市","city":"INASHIKI","postcode":"300-0500","muni":"稲敷市","muni_romaji":"INASHIKI SHI","pref":"茨城県","lat":35.915739,"lon":140.309194,"dataset":"OpenAddresses/Japanese Ministry of Land, Infrastructure and Transport","source":"overture-2026-06-17.0"}
{"text":"〒437-0000 静岡県袋井市","city":"FUKUROI","postcode":"437-0000","muni":"袋井市","muni_romaji":"FUKUROI SHI","pref":"静岡県","lat":34.783688,"lon":137.931465,"dataset":"OpenAddresses/Japanese Ministry of Land, Infrastructure and Transport","source":"overture-2026-06-17.0"}
{"text":"〒398-0000 長野県大町市","city":"OMACHI","postcode":"398-0000","muni":"大町市","muni_romaji":"OMACHI SHI","pref":"長野県","lat":36.495267,"lon":137.85307,"dataset":"OpenAddresses/Japanese Ministry of Land, Infrastructure and Transport","source":"overture-2026-06-17.0"}
{"text":"〒869-1100 熊本県菊池郡菊陽町","city":"KIKUCHI","postcode":"869-1100","muni":"菊池郡菊陽町","muni_romaji":"KIKUCHI GUN KIKUYO MACHI","pref":"熊本県","lat":32.858392,"lon":130.76676,"dataset":"OpenAddresses/Japanese Ministry of Land, Infrastructure and Transport","source":"overture-2026-06-17.0"}
{"text":"〒832-0000 福岡県柳川市","city":"YANAGAWA","postcode":"832-0000","muni":"柳川市","muni_romaji":"YANAGAWA SHI","pref":"福岡県","lat":33.170365,"lon":130.436505,"dataset":"OpenAddresses/Japanese Ministry of Land, Infrastructure and Transport","source":"overture-2026-06-17.0"}
{"text":"〒290-0000 千葉県市原市","city":"ICHIHARA","postcode":"290-0000","muni":"市原市","muni_romaji":"ICHIHARA SHI","pref":"千葉県","lat":35.4986,"lon":140.186893,"dataset":"OpenAddresses/Japanese Ministry of Land, Infrastructure and Transport","source":"overture-2026-06-17.0"}
{"text":"〒290-0000 千葉県市原市","city":"ICHIHARA","postcode":"290-0000","muni":"市原市","muni_romaji":"ICHIHARA SHI","pref":"千葉県","lat":35.495958,"lon":140.190371,"dataset":"OpenAddresses/Japanese Ministry of Land, Infrastructure and Transport","source":"overture-2026-06-17.0"}
{"text":"〒412-0000 静岡県御殿場市","city":"GOTEMBA","postcode":"412-0000","muni":"御殿場市","muni_romaji":"GOTEMBA SHI","pref":"静岡県","lat":35.314528,"lon":138.956245,"dataset":"OpenAddresses/Japanese Ministry of Land, Infrastructure and Transport","source":"overture-2026-06-17.0"}
{"text":"〒197-0000 東京都福生市","city":"FUSSA","postcode":"197-0000","muni":"福生市","muni_romaji":"FUSSA SHI","pref":"東京都","lat":35.749066,"lon":139.324409,"dataset":"OpenAddresses/Japanese Ministry of Land, Infrastructure and Transport","source":"overture-2026-06-17.0"}
{"text":"〒820-0000 福岡県飯塚市","city":"IIZUKA","postcode":"820-0000","muni":"飯塚市","muni_romaji":"IIZUKA SHI","pref":"福岡県","lat":33.625673,"lon":130.671421,"dataset":"OpenAddresses/Japanese Ministry of Land, Infrastructure and Transport","source":"overture-2026-06-17.0"}
{"text":"〒879-2400 大分県津久見市","city":"TSUKUMI","postcode":"879-2400","muni":"津久見市","muni_romaji":"TSUKUMI SHI","pref":"大分県","lat":33.095302,"lon":131.860332,"dataset":"OpenAddresses/Japanese Ministry of Land, Infrastructure and Transport","source":"overture-2026-06-17.0"}
{"text":"〒190-0100 東京都あきる野市","city":"AKIRUNO","postcode":"190-0100","muni":"あきる野市","muni_romaji":"AKIRUNO SHI","pref":"東京都","lat":35.725148,"lon":139.31479,"dataset":"OpenAddresses/Japanese Ministry of Land, Infrastructure and Transport","source":"overture-2026-06-17.0"}
{"text":"〒329-0521 栃木県河内郡上三川町","city":"KAWACHI","postcode":"329-0521","muni":"河内郡上三川町","muni_romaji":"KAWACHI GUN KAMINOKAWA MACHI","pref":"栃木県","lat":36.4285,"lon":139.906748,"dataset":"OpenAddresses/Japanese Ministry of Land, Infrastructure and Transport","source":"overture-2026-06-17.0"}
{"text":"〒253-0000 神奈川県茅ヶ崎市","city":"CHIGASAKI","postcode":"253-0000","muni":"茅ヶ崎市","muni_romaji":"CHIGASAKI SHI","pref":"神奈川県","lat":35.356945,"lon":139.423475,"dataset":"OpenAddresses/Japanese Ministry of Land, Infrastructure and Transport","source":"overture-2026-06-17.0"}
{"text":"〒437-0000 静岡県袋井市","city":"FUKUROI","postcode":"437-0000","muni":"袋井市","muni_romaji":"FUKUROI SHI","pref":"静岡県","lat":34.792679,"lon":137.906407,"dataset":"OpenAddresses/Japanese Ministry of Land, Infrastructure and Transport","source":"overture-2026-06-17.0"}
{"text":"〒355-0300 埼玉県比企郡小川町","city":"HIKI","postcode":"355-0300","muni":"比企郡小川町","muni_romaji":"HIKI GUN OGAWA MACHI","pref":"埼玉県","lat":36.072192,"lon":139.294591,"dataset":"OpenAddresses/Japanese Ministry of Land, Infrastructure and Transport","source":"overture-2026-06-17.0"}
{"text":"〒348-0000 埼玉県羽生市","city":"HANYU","postcode":"348-0000","muni":"羽生市","muni_romaji":"HANYU SHI","pref":"埼玉県","lat":36.1719,"lon":139.511011,"dataset":"OpenAddresses/Japanese Ministry of Land, Infrastructure and Transport","source":"overture-2026-06-17.0"}
{"text":"〒300-4501 茨城県筑西市","city":"CHIKUSEI","postcode":"300-4501","muni":"筑西市","muni_romaji":"CHIKUSEI SHI","pref":"茨城県","lat":36.322896,"lon":139.961714,"dataset":"OpenAddresses/Japanese Ministry of Land, Infrastructure and Transport","source":"overture-2026-06-17.0"}
{"text":"〒437-1201 静岡県磐田市","city":"IWATA","postcode":"437-1201","muni":"磐田市","muni_romaji":"IWATA SHI","pref":"静岡県","lat":34.679835,"lon":137.811614,"dataset":"OpenAddresses/Japanese Ministry of Land, Infrastructure and Transport","source":"overture-2026-06-17.0"}
{"text":"〒355-0200 埼玉県比企郡嵐山町","city":"HIKI","postcode":"355-0200","muni":"比企郡嵐山町","muni_romaji":"HIKI GUN RANZAN MACHI","pref":"埼玉県","lat":36.089013,"lon":139.302136,"dataset":"OpenAddresses/Japanese Ministry of Land, Infrastructure and Transport","source":"overture-2026-06-17.0"}
{"text":"〒920-0000 石川県金沢市","city":"KANAZAWA","postcode":"920-0000","muni":"金沢市","muni_romaji":"KANAZAWA SHI","pref":"石川県","lat":36.564316,"lon":136.583458,"dataset":"OpenAddresses/Japanese Ministry of Land, Infrastructure and Transport","source":"overture-2026-06-17.0"}
{"text":"〒304-0000 茨城県下妻市","city":"SHIMOTSUMA","postcode":"304-0000","muni":"下妻市","muni_romaji":"SHIMOTSUMA SHI","pref":"茨城県","lat":36.158966,"lon":139.96114,"dataset":"OpenAddresses/Japanese Ministry of Land, Infrastructure and Transport","source":"overture-2026-06-17.0"}
{"text":"〒761-0901 香川県さぬき市","city":"SANUKI","postcode":"761-0901","muni":"さぬき市","muni_romaji":"SANUKI SHI","pref":"香川県","lat":34.257719,"lon":134.168128,"dataset":"OpenAddresses/Japanese Ministry of Land, Infrastructure and Transport","source":"overture-2026-06-17.0"}
{"text":"〒500-0000 岐阜県岐阜市","city":"GIFU","postcode":"500-0000","muni":"岐阜市","muni_romaji":"GIFU SHI","pref":"岐阜県","lat":35.403679,"lon":136.78177,"dataset":"OpenAddresses/Japanese Ministry of Land, Infrastructure and Transport","source":"overture-2026-06-17.0"}
{"text":"〒879-1500 大分県速見郡日出町","city":"HAYAMI","postcode":"879-1500","muni":"速見郡日出町","muni_romaji":"HAYAMI GUN HIJI MACHI","pref":"大分県","lat":33.367024,"lon":131.510655,"dataset":"OpenAddresses/Japanese Ministry of Land, Infrastructure and Transport","source":"overture-2026-06-17.0"}
{"text":"〒350-0400 埼玉県入間郡毛呂山町","city":"IRUMA","postcode":"350-0400","muni":"入間郡毛呂山町","muni_romaji":"IRUMA GUN MOROYAMA MACHI","pref":"埼玉県","lat":35.933568,"lon":139.345771,"dataset":"OpenAddresses/Japanese Ministry of Land, Infrastructure and Transport","source":"overture-2026-06-17.0"}
{"text":"〒841-0000 佐賀県鳥栖市","city":"TOSU","postcode":"841-0000","muni":"鳥栖市","muni_romaji":"TOSU SHI","pref":"佐賀県","lat":33.40922,"lon":130.523516,"dataset":"OpenAddresses/Japanese Ministry of Land, Infrastructure and Transport","source":"overture-2026-06-17.0"}
{"text":"〒521-0000 滋賀県米原市","city":"MAIBARA","postcode":"521-0000","muni":"米原市","muni_romaji":"MAIBARA SHI","pref":"滋賀県","lat":35.324281,"lon":136.292779,"dataset":"OpenAddresses/Japanese Ministry of Land, Infrastructure and Transport","source":"overture-2026-06-17.0"}
{"text":"〒306-0400 茨城県猿島郡境町","city":"SASHIMA","postcode":"306-0400","muni":"猿島郡境町","muni_romaji":"SASHIMA GUN SAKAI MACHI","pref":"茨城県","lat":36.064985,"lon":139.827986,"dataset":"OpenAddresses/Japanese Ministry of Land, Infrastructure and Transport","source":"overture-2026-06-17.0"}
{"text":"〒300-4501 茨城県筑西市","city":"CHIKUSEI","postcode":"300-4501","muni":"筑西市","muni_romaji":"CHIKUSEI SHI","pref":"茨城県","lat":36.281255,"lon":140.006376,"dataset":"OpenAddresses/Japanese Ministry of Land, Infrastructure and Transport","source":"overture-2026-06-17.0"}
{"text":"〒720-0001 広島県福山市","city":"FUKUYAMA","postcode":"720-0001","muni":"福山市","muni_romaji":"FUKUYAMA SHI","pref":"広島県","lat":34.522961,"lon":133.263859,"dataset":"OpenAddresses/Japanese Ministry of Land, Infrastructure and Transport","source":"overture-2026-06-17.0"}
{"text":"〒254-0000 神奈川県平塚市","city":"HIRATSUKA","postcode":"254-0000","muni":"平塚市","muni_romaji":"HIRATSUKA SHI","pref":"神奈川県","lat":35.328591,"lon":139.331477,"dataset":"OpenAddresses/Japanese Ministry of Land, Infrastructure and Transport","source":"overture-2026-06-17.0"}
{"text":"〒306-0300 茨城県猿島郡五霞町","city":"SASHIMA","postcode":"306-0300","muni":"猿島郡五霞町","muni_romaji":"SASHIMA GUN GOKA MACHI","pref":"茨城県","lat":36.120243,"lon":139.729771,"dataset":"OpenAddresses/Japanese Ministry of Land, Infrastructure and Transport","source":"overture-2026-06-17.0"}
{"text":"〒811-0100 福岡県糟屋郡新宮町","city":"KASUYA","postcode":"811-0100","muni":"糟屋郡新宮町","muni_romaji":"KASUYA GUN SHINGU MACHI","pref":"福岡県","lat":33.706503,"lon":130.463228,"dataset":"OpenAddresses/Japanese Ministry of Land, Infrastructure and Transport","source":"overture-2026-06-17.0"}
{"text":"〒441-0101 愛知県豊川市","city":"TOYOKAWA","postcode":"441-0101","muni":"豊川市","muni_romaji":"TOYOKAWA SHI","pref":"愛知県","lat":34.854072,"lon":137.31133,"dataset":"OpenAddresses/Japanese Ministry of Land, Infrastructure and Transport","source":"overture-2026-06-17.0"}
{"text":"〒300-3500 茨城県結城郡八千代町","city":"YUKI","postcode":"300-3500","muni":"結城郡八千代町","muni_romaji":"YUKI GUN YACHIYO MACHI","pref":"茨城県","lat":36.175204,"lon":139.872658,"dataset":"OpenAddresses/Japanese Ministry of Land, Infrastructure and Transport","source":"overture-2026-06-17.0"}
{"text":"〒289-1201 千葉県山武市","city":"SAMMU","postcode":"289-1201","muni":"山武市","muni_romaji":"SAMMU SHI","pref":"千葉県","lat":35.597848,"lon":140.390706,"dataset":"OpenAddresses/Japanese Ministry of Land, Infrastructure and Transport","source":"overture-2026-06-17.0"}
{"text":"〒210-0000 神奈川県川崎市川崎区","city":"KAWASAKI","postcode":"210-0000","muni":"川崎市川崎区","muni_romaji":"KAWASAKI SHI KAWASAKI KU","pref":"神奈川県","lat":35.492477,"lon":139.734336,"dataset":"OpenAddresses/Japanese Ministry of Land, Infrastructure and Transport","source":"overture-2026-06-17.0"}
{"text":"〒421-3101 静岡県静岡市清水区","city":"SHIZUOKA","postcode":"421-3101","muni":"静岡市清水区","muni_romaji":"SHIZUOKA SHI SHIMIZU KU","pref":"静岡県","lat":34.997739,"lon":138.522977,"dataset":"OpenAddresses/Japanese Ministry of Land, Infrastructure and Transport","source":"overture-2026-06-17.0"}
{"text":"〒986-0000 宮城県石巻市","city":"ISHINOMAKI","postcode":"986-0000","muni":"石巻市","muni_romaji":"ISHINOMAKI SHI","pref":"宮城県","lat":38.422044,"lon":141.284278,"dataset":"OpenAddresses/Japanese Ministry of Land, Infrastructure and Transport","source":"overture-2026-06-17.0"}
{"text":"〒311-3100 茨城県東茨城郡茨城町","city":"HIGASHIIBARAKI","postcode":"311-3100","muni":"東茨城郡茨城町","muni_romaji":"HIGASHIIBARAKI GUN IBARAKI MACHI","pref":"茨城県","lat":36.249966,"lon":140.426933,"dataset":"OpenAddresses/Japanese Ministry of Land, Infrastructure and Transport","source":"overture-2026-06-17.0"}
{"text":"〒213-0000 神奈川県川崎市高津区","city":"KAWASAKI","postcode":"213-0000","muni":"川崎市高津区","muni_romaji":"KAWASAKI SHI TAKATSU KU","pref":"神奈川県","lat":35.562137,"lon":139.624934,"dataset":"OpenAddresses/Japanese Ministry of Land, Infrastructure and Transport","source":"overture-2026-06-17.0"}
{"text":"〒923-1100 石川県能美市","city":"NOMI","postcode":"923-1100","muni":"能美市","muni_romaji":"NOMI SHI","pref":"石川県","lat":36.438678,"lon":136.538565,"dataset":"OpenAddresses/Japanese Ministry of Land, Infrastructure and Transport","source":"overture-2026-06-17.0"}
{"text":"〒336-0900 埼玉県さいたま市緑区","city":"SAITAMA","postcode":"336-0900","muni":"さいたま市緑区","muni_romaji":"SAITAMA SHI MIDORI KU","pref":"埼玉県","lat":35.866281,"lon":139.711323,"dataset":"OpenAddresses/Japanese Ministry of Land, Infrastructure and Transport","source":"overture-2026-06-17.0"}
{"text":"〒830-0001 福岡県久留米市","city":"KURUME","postcode":"830-0001","muni":"久留米市","muni_romaji":"KURUME SHI","pref":"福岡県","lat":33.343518,"lon":130.572093,"dataset":"OpenAddresses/Japanese Ministry of Land, Infrastructure and Transport","source":"overture-2026-06-17.0"}
{"text":"〒306-0501 茨城県坂東市","city":"BANDO","postcode":"306-0501","muni":"坂東市","muni_romaji":"BANDO SHI","pref":"茨城県","lat":36.126609,"lon":139.852165,"dataset":"OpenAddresses/Japanese Ministry of Land, Infrastructure and Transport","source":"overture-2026-06-17.0"}
{"text":"〒302-0100 茨城県守谷市","city":"MORIYA","postcode":"302-0100","muni":"守谷市","muni_romaji":"MORIYA SHI","pref":"茨城県","lat":35.935313,"lon":139.970972,"dataset":"OpenAddresses/Japanese Ministry of Land, Infrastructure and Transport","source":"overture-2026-06-17.0"}
{"text":"〒521-1301 滋賀県近江八幡市","city":"OMIHACHIMAN","postcode":"521-1301","muni":"近江八幡市","muni_romaji":"OMIHACHIMAN SHI","pref":"滋賀県","lat":35.135281,"lon":136.05595,"dataset":"OpenAddresses/Japanese Ministry of Land, Infrastructure and Transport","source":"overture-2026-06-17.0"}
{"text":"〒224-0000 神奈川県横浜市都筑区","city":"YOKOHAMA","postcode":"224-0000","muni":"横浜市都筑区","muni_romaji":"YOKOHAMA SHI TSUZUKI KU","pref":"神奈川県","lat":35.53201,"lon":139.557916,"dataset":"OpenAddresses/Japanese Ministry of Land, Infrastructure and Transport","source":"overture-2026-06-17.0"}
{"text":"〒483-0000 愛知県江南市","city":"KONAN","postcode":"483-0000","muni":"江南市","muni_romaji":"KONAN SHI","pref":"愛知県","lat":35.346443,"lon":136.865246,"dataset":"OpenAddresses/Japanese Ministry of Land, Infrastructure and Transport","source":"overture-2026-06-17.0"}
{"text":"〒932-0000 富山県小矢部市","city":"OYABE","postcode":"932-0000","muni":"小矢部市","muni_romaji":"OYABE SHI","pref":"富山県","lat":36.610584,"lon":136.855558,"dataset":"OpenAddresses/Japanese Ministry of Land, Infrastructure and Transport","source":"overture-2026-06-17.0"}
{"text":"〒436-0000 静岡県掛川市","city":"KAKEGAWA","postcode":"436-0000","muni":"掛川市","muni_romaji":"KAKEGAWA SHI","pref":"静岡県","lat":34.758365,"lon":138.01049,"dataset":"OpenAddresses/Japanese Ministry of Land, Infrastructure and Transport","source":"overture-2026-06-17.0"}
{"text":"〒479-0000 愛知県常滑市","city":"TOKONAME","postcode":"479-0000","muni":"常滑市","muni_romaji":"TOKONAME SHI","pref":"愛知県","lat":34.890709,"lon":136.855409,"dataset":"OpenAddresses/Japanese Ministry of Land, Infrastructure and Transport","source":"overture-2026-06-17.0"}
{"text":"〒437-0000 静岡県袋井市","city":"FUKUROI","postcode":"437-0000","muni":"袋井市","muni_romaji":"FUKUROI SHI","pref":"静岡県","lat":34.673263,"lon":137.921684,"dataset":"OpenAddresses/Japanese Ministry of Land, Infrastructure and Transport","source":"overture-2026-06-17.0"}
{"text":"〒691-0001 島根県出雲市","city":"IZUMO","postcode":"691-0001","muni":"出雲市","muni_romaji":"IZUMO SHI","pref":"島根県","lat":35.383115,"lon":132.70208,"dataset":"OpenAddresses/Japanese Ministry of Land, Infrastructure and Transport","source":"overture-2026-06-17.0"}
{"text":"〒483-0000 愛知県江南市","city":"KONAN","postcode":"483-0000","muni":"江南市","muni_romaji":"KONAN SHI","pref":"愛知県","lat":35.327607,"lon":136.848154,"dataset":"OpenAddresses/Japanese Ministry of Land, Infrastructure and Transport","source":"overture-2026-06-17.0"}
{"text":"〒572-0000 大阪府寝屋川市","city":"NEYAGAWA","postcode":"572-0000","muni":"寝屋川市","muni_romaji":"NEYAGAWA SHI","pref":"大阪府","lat":34.750462,"lon":135.646031,"dataset":"OpenAddresses/Japanese Ministry of Land, Infrastructure and Transport","source":"overture-2026-06-17.0"}
{"text":"〒640-0000 和歌山県和歌山市","city":"WAKAYAMA","postcode":"640-0000","muni":"和歌山市","muni_romaji":"WAKAYAMA SHI","pref":"和歌山県","lat":34.243305,"lon":135.257089,"dataset":"OpenAddresses/Japanese Ministry of Land, Infrastructure and Transport","source":"overture-2026-06-17.0"}
{"text":"〒601-1391 京都府宇治市","city":"UJI","postcode":"601-1391","muni":"宇治市","muni_romaji":"UJI SHI","pref":"京都府","lat":34.887038,"lon":135.764848,"dataset":"OpenAddresses/Japanese Ministry of Land, Infrastructure and Transport","source":"overture-2026-06-17.0"}
{"text":"〒501-2601 岐阜県関市","city":"SEKI","postcode":"501-2601","muni":"関市","muni_romaji":"SEKI SHI","pref":"岐阜県","lat":35.463155,"lon":136.950413,"dataset":"OpenAddresses/Japanese Ministry of Land, Infrastructure and Transport","source":"overture-2026-06-17.0"}
{"text":"〒322-0601 栃木県栃木市","city":"TOCHIGI","postcode":"322-0601","muni":"栃木市","muni_romaji":"TOCHIGI SHI","pref":"栃木県","lat":36.330003,"lon":139.689116,"dataset":"OpenAddresses/Japanese Ministry of Land, Infrastructure and Transport","source":"overture-2026-06-17.0"}
{"text":"〒959-1600 新潟県五泉市","city":"GOSEN","postcode":"959-1600","muni":"五泉市","muni_romaji":"GOSEN SHI","pref":"新潟県","lat":37.723331,"lon":139.132819,"dataset":"OpenAddresses/Japanese Ministry of Land, Infrastructure and Transport","source":"overture-2026-06-17.0"}
{"text":"〒340-0100 埼玉県幸手市","city":"SATTE","postcode":"340-0100","muni":"幸手市","muni_romaji":"SATTE SHI","pref":"埼玉県","lat":36.054724,"lon":139.716054,"dataset":"OpenAddresses/Japanese Ministry of Land, Infrastructure and Transport","source":"overture-2026-06-17.0"}
{"text":"〒270-0000 千葉県松戸市","city":"MATSUDO","postcode":"270-0000","muni":"松戸市","muni_romaji":"MATSUDO SHI","pref":"千葉県","lat":35.814185,"lon":139.952017,"dataset":"OpenAddresses/Japanese Ministry of Land, Infrastructure and Transport","source":"overture-2026-06-17.0"}
{"text":"〒999-8300 山形県飽海郡遊佐町","city":"AKUMI","postcode":"999-8300","muni":"飽海郡遊佐町","muni_romaji":"AKUMI GUN YUZA MACHI","pref":"山形県","lat":39.001304,"lon":139.867136,"dataset":"OpenAddresses/Japanese Ministry of Land, Infrastructure and Transport","source":"overture-2026-06-17.0"}
{"text":"〒430-0801 静岡県浜松市中央区","city":"HAMAMATSU","postcode":"430-0801","muni":"浜松市中央区","muni_romaji":"HAMAMATSU SHI CHUO KU","pref":"静岡県","lat":34.694268,"lon":137.786842,"dataset":"OpenAddresses/Japanese Ministry of Land, Infrastructure and Transport","source":"overture-2026-06-17.0"}
{"text":"〒364-0000 埼玉県北本市","city":"KITAMOTO","postcode":"364-0000","muni":"北本市","muni_romaji":"KITAMOTO SHI","pref":"埼玉県","lat":36.02095,"lon":139.548676,"dataset":"OpenAddresses/Japanese Ministry of Land, Infrastructure and Transport","source":"overture-2026-06-17.0"}
{"text":"〒583-0000 大阪府藤井寺市","city":"FUJIIDERA","postcode":"583-0000","muni":"藤井寺市","muni_romaji":"FUJIIDERA SHI","pref":"大阪府","lat":34.57583,"lon":135.61806,"dataset":"OpenAddresses/Japanese Ministry of Land, Infrastructure and Transport","source":"overture-2026-06-17.0"}
{"text":"〒923-0000 石川県小松市","city":"KOMATSU","postcode":"923-0000","muni":"小松市","muni_romaji":"KOMATSU SHI","pref":"石川県","lat":36.421062,"lon":136.427738,"dataset":"OpenAddresses/Japanese Ministry of Land, Infrastructure and Transport","source":"overture-2026-06-17.0"}
{"text":"〒470-0200 愛知県みよし市","city":"MIYOSHI","postcode":"470-0200","muni":"みよし市","muni_romaji":"MIYOSHI SHI","pref":"愛知県","lat":35.087581,"lon":137.071123,"dataset":"OpenAddresses/Japanese Ministry of Land, Infrastructure and Transport","source":"overture-2026-06-17.0"}
{"text":"〒963-3601 福島県田村市","city":"TAMURA","postcode":"963-3601","muni":"田村市","muni_romaji":"TAMURA SHI","pref":"福島県","lat":37.427362,"lon":140.581005,"dataset":"OpenAddresses/Japanese Ministry of Land, Infrastructure and Transport","source":"overture-2026-06-17.0"}
{"text":"〒511-0000 三重県桑名市","city":"KUWANA","postcode":"511-0000","muni":"桑名市","muni_romaji":"KUWANA SHI","pref":"三重県","lat":35.087056,"lon":136.70211,"dataset":"OpenAddresses/Japanese Ministry of Land, Infrastructure and Transport","source":"overture-2026-06-17.0"}
{"text":"〒708-0000 岡山県津山市","city":"TSUYAMA","postcode":"708-0000","muni":"津山市","muni_romaji":"TSUYAMA SHI","pref":"岡山県","lat":35.08956,"lon":134.00735,"dataset":"OpenAddresses/Japanese Ministry of Land, Infrastructure and Transport","source":"overture-2026-06-17.0"}
{"text":"〒899-7300 鹿児島県曽於郡大崎町","city":"SO","postcode":"899-7300","muni":"曽於郡大崎町","muni_romaji":"SO GUN OSAKI CHO","pref":"鹿児島県","lat":31.448604,"lon":131.030909,"dataset":"OpenAddresses/Japanese Ministry of Land, Infrastructure and Transport","source":"overture-2026-06-17.0"}
{"text":"〒893-1200 鹿児島県肝属郡肝付町","city":"KIMOTSUKI","postcode":"893-1200","muni":"肝属郡肝付町","muni_romaji":"KIMOTSUKI GUN KIMOTSUKI CHO","pref":"鹿児島県","lat":31.348099,"lon":130.94351,"dataset":"OpenAddresses/Japanese Ministry of Land, Infrastructure and Transport","source":"overture-2026-06-17.0"}
{"text":"〒300-3500 茨城県結城郡八千代町","city":"YUKI","postcode":"300-3500","muni":"結城郡八千代町","muni_romaji":"YUKI GUN YACHIYO MACHI","pref":"茨城県","lat":36.188104,"lon":139.924765,"dataset":"OpenAddresses/Japanese Ministry of Land, Infrastructure and Transport","source":"overture-2026-06-17.0"}
{"text":"〒031-0000 青森県八戸市","city":"HACHINOHE","postcode":"031-0000","muni":"八戸市","muni_romaji":"HACHINOHE SHI","pref":"青森県","lat":40.558781,"lon":141.448329,"dataset":"OpenAddresses/Japanese Ministry of Land, Infrastructure and Transport","source":"overture-2026-06-17.0"}
{"text":"〒520-3000 滋賀県栗東市","city":"RITTO","postcode":"520-3000","muni":"栗東市","muni_romaji":"RITTO SHI","pref":"滋賀県","lat":35.019654,"lon":135.985066,"dataset":"OpenAddresses/Japanese Ministry of Land, Infrastructure and Transport","source":"overture-2026-06-17.0"}
{"text":"〒650-0000 兵庫県神戸市中央区","city":"KOBE","postcode":"650-0000","muni":"神戸市中央区","muni_romaji":"KOBE SHI CHUO KU","pref":"兵庫県","lat":34.708278,"lon":135.209038,"dataset":"OpenAddresses/Japanese Ministry of Land, Infrastructure and Transport","source":"overture-2026-06-17.0"}
{"text":"〒292-0000 千葉県木更津市","city":"KISARAZU","postcode":"292-0000","muni":"木更津市","muni_romaji":"KISARAZU SHI","pref":"千葉県","lat":35.364614,"lon":139.916976,"dataset":"OpenAddresses/Japanese Ministry of Land, Infrastructure and Transport","source":"overture-2026-06-17.0"}
{"text":"〒856-0000 長崎県大村市","city":"OMURA","postcode":"856-0000","muni":"大村市","muni_romaji":"OMURA SHI","pref":"長崎県","lat":32.862714,"lon":130.009612,"dataset":"OpenAddresses/Japanese Ministry of Land, Infrastructure and Transport","source":"overture-2026-06-17.0"}
{"text":"〒720-0551 広島県尾道市","city":"ONOMICHI","postcode":"720-0551","muni":"尾道市","muni_romaji":"ONOMICHI SHI","pref":"広島県","lat":34.286829,"lon":133.178594,"dataset":"OpenAddresses/Japanese Ministry of Land, Infrastructure and Transport","source":"overture-2026-06-17.0"}
{"text":"〒830-0001 福岡県久留米市","city":"KURUME","postcode":"830-0001","muni":"久留米市","muni_romaji":"KURUME SHI","pref":"福岡県","lat":33.321567,"lon":130.593894,"dataset":"OpenAddresses/Japanese Ministry of Land, Infrastructure and Transport","source":"overture-2026-06-17.0"}
{"text":"〒320-0001 栃木県宇都宮市","city":"UTSUNOMIYA","postcode":"320-0001","muni":"宇都宮市","muni_romaji":"UTSUNOMIYA SHI","pref":"栃木県","lat":36.487228,"lon":139.923785,"dataset":"OpenAddresses/Japanese Ministry of Land, Infrastructure and Transport","source":"overture-2026-06-17.0"}
{"text":"〒400-0201 山梨県南アルプス市","city":"MINAMIARUPUSU","postcode":"400-0201","muni":"南アルプス市","muni_romaji":"MINAMIARUPUSU SHI","pref":"山梨県","lat":35.57846,"lon":138.490341,"dataset":"OpenAddresses/Japanese Ministry of Land, Infrastructure and Transport","source":"overture-2026-06-17.0"}
{"text":"〒430-0801 静岡県浜松市中央区","city":"HAMAMATSU","postcode":"430-0801","muni":"浜松市中央区","muni_romaji":"HAMAMATSU SHI CHUO KU","pref":"静岡県","lat":34.737725,"lon":137.792196,"dataset":"OpenAddresses/Japanese Ministry of Land, Infrastructure and Transport","source":"overture-2026-06-17.0"}
{"text":"〒336-0900 埼玉県さいたま市緑区","city":"SAITAMA","postcode":"336-0900","muni":"さいたま市緑区","muni_romaji":"SAITAMA SHI MIDORI KU","pref":"埼玉県","lat":35.897865,"lon":139.71329,"dataset":"OpenAddresses/Japanese Ministry of Land, Infrastructure and Transport","source":"overture-2026-06-17.0"}
{"text":"〒421-3101 静岡県静岡市清水区","city":"SHIZUOKA","postcode":"421-3101","muni":"静岡市清水区","muni_romaji":"SHIZUOKA SHI SHIMIZU KU","pref":"静岡県","lat":35.064149,"lon":138.530834,"dataset":"OpenAddresses/Japanese Ministry of Land, Infrastructure and Transport","source":"overture-2026-06-17.0"}
{"text":"〒740-0000 山口県岩国市","city":"IWAKUNI","postcode":"740-0000","muni":"岩国市","muni_romaji":"IWAKUNI SHI","pref":"山口県","lat":34.162373,"lon":132.147299,"dataset":"OpenAddresses/Japanese Ministry of Land, Infrastructure and Transport","source":"overture-2026-06-17.0"}
{"text":"〒673-0400 兵庫県三木市","city":"MIKI","postcode":"673-0400","muni":"三木市","muni_romaji":"MIKI SHI","pref":"兵庫県","lat":34.77161,"lon":135.002031,"dataset":"OpenAddresses/Japanese Ministry of Land, Infrastructure and Transport","source":"overture-2026-06-17.0"}
{"text":"〒283-0000 千葉県東金市","city":"TOGANE","postcode":"283-0000","muni":"東金市","muni_romaji":"TOGANE SHI","pref":"千葉県","lat":35.569482,"lon":140.402526,"dataset":"OpenAddresses/Japanese Ministry of Land, Infrastructure and Transport","source":"overture-2026-06-17.0"}
{"text":"〒505-0100 岐阜県可児郡御嵩町","city":"KANI","postcode":"505-0100","muni":"可児郡御嵩町","muni_romaji":"KANI GUN MITAKE CHO","pref":"岐阜県","lat":35.436919,"lon":137.076668,"dataset":"OpenAddresses/Japanese Ministry of Land, Infrastructure and Transport","source":"overture-2026-06-17.0"}
{"text":"〒247-0051 神奈川県鎌倉市","city":"KAMAKURA","postcode":"247-0051","muni":"鎌倉市","muni_romaji":"KAMAKURA SHI","pref":"神奈川県","lat":35.308158,"lon":139.493951,"dataset":"OpenAddresses/Japanese Ministry of Land, Infrastructure and Transport","source":"overture-2026-06-17.0"}
{"text":"〒640-0401 和歌山県紀の川市","city":"KINOKAWA","postcode":"640-0401","muni":"紀の川市","muni_romaji":"KINOKAWA SHI","pref":"和歌山県","lat":34.230771,"lon":135.327391,"dataset":"OpenAddresses/Japanese Ministry of Land, Infrastructure and Transport","source":"overture-2026-06-17.0"}
{"text":"〒284-0000 千葉県四街道市","city":"YOTSUKAIDO","postcode":"284-0000","muni":"四街道市","muni_romaji":"YOTSUKAIDO SHI","pref":"千葉県","lat":35.655926,"lon":140.194163,"dataset":"OpenAddresses/Japanese Ministry of Land, Infrastructure and Transport","source":"overture-2026-06-17.0"}
{"text":"〒691-0001 島根県出雲市","city":"IZUMO","postcode":"691-0001","muni":"出雲市","muni_romaji":"IZUMO SHI","pref":"島根県","lat":35.400188,"lon":132.675622,"dataset":"OpenAddresses/Japanese Ministry of Land, Infrastructure and Transport","source":"overture-2026-06-17.0"}
{"text":"〒669-3101 兵庫県丹波市","city":"TAMBA","postcode":"669-3101","muni":"丹波市","muni_romaji":"TAMBA SHI","pref":"兵庫県","lat":35.168388,"lon":135.081287,"dataset":"OpenAddresses/Japanese Ministry of Land, Infrastructure and Transport","source":"overture-2026-06-17.0"}
{"text":"〒875-0000 大分県臼杵市","city":"USUKI","postcode":"875-0000","muni":"臼杵市","muni_romaji":"USUKI SHI","pref":"大分県","lat":33.156654,"lon":131.809808,"dataset":"OpenAddresses/Japanese Ministry of Land, Infrastructure and Transport","source":"overture-2026-06-17.0"}
{"text":"〒791-0200 愛媛県東温市","city":"TOON","postcode":"791-0200","muni":"東温市","muni_romaji":"TOON SHI","pref":"愛媛県","lat":33.789544,"lon":132.858019,"dataset":"OpenAddresses/Japanese Ministry of Land, Infrastructure and Transport","source":"overture-2026-06-17.0"}
{"text":"〒842-0000 佐賀県神埼市","city":"KANZAKI","postcode":"842-0000","muni":"神埼市","muni_romaji":"KANZAKI SHI","pref":"佐賀県","lat":33.323628,"lon":130.371935,"dataset":"OpenAddresses/Japanese Ministry of Land, Infrastructure and Transport","source":"overture-2026-06-17.0"}
{"text":"〒870-0001 大分県大分市","city":"OITA","postcode":"870-0001","muni":"大分市","muni_romaji":"OITA SHI","pref":"大分県","lat":33.144425,"lon":131.650346,"dataset":"OpenAddresses/Japanese Ministry of Land, Infrastructure and Transport","source":"overture-2026-06-17.0"}
{"text":"〒427-0000 静岡県島田市","city":"SHIMADA","postcode":"427-0000","muni":"島田市","muni_romaji":"SHIMADA SHI","pref":"静岡県","lat":34.836461,"lon":138.183043,"dataset":"OpenAddresses/Japanese Ministry of Land, Infrastructure and Transport","source":"overture-2026-06-17.0"}
{"text":"〒932-0301 富山県砺波市","city":"TONAMI","postcode":"932-0301","muni":"砺波市","muni_romaji":"TONAMI SHI","pref":"富山県","lat":36.589032,"lon":136.981366,"dataset":"OpenAddresses/Japanese Ministry of Land, Infrastructure and Transport","source":"overture-2026-06-17.0"}
{"text":"〒720-0551 広島県尾道市","city":"ONOMICHI","postcode":"720-0551","muni":"尾道市","muni_romaji":"ONOMICHI SHI","pref":"広島県","lat":34.292893,"lon":133.199193,"dataset":"OpenAddresses/Japanese Ministry of Land, Infrastructure and Transport","source":"overture-2026-06-17.0"}
{"text":"〒416-0901 静岡県富士市","city":"FUJI","postcode":"416-0901","muni":"富士市","muni_romaji":"FUJI SHI","pref":"静岡県","lat":35.134577,"lon":138.746907,"dataset":"OpenAddresses/Japanese Ministry of Land, Infrastructure and Transport","source":"overture-2026-06-17.0"}
{"text":"〒327-0000 栃木県佐野市","city":"SANO","postcode":"327-0000","muni":"佐野市","muni_romaji":"SANO SHI","pref":"栃木県","lat":36.350266,"lon":139.569709,"dataset":"OpenAddresses/Japanese Ministry of Land, Infrastructure and Transport","source":"overture-2026-06-17.0"}
{"text":"〒413-0701 静岡県下田市","city":"SHIMODA","postcode":"413-0701","muni":"下田市","muni_romaji":"SHIMODA SHI","pref":"静岡県","lat":34.694112,"lon":138.966922,"dataset":"OpenAddresses/Japanese Ministry of Land, Infrastructure and Transport","source":"overture-2026-06-17.0"}
{"text":"〒491-0000 愛知県一宮市","city":"ICHINOMIYA","postcode":"491-0000","muni":"一宮市","muni_romaji":"ICHINOMIYA SHI","pref":"愛知県","lat":35.264232,"lon":136.836116,"dataset":"OpenAddresses/Japanese Ministry of Land, Infrastructure and Transport","source":"overture-2026-06-17.0"}
{"text":"〒950-0000 新潟県新潟市中央区","city":"NIIGATA","postcode":"950-0000","muni":"新潟市中央区","muni_romaji":"NIIGATA SHI CHUO KU","pref":"新潟県","lat":37.926842,"lon":139.067758,"dataset":"OpenAddresses/Japanese Ministry of Land, Infrastructure and Transport","source":"overture-2026-06-17.0"}
{"text":"〒895-0000 鹿児島県薩摩川内市","city":"SATSUMASENDAI","postcode":"895-0000","muni":"薩摩川内市","muni_romaji":"SATSUMASENDAI SHI","pref":"鹿児島県","lat":31.817554,"lon":130.284073,"dataset":"OpenAddresses/Japanese Ministry of Land, Infrastructure and Transport","source":"overture-2026-06-17.0"}
{"text":"〒421-1101 静岡県藤枝市","city":"FUJIEDA","postcode":"421-1101","muni":"藤枝市","muni_romaji":"FUJIEDA SHI","pref":"静岡県","lat":34.846509,"lon":138.225402,"dataset":"OpenAddresses/Japanese Ministry of Land, Infrastructure and Transport","source":"overture-2026-06-17.0"}
{"text":"〒491-0000 愛知県一宮市","city":"ICHINOMIYA","postcode":"491-0000","muni":"一宮市","muni_romaji":"ICHINOMIYA SHI","pref":"愛知県","lat":35.277028,"lon":136.762994,"dataset":"OpenAddresses/Japanese Ministry of Land, Infrastructure and Transport","source":"overture-2026-06-17.0"}
{"text":"〒901-2200 沖縄県宜野湾市","city":"GINOWAN","postcode":"901-2200","muni":"宜野湾市","muni_romaji":"GINOWAN SHI","pref":"沖縄県","lat":26.262254,"lon":127.73959,"dataset":"OpenAddresses/Japanese Ministry of Land, Infrastructure and Transport","source":"overture-2026-06-17.0"}
{"text":"〒964-0000 福島県二本松市","city":"NIHOMMATSU","postcode":"964-0000","muni":"二本松市","muni_romaji":"NIHOMMATSU SHI","pref":"福島県","lat":37.549077,"lon":140.419442,"dataset":"OpenAddresses/Japanese Ministry of Land, Infrastructure and Transport","source":"overture-2026-06-17.0"}
{"text":"〒311-0301 茨城県常陸太田市","city":"HITACHIOTA","postcode":"311-0301","muni":"常陸太田市","muni_romaji":"HITACHIOTA SHI","pref":"茨城県","lat":36.505777,"lon":140.549258,"dataset":"OpenAddresses/Japanese Ministry of Land, Infrastructure and Transport","source":"overture-2026-06-17.0"}
{"text":"〒326-0000 栃木県足利市","city":"ASHIKAGA","postcode":"326-0000","muni":"足利市","muni_romaji":"ASHIKAGA SHI","pref":"栃木県","lat":36.377449,"lon":139.379466,"dataset":"OpenAddresses/Japanese Ministry of Land, Infrastructure and Transport","source":"overture-2026-06-17.0"}
{"text":"〒444-0000 愛知県岡崎市","city":"OKAZAKI","postcode":"444-0000","muni":"岡崎市","muni_romaji":"OKAZAKI SHI","pref":"愛知県","lat":34.914724,"lon":137.293782,"dataset":"OpenAddresses/Japanese Ministry of Land, Infrastructure and Transport","source":"overture-2026-06-17.0"}
{"text":"〒500-0000 岐阜県岐阜市","city":"GIFU","postcode":"500-0000","muni":"岐阜市","muni_romaji":"GIFU SHI","pref":"岐阜県","lat":35.411357,"lon":136.730615,"dataset":"OpenAddresses/Japanese Ministry of Land, Infrastructure and Transport","source":"overture-2026-06-17.0"}
{"text":"〒520-3000 滋賀県栗東市","city":"RITTO","postcode":"520-3000","muni":"栗東市","muni_romaji":"RITTO SHI","pref":"滋賀県","lat":34.997378,"lon":136.021983,"dataset":"OpenAddresses/Japanese Ministry of Land, Infrastructure and Transport","source":"overture-2026-06-17.0"}
{"text":"〒811-0100 福岡県糟屋郡新宮町","city":"KASUYA","postcode":"811-0100","muni":"糟屋郡新宮町","muni_romaji":"KASUYA GUN SHINGU MACHI","pref":"福岡県","lat":33.692283,"lon":130.463205,"dataset":"OpenAddresses/Japanese Ministry of Land, Infrastructure and Transport","source":"overture-2026-06-17.0"}
{"text":"〒883-0000 宮崎県日向市","city":"HYUGA","postcode":"883-0000","muni":"日向市","muni_romaji":"HYUGA SHI","pref":"宮崎県","lat":32.412705,"lon":131.634832,"dataset":"OpenAddresses/Japanese Ministry of Land, Infrastructure and Transport","source":"overture-2026-06-17.0"}
{"text":"〒500-0000 岐阜県岐阜市","city":"GIFU","postcode":"500-0000","muni":"岐阜市","muni_romaji":"GIFU SHI","pref":"岐阜県","lat":35.379843,"lon":136.728471,"dataset":"OpenAddresses/Japanese Ministry of Land, Infrastructure and Transport","source":"overture-2026-06-17.0"}
{"text":"〒444-0301 愛知県西尾市","city":"NISHIO","postcode":"444-0301","muni":"西尾市","muni_romaji":"NISHIO SHI","pref":"愛知県","lat":34.834152,"lon":137.095825,"dataset":"OpenAddresses/Japanese Ministry of Land, Infrastructure and Transport","source":"overture-2026-06-17.0"}
{"text":"〒457-0000 愛知県名古屋市南区","city":"NAGOYA","postcode":"457-0000","muni":"名古屋市南区","muni_romaji":"NAGOYA SHI MINAMI KU","pref":"愛知県","lat":35.091918,"lon":136.937277,"dataset":"OpenAddresses/Japanese Ministry of Land, Infrastructure and Transport","source":"overture-2026-06-17.0"}
{"text":"〒007-0001 北海道札幌市東区","city":"SAPPORO","postcode":"007-0001","muni":"札幌市東区","muni_romaji":"SAPPORO SHI HIGASHI KU","pref":"北海道","lat":43.115882,"lon":141.365524,"dataset":"OpenAddresses/Japanese Ministry of Land, Infrastructure and Transport","source":"overture-2026-06-17.0"}
{"text":"〒981-1101 宮城県仙台市太白区","city":"SENDAI","postcode":"981-1101","muni":"仙台市太白区","muni_romaji":"SENDAI SHI TAIHAKU KU","pref":"宮城県","lat":38.211527,"lon":140.849955,"dataset":"OpenAddresses/Japanese Ministry of Land, Infrastructure and Transport","source":"overture-2026-06-17.0"}
{"text":"〒962-0000 福島県須賀川市","city":"SUKAGAWA","postcode":"962-0000","muni":"須賀川市","muni_romaji":"SUKAGAWA SHI","pref":"福島県","lat":37.328318,"lon":140.322866,"dataset":"OpenAddresses/Japanese Ministry of Land, Infrastructure and Transport","source":"overture-2026-06-17.0"}
{"text":"〒969-6021 福島県大沼郡会津美里町","city":"ONUMA","postcode":"969-6021","muni":"大沼郡会津美里町","muni_romaji":"ONUMA GUN AIZUMISATO MACHI","pref":"福島県","lat":37.477652,"lon":139.849856,"dataset":"OpenAddresses/Japanese Ministry of Land, Infrastructure and Transport","source":"overture-2026-06-17.0"}
{"text":"〒323-0000 栃木県小山市","city":"OYAMA","postcode":"323-0000","muni":"小山市","muni_romaji":"OYAMA SHI","pref":"栃木県","lat":36.33355,"lon":139.82917,"dataset":"OpenAddresses/Japanese Ministry of Land, Infrastructure and Transport","source":"overture-2026-06-17.0"}
{"text":"〒444-0301 愛知県西尾市","city":"NISHIO","postcode":"444-0301","muni":"西尾市","muni_romaji":"NISHIO SHI","pref":"愛知県","lat":34.784284,"lon":137.157241,"dataset":"OpenAddresses/Japanese Ministry of Land, Infrastructure and Transport","source":"overture-2026-06-17.0"}
{"text":"〒510-0201 三重県鈴鹿市","city":"SUZUKA","postcode":"510-0201","muni":"鈴鹿市","muni_romaji":"SUZUKA SHI","pref":"三重県","lat":34.903089,"lon":136.534196,"dataset":"OpenAddresses/Japanese Ministry of Land, Infrastructure and Transport","source":"overture-2026-06-17.0"}
{"text":"〒503-0301 岐阜県海津市","city":"KAIZU","postcode":"503-0301","muni":"海津市","muni_romaji":"KAIZU SHI","pref":"岐阜県","lat":35.178358,"lon":136.665141,"dataset":"OpenAddresses/Japanese Ministry of Land, Infrastructure and Transport","source":"overture-2026-06-17.0"}
{"text":"〒311-1401 茨城県鉾田市","city":"HOKOTA","postcode":"311-1401","muni":"鉾田市","muni_romaji":"HOKOTA SHI","pref":"茨城県","lat":36.23064,"lon":140.495095,"dataset":"OpenAddresses/Japanese Ministry of Land, Infrastructure and Transport","source":"overture-2026-06-17.0"}
{"text":"〒300-1200 茨城県牛久市","city":"USHIKU","postcode":"300-1200","muni":"牛久市","muni_romaji":"USHIKU SHI","pref":"茨城県","lat":36.020121,"lon":140.150915,"dataset":"OpenAddresses/Japanese Ministry of Land, Infrastructure and Transport","source":"overture-2026-06-17.0"}
{"text":"〒501-5401 岐阜県高山市","city":"TAKAYAMA","postcode":"501-5401","muni":"高山市","muni_romaji":"TAKAYAMA SHI","pref":"岐阜県","lat":36.16282,"lon":137.248499,"dataset":"OpenAddresses/Japanese Ministry of Land, Infrastructure and Transport","source":"overture-2026-06-17.0"}
{"text":"〒485-0000 愛知県小牧市","city":"KOMAKI","postcode":"485-0000","muni":"小牧市","muni_romaji":"KOMAKI SHI","pref":"愛知県","lat":35.30915,"lon":136.936398,"dataset":"OpenAddresses/Japanese Ministry of Land, Infrastructure and Transport","source":"overture-2026-06-17.0"}
{"text":"〒192-0000 東京都八王子市","city":"HACHIOJI","postcode":"192-0000","muni":"八王子市","muni_romaji":"HACHIOJI SHI","pref":"東京都","lat":35.63037,"lon":139.388386,"dataset":"OpenAddresses/Japanese Ministry of Land, Infrastructure and Transport","source":"overture-2026-06-17.0"}
{"text":"〒384-0501 長野県南佐久郡佐久穂町","city":"MINAMISAKU","postcode":"384-0501","muni":"南佐久郡佐久穂町","muni_romaji":"MINAMISAKU GUN SAKUHO MACHI","pref":"長野県","lat":36.163278,"lon":138.481169,"dataset":"OpenAddresses/Japanese Ministry of Land, Infrastructure and Transport","source":"overture-2026-06-17.0"}
{"text":"〒601-0000 京都府京都市南区","city":"KYOTO","postcode":"601-0000","muni":"京都市南区","muni_romaji":"KYOTO SHI MINAMI KU","pref":"京都府","lat":34.961593,"lon":135.749043,"dataset":"OpenAddresses/Japanese Ministry of Land, Infrastructure and Transport","source":"overture-2026-06-17.0"}
{"text":"〒669-3101 兵庫県丹波市","city":"TAMBA","postcode":"669-3101","muni":"丹波市","muni_romaji":"TAMBA SHI","pref":"兵庫県","lat":35.167909,"lon":135.102726,"dataset":"OpenAddresses/Japanese Ministry of Land, Infrastructure and Transport","source":"overture-2026-06-17.0"}
{"text":"〒905-0200 沖縄県国頭郡本部町","city":"KUNIGAMI","postcode":"905-0200","muni":"国頭郡本部町","muni_romaji":"KUNIGAMI GUN MOTOBU CHO","pref":"沖縄県","lat":26.644667,"lon":127.958511,"dataset":"OpenAddresses/Japanese Ministry of Land, Infrastructure and Transport","source":"overture-2026-06-17.0"}
{"text":"〒390-0221 長野県松本市","city":"MATSUMOTO","postcode":"390-0221","muni":"松本市","muni_romaji":"MATSUMOTO SHI","pref":"長野県","lat":36.197062,"lon":137.94004,"dataset":"OpenAddresses/Japanese Ministry of Land, Infrastructure and Transport","source":"overture-2026-06-17.0"}
{"text":"〒410-0000 静岡県沼津市","city":"NUMAZU","postcode":"410-0000","muni":"沼津市","muni_romaji":"NUMAZU SHI","pref":"静岡県","lat":35.107094,"lon":138.836779,"dataset":"OpenAddresses/Japanese Ministry of Land, Infrastructure and Transport","source":"overture-2026-06-17.0"}
{"text":"〒444-0100 愛知県額田郡幸田町","city":"NUKATA","postcode":"444-0100","muni":"額田郡幸田町","muni_romaji":"NUKATA GUN KOTA CHO","pref":"愛知県","lat":34.874923,"lon":137.17691,"dataset":"OpenAddresses/Japanese Ministry of Land, Infrastructure and Transport","source":"overture-2026-06-17.0"}
{"text":"〒848-0000 佐賀県伊万里市","city":"IMARI","postcode":"848-0000","muni":"伊万里市","muni_romaji":"IMARI SHI","pref":"佐賀県","lat":33.269341,"lon":129.909841,"dataset":"OpenAddresses/Japanese Ministry of Land, Infrastructure and Transport","source":"overture-2026-06-17.0"}
{"text":"〒390-0221 長野県松本市","city":"MATSUMOTO","postcode":"390-0221","muni":"松本市","muni_romaji":"MATSUMOTO SHI","pref":"長野県","lat":36.193676,"lon":137.85564,"dataset":"OpenAddresses/Japanese Ministry of Land, Infrastructure and Transport","source":"overture-2026-06-17.0"}
{"text":"〒734-0101 広島県呉市","city":"KURE","postcode":"734-0101","muni":"呉市","muni_romaji":"KURE SHI","pref":"広島県","lat":34.284625,"lon":132.573971,"dataset":"OpenAddresses/Japanese Ministry of Land, Infrastructure and Transport","source":"overture-2026-06-17.0"}
{"text":"〒037-0000 青森県五所川原市","city":"GOSHOGAWARA","postcode":"037-0000","muni":"五所川原市","muni_romaji":"GOSHOGAWARA SHI","pref":"青森県","lat":40.779198,"lon":140.489402,"dataset":"OpenAddresses/Japanese Ministry of Land, Infrastructure and Transport","source":"overture-2026-06-17.0"}
{"text":"〒386-0000 長野県上田市","city":"UEDA","postcode":"386-0000","muni":"上田市","muni_romaji":"UEDA SHI","pref":"長野県","lat":36.347678,"lon":138.228376,"dataset":"OpenAddresses/Japanese Ministry of Land, Infrastructure and Transport","source":"overture-2026-06-17.0"}
{"text":"〒519-3201 三重県北牟婁郡紀北町","city":"KITAMURO","postcode":"519-3201","muni":"北牟婁郡紀北町","muni_romaji":"KITAMURO GUN KIHOKU CHO","pref":"三重県","lat":34.211079,"lon":136.331592,"dataset":"OpenAddresses/Japanese Ministry of Land, Infrastructure and Transport","source":"overture-2026-06-17.0"}
{"text":"〒289-1201 千葉県山武市","city":"SAMMU","postcode":"289-1201","muni":"山武市","muni_romaji":"SAMMU SHI","pref":"千葉県","lat":35.598678,"lon":140.400933,"dataset":"OpenAddresses/Japanese Ministry of Land, Infrastructure and Transport","source":"overture-2026-06-17.0"}
{"text":"〒714-1401 岡山県井原市","city":"IBARA","postcode":"714-1401","muni":"井原市","muni_romaji":"IBARA SHI","pref":"岡山県","lat":34.60658,"lon":133.48108,"dataset":"OpenAddresses/Japanese Ministry of Land, Infrastructure and Transport","source":"overture-2026-06-17.0"}
{"text":"〒583-0000 大阪府羽曳野市","city":"HABIKINO","postcode":"583-0000","muni":"羽曳野市","muni_romaji":"HABIKINO SHI","pref":"大阪府","lat":34.527988,"lon":135.612198,"dataset":"OpenAddresses/Japanese Ministry of Land, Infrastructure and Transport","source":"overture-2026-06-17.0"}
{"text":"〒310-0000 茨城県水戸市","city":"MITO","postcode":"310-0000","muni":"水戸市","muni_romaji":"MITO SHI","pref":"茨城県","lat":36.3787,"lon":140.500003,"dataset":"OpenAddresses/Japanese Ministry of Land, Infrastructure and Transport","source":"overture-2026-06-17.0"}
{"text":"〒359-0000 埼玉県所沢市","city":"TOKOROZAWA","postcode":"359-0000","muni":"所沢市","muni_romaji":"TOKOROZAWA SHI","pref":"埼玉県","lat":35.787711,"lon":139.485261,"dataset":"OpenAddresses/Japanese Ministry of Land, Infrastructure and Transport","source":"overture-2026-06-17.0"}
{"text":"〒857-0000 長崎県佐世保市","city":"SASEBO","postcode":"857-0000","muni":"佐世保市","muni_romaji":"SASEBO SHI","pref":"長崎県","lat":33.211977,"lon":129.7125,"dataset":"OpenAddresses/Japanese Ministry of Land, Infrastructure and Transport","source":"overture-2026-06-17.0"}
{"text":"〒431-1301 静岡県浜松市浜名区","city":"HAMAMATSU","postcode":"431-1301","muni":"浜松市浜名区","muni_romaji":"HAMAMATSU SHI HAMANA KU","pref":"静岡県","lat":34.822724,"lon":137.8025,"dataset":"OpenAddresses/Japanese Ministry of Land, Infrastructure and Transport","source":"overture-2026-06-17.0"}
{"text":"〒920-0000 石川県金沢市","city":"KANAZAWA","postcode":"920-0000","muni":"金沢市","muni_romaji":"KANAZAWA SHI","pref":"石川県","lat":36.633838,"lon":136.683731,"dataset":"OpenAddresses/Japanese Ministry of Land, Infrastructure and Transport","source":"overture-2026-06-17.0"}
{"text":"〒890-0000 鹿児島県鹿児島市","city":"KAGOSHIMA","postcode":"890-0000","muni":"鹿児島市","muni_romaji":"KAGOSHIMA SHI","pref":"鹿児島県","lat":31.587117,"lon":130.445981,"dataset":"OpenAddresses/Japanese Ministry of Land, Infrastructure and Transport","source":"overture-2026-06-17.0"}
{"text":"〒036-0100 青森県平川市","city":"HIRAKAWA","postcode":"036-0100","muni":"平川市","muni_romaji":"HIRAKAWA SHI","pref":"青森県","lat":40.59696,"lon":140.532191,"dataset":"OpenAddresses/Japanese Ministry of Land, Infrastructure and Transport","source":"overture-2026-06-17.0"}
{"text":"〒024-0000 岩手県北上市","city":"KITAKAMI","postcode":"024-0000","muni":"北上市","muni_romaji":"KITAKAMI SHI","pref":"岩手県","lat":39.272122,"lon":141.101407,"dataset":"OpenAddresses/Japanese Ministry of Land, Infrastructure and Transport","source":"overture-2026-06-17.0"}
{"text":"〒668-0000 兵庫県豊岡市","city":"TOYOKA","postcode":"668-0000","muni":"豊岡市","muni_romaji":"TOYOKA SHI","pref":"兵庫県","lat":35.533798,"lon":134.803027,"dataset":"OpenAddresses/Japanese Ministry of Land, Infrastructure and Transport","source":"overture-2026-06-17.0"}
{"text":"〒389-0600 長野県埴科郡坂城町","city":"HANISHINA","postcode":"389-0600","muni":"埴科郡坂城町","muni_romaji":"HANISHINA GUN SAKAKI MACHI","pref":"長野県","lat":36.462972,"lon":138.183271,"dataset":"OpenAddresses/Japanese Ministry of Land, Infrastructure and Transport","source":"overture-2026-06-17.0"}
{"text":"〒594-0000 大阪府和泉市","city":"IZUMI","postcode":"594-0000","muni":"和泉市","muni_romaji":"IZUMI SHI","pref":"大阪府","lat":34.509804,"lon":135.441686,"dataset":"OpenAddresses/Japanese Ministry of Land, Infrastructure and Transport","source":"overture-2026-06-17.0"}
{"text":"〒468-0000 愛知県名古屋市天白区","city":"NAGOYA","postcode":"468-0000","muni":"名古屋市天白区","muni_romaji":"NAGOYA SHI TEMPAKU KU","pref":"愛知県","lat":35.122703,"lon":136.972205,"dataset":"OpenAddresses/Japanese Ministry of Land, Infrastructure and Transport","source":"overture-2026-06-17.0"}
{"text":"〒039-2401 青森県上北郡東北町","city":"KAMIKITA","postcode":"039-2401","muni":"上北郡東北町","muni_romaji":"KAMIKITA GUN TOHOKU MACHI","pref":"青森県","lat":40.696896,"lon":141.31255,"dataset":"OpenAddresses/Japanese Ministry of Land, Infrastructure and Transport","source":"overture-2026-06-17.0"}
{"text":"〒836-0000 福岡県大牟田市","city":"OMUTA","postcode":"836-0000","muni":"大牟田市","muni_romaji":"OMUTA SHI","pref":"福岡県","lat":33.062698,"lon":130.441975,"dataset":"OpenAddresses/Japanese Ministry of Land, Infrastructure and Transport","source":"overture-2026-06-17.0"}
{"text":"〒470-0100 愛知県日進市","city":"NISSHIN","postcode":"470-0100","muni":"日進市","muni_romaji":"NISSHIN SHI","pref":"愛知県","lat":35.157217,"lon":137.039623,"dataset":"OpenAddresses/Japanese Ministry of Land, Infrastructure and Transport","source":"overture-2026-06-17.0"}
