{"raw": "Chimay, 6464, Rue des Trappistes 66", "components": {"house_number": "66", "street": "Rue des Trappistes", "postcode": "6464", "locality": "Chimay"}, "country": "BE", "lat": 50.02295, "lon": 4.339, "source": "golden"}
{"raw": "7500 Tournai, Rue des Ingers 17", "components": {"house_number": "17", "street": "Rue des Ingers", "postcode": "7500", "locality": "Tournai"}, "country": "BE", "lat": 50.6033, "lon": 3.39389, "source": "golden"}
{"raw": "Seraing, 4101, Rue Émile Royer 128", "components": {"house_number": "128", "street": "Rue Émile Royer", "postcode": "4101", "locality": "Seraing"}, "country": "BE", "lat": 50.61069, "lon": 5.48973, "source": "golden"}
{"raw": "6464 Chimay, Rue Arthur Masson 74", "components": {"house_number": "74", "street": "Rue Arthur Masson", "postcode": "6464", "locality": "Chimay"}, "country": "BE", "lat": 49.95852, "lon": 4.36604, "source": "golden"}
{"raw": "6220 Fleurus, Rue de la Paix 2", "components": {"house_number": "2", "street": "Rue de la Paix", "postcode": "6220", "locality": "Fleurus"}, "country": "BE", "lat": 50.45596, "lon": 4.52616, "source": "golden"}
{"raw": "2328 Hoogstraten, Heieinde 4", "components": {"house_number": "4", "street": "Heieinde", "postcode": "2328", "locality": "Hoogstraten"}, "country": "BE", "lat": 51.49725, "lon": 4.76991, "source": "golden"}
{"raw": "3300 Tienen, Begijnenstraat 28", "components": {"house_number": "28", "street": "Begijnenstraat", "postcode": "3300", "locality": "Tienen"}, "country": "BE", "lat": 50.79895, "lon": 4.89353, "source": "golden"}
{"raw": "2660 Antwerpen, Platijnweellaan 9", "components": {"house_number": "9", "street": "Platijnweellaan", "postcode": "2660", "locality": "Antwerpen"}, "country": "BE", "lat": 51.18564, "lon": 4.33967, "source": "golden"}
{"raw": "Gent, 9030, Venusstraat 6", "components": {"house_number": "6", "street": "Venusstraat", "postcode": "9030", "locality": "Gent"}, "country": "BE", "lat": 51.08077, "lon": 3.66707, "source": "golden"}
{"raw": "Scherpenheuvel-Zichem, 3270, Rozenkranslaan 18", "components": {"house_number": "18", "street": "Rozenkranslaan", "postcode": "3270", "locality": "Scherpenheuvel-Zichem"}, "country": "BE", "lat": 50.98432, "lon": 4.97787, "source": "golden"}
{"raw": "7100 La Louvière, Rue Hamoir 150", "components": {"house_number": "150", "street": "Rue Hamoir", "postcode": "7100", "locality": "La Louvière"}, "country": "BE", "lat": 50.47472, "lon": 4.1946, "source": "golden"}
{"raw": "Tenneville, 6972, Rue de la Chapelle 15", "components": {"house_number": "15", "street": "Rue de la Chapelle", "postcode": "6972", "locality": "Tenneville"}, "country": "BE", "lat": 50.09969, "lon": 5.55056, "source": "golden"}
{"raw": "1970 Wezembeek-Oppem, Mechelsesteenweg 101", "components": {"house_number": "101", "street": "Mechelsesteenweg", "postcode": "1970", "locality": "Wezembeek-Oppem"}, "country": "BE", "lat": 50.84309, "lon": 4.49768, "source": "golden"}
{"raw": "Braives, 4260, Rue Joseph Wauters 38", "components": {"house_number": "38", "street": "Rue Joseph Wauters", "postcode": "4260", "locality": "Braives"}, "country": "BE", "lat": 49.29334, "lon": 2.30669, "source": "golden"}
{"raw": "Ingelmunster, 8770, Hinnebilkstraat 69", "components": {"house_number": "69", "street": "Hinnebilkstraat", "postcode": "8770", "locality": "Ingelmunster"}, "country": "BE", "lat": 50.92261, "lon": 3.25971, "source": "golden"}
{"raw": "Paliseul, 6852, Rue du Centre 8", "components": {"house_number": "8", "street": "Rue du Centre", "postcode": "6852", "locality": "Paliseul"}, "country": "BE", "lat": 49.29334, "lon": 2.30669, "source": "golden"}
{"raw": "5660 Couvin, Rue Général de Monge 7", "components": {"house_number": "7", "street": "Rue Général de Monge", "postcode": "5660", "locality": "Couvin"}, "country": "BE", "lat": 50.05453, "lon": 4.50998, "source": "golden"}
{"raw": "7600 Péruwelz, Rue des Ecoles 71", "components": {"house_number": "71", "street": "Rue des Ecoles", "postcode": "7600", "locality": "Péruwelz"}, "country": "BE", "lat": 50.516, "lon": 3.57986, "source": "golden"}
{"raw": "Philippeville, 5600, Allée des Chevreuils 115", "components": {"house_number": "115", "street": "Allée des Chevreuils", "postcode": "5600", "locality": "Philippeville"}, "country": "BE", "lat": 50.14045, "lon": 4.4831, "source": "golden"}
{"raw": "Gaspeldoornlaan 17, 1600 Sint-Pieters-Leeuw", "components": {"house_number": "17", "street": "Gaspeldoornlaan", "postcode": "1600", "locality": "Sint-Pieters-Leeuw"}, "country": "BE", "lat": 50.78577, "lon": 4.24118, "source": "golden"}
{"raw": "Zoutleeuw, 3440, Kapelstraat 7", "components": {"house_number": "7", "street": "Kapelstraat", "postcode": "3440", "locality": "Zoutleeuw"}, "country": "BE", "lat": 50.83387, "lon": 5.10293, "source": "golden"}
{"raw": "1301 Wavre, Rue Provinciale 139", "components": {"house_number": "139", "street": "Rue Provinciale", "postcode": "1301", "locality": "Wavre"}, "country": "BE", "lat": 50.71016, "lon": 4.59738, "source": "golden"}
{"raw": "1570 Galmaarden, Hollestraat 1", "components": {"house_number": "1", "street": "Hollestraat", "postcode": "1570", "locality": "Galmaarden"}, "country": "BE", "lat": 50.74027, "lon": 4.02239, "source": "golden"}
{"raw": "Namur, 5002, Cité Floréal 44", "components": {"house_number": "44", "street": "Cité Floréal", "postcode": "5002", "locality": "Namur"}, "country": "BE", "lat": 50.47423, "lon": 4.85064, "source": "golden"}
{"raw": "Salmchâteau 91, 6690 Vielsalm", "components": {"house_number": "91", "street": "Salmchâteau", "postcode": "6690", "locality": "Vielsalm"}, "country": "BE", "lat": 49.29334, "lon": 2.30669, "source": "golden"}
{"raw": "Donkerstraat 10, 3400 Landen", "components": {"house_number": "10", "street": "Donkerstraat", "postcode": "3400", "locality": "Landen"}, "country": "BE", "lat": 50.76787, "lon": 5.04132, "source": "golden"}
{"raw": "Sint-Pieters-Leeuw, 1601, Fabriekstraat 232", "components": {"house_number": "232", "street": "Fabriekstraat", "postcode": "1601", "locality": "Sint-Pieters-Leeuw"}, "country": "BE", "lat": 50.78229, "lon": 4.28979, "source": "golden"}
{"raw": "Durbuy, 6940, Domaine de Bellevue 96", "components": {"house_number": "96", "street": "Domaine de Bellevue", "postcode": "6940", "locality": "Durbuy"}, "country": "BE", "lat": 50.34995, "lon": 5.39799, "source": "golden"}
{"raw": "Rue d'Houthem 3, 7700 Mouscron", "components": {"house_number": "3", "street": "Rue d'Houthem", "postcode": "7700", "locality": "Mouscron"}, "country": "BE", "lat": 50.74635, "lon": 3.18977, "source": "golden"}
{"raw": "Vredesplein 21_1, 9630 Zwalm", "components": {"house_number": "21_1", "street": "Vredesplein", "postcode": "9630", "locality": "Zwalm"}, "country": "BE", "lat": 50.86549, "lon": 3.71225, "source": "golden"}
{"raw": "6600 Bastogne, Marvie 29", "components": {"house_number": "29", "street": "Marvie", "postcode": "6600", "locality": "Bastogne"}, "country": "BE", "lat": 49.99043, "lon": 5.74875, "source": "golden"}
{"raw": "1200 Sint-Lambrechts-Woluwe, Paul Hymanslaan 25", "components": {"house_number": "25", "street": "Paul Hymanslaan", "postcode": "1200", "locality": "Sint-Lambrechts-Woluwe"}, "country": "BE", "lat": 50.84417, "lon": 4.42515, "source": "golden"}
{"raw": "Farciennes, 6240, Rue du Beau Séjour 30", "components": {"house_number": "30", "street": "Rue du Beau Séjour", "postcode": "6240", "locality": "Farciennes"}, "country": "BE", "lat": 50.44515, "lon": 4.558, "source": "golden"}
{"raw": "Plataanlaan 32, 9320 Aalst", "components": {"house_number": "32", "street": "Plataanlaan", "postcode": "9320", "locality": "Aalst"}, "country": "BE", "lat": 50.91386, "lon": 4.02869, "source": "golden"}
{"raw": "Meikeverstraat 10A, 2250 Olen", "components": {"house_number": "10A", "street": "Meikeverstraat", "postcode": "2250", "locality": "Olen"}, "country": "BE", "lat": 51.18329, "lon": 4.90424, "source": "golden"}
{"raw": "Rue Alphonse Vanrôme 39B, 7141 Morlanwelz", "components": {"house_number": "39B", "street": "Rue Alphonse Vanrôme", "postcode": "7141", "locality": "Morlanwelz"}, "country": "BE", "lat": 50.44735, "lon": 4.25186, "source": "golden"}
{"raw": "Mons, 7030, Rue des Victoria Cross 10", "components": {"house_number": "10", "street": "Rue des Victoria Cross", "postcode": "7030", "locality": "Mons"}, "country": "BE", "lat": 50.43478, "lon": 4.00225, "source": "golden"}
{"raw": "Mechelen, 2800, Frans Halsvest 7", "components": {"house_number": "7", "street": "Frans Halsvest", "postcode": "2800", "locality": "Mechelen"}, "country": "BE", "lat": 51.03334, "lon": 4.48476, "source": "golden"}
{"raw": "9770 Kruisem, Deinsesteenweg 210A", "components": {"house_number": "210A", "street": "Deinsesteenweg", "postcode": "9770", "locality": "Kruisem"}, "country": "BE", "lat": 50.93423, "lon": 3.53868, "source": "golden"}
{"raw": "9750 Kruisem, Heirweg 9", "components": {"house_number": "9", "street": "Heirweg", "postcode": "9750", "locality": "Kruisem"}, "country": "BE", "lat": 50.89999, "lon": 3.65243, "source": "golden"}
{"raw": "Izegem, 8870, Roeselaarsestraat 644", "components": {"house_number": "644", "street": "Roeselaarsestraat", "postcode": "8870", "locality": "Izegem"}, "country": "BE", "lat": 50.92838, "lon": 3.18223, "source": "golden"}
{"raw": "7830 Silly, Rue du Meunier 33", "components": {"house_number": "33", "street": "Rue du Meunier", "postcode": "7830", "locality": "Silly"}, "country": "BE", "lat": 49.29334, "lon": 2.30669, "source": "golden"}
{"raw": "6767 Rouvroy, Rue Grande 7", "components": {"house_number": "7", "street": "Rue Grande", "postcode": "6767", "locality": "Rouvroy"}, "country": "BE", "lat": 49.50773, "lon": 5.47376, "source": "golden"}
{"raw": "Rerum Novarumlaan 42, 2990 Wuustwezel", "components": {"house_number": "42", "street": "Rerum Novarumlaan", "postcode": "2990", "locality": "Wuustwezel"}, "country": "BE", "lat": 51.35528, "lon": 4.53958, "source": "golden"}
{"raw": "9520 Sint-Lievens-Houtem, Polbroek 81", "components": {"house_number": "81", "street": "Polbroek", "postcode": "9520", "locality": "Sint-Lievens-Houtem"}, "country": "BE", "lat": 50.91453, "lon": 3.85175, "source": "golden"}
{"raw": "Moirivay 55, 4877 Olne", "components": {"house_number": "55", "street": "Moirivay", "postcode": "4877", "locality": "Olne"}, "country": "BE", "lat": 49.29334, "lon": 2.30669, "source": "golden"}
{"raw": "Rue de Rèves 38A, 1476 Genappe", "components": {"house_number": "38A", "street": "Rue de Rèves", "postcode": "1476", "locality": "Genappe"}, "country": "BE", "lat": 50.57439, "lon": 4.41863, "source": "golden"}
{"raw": "Rue Marcel Tonglet 26, 6500 Beaumont", "components": {"house_number": "26", "street": "Rue Marcel Tonglet", "postcode": "6500", "locality": "Beaumont"}, "country": "BE", "lat": 50.23307, "lon": 4.24199, "source": "golden"}
{"raw": "Veldstraat 37, 9988 Sint-Laureins", "components": {"house_number": "37", "street": "Veldstraat", "postcode": "9988", "locality": "Sint-Laureins"}, "country": "BE", "lat": 51.27662, "lon": 3.62989, "source": "golden"}
{"raw": "Ronse, 9600, Oude Vesten 6", "components": {"house_number": "6", "street": "Oude Vesten", "postcode": "9600", "locality": "Ronse"}, "country": "BE", "lat": 50.74648, "lon": 3.60018, "source": "golden"}
{"raw": "Amay, 4540, Chaussée de Liège 39", "components": {"house_number": "39", "street": "Chaussée de Liège", "postcode": "4540", "locality": "Amay"}, "country": "BE", "lat": 50.54046, "lon": 5.29491, "source": "golden"}
{"raw": "8573 Anzegem, Westdorp 54", "components": {"house_number": "54", "street": "Westdorp", "postcode": "8573", "locality": "Anzegem"}, "country": "BE", "lat": 50.80765, "lon": 3.46833, "source": "golden"}
{"raw": "Morlanwelz, 7140, Avenue Winston Churchill 41", "components": {"house_number": "41", "street": "Avenue Winston Churchill", "postcode": "7140", "locality": "Morlanwelz"}, "country": "BE", "lat": 50.45787, "lon": 4.2313, "source": "golden"}
{"raw": "4700 Eupen, Am Hertogenwald 1", "components": {"house_number": "1", "street": "Am Hertogenwald", "postcode": "4700", "locality": "Eupen"}, "country": "BE", "lat": 50.61756, "lon": 6.03355, "source": "golden"}
{"raw": "4031 Liège, Rue de Renory 66", "components": {"house_number": "66", "street": "Rue de Renory", "postcode": "4031", "locality": "Liège"}, "country": "BE", "lat": 50.61342, "lon": 5.57881, "source": "golden"}
{"raw": "Nieuwstraat 26, 9770 Kruishoutem", "components": {"house_number": "26", "street": "Nieuwstraat", "postcode": "9770", "locality": "Kruishoutem"}, "country": "BE", "lat": 50.90729, "lon": 3.52898, "source": "golden"}
{"raw": "7390 Quaregnon, Rue Louis de Brouckère 175", "components": {"house_number": "175", "street": "Rue Louis de Brouckère", "postcode": "7390", "locality": "Quaregnon"}, "country": "BE", "lat": 50.43337, "lon": 3.86819, "source": "golden"}
{"raw": "Leuze-en-Hainaut, 7903, Rue du Village 44", "components": {"house_number": "44", "street": "Rue du Village", "postcode": "7903", "locality": "Leuze-en-Hainaut"}, "country": "BE", "lat": 50.58708, "lon": 3.65448, "source": "golden"}
{"raw": "Lokerenstraat 142, 2300 Turnhout", "components": {"house_number": "142", "street": "Lokerenstraat", "postcode": "2300", "locality": "Turnhout"}, "country": "BE", "lat": 51.31543, "lon": 4.92866, "source": "golden"}
{"raw": "Fossebaan 105, 1741 Ternat", "components": {"house_number": "105", "street": "Fossebaan", "postcode": "1741", "locality": "Ternat"}, "country": "BE", "lat": 50.86195, "lon": 4.14175, "source": "golden"}
{"raw": "Place Albert 1er 7, 7140 Morlanwelz", "components": {"house_number": "7", "street": "Place Albert 1er", "postcode": "7140", "locality": "Morlanwelz"}, "country": "BE", "lat": 50.45676, "lon": 4.24556, "source": "golden"}
{"raw": "Rue Wilson 90, 7340 Colfontaine", "components": {"house_number": "90", "street": "Rue Wilson", "postcode": "7340", "locality": "Colfontaine"}, "country": "BE", "lat": 50.41445, "lon": 3.8369, "source": "golden"}
{"raw": "Nieuwpoort, 8620, Meeuwenlaan 2", "components": {"house_number": "2", "street": "Meeuwenlaan", "postcode": "8620", "locality": "Nieuwpoort"}, "country": "BE", "lat": 51.14477, "lon": 2.70684, "source": "golden"}
{"raw": "Route d'Eupen 191A, 4837 Baelen", "components": {"house_number": "191A", "street": "Route d'Eupen", "postcode": "4837", "locality": "Baelen"}, "country": "BE", "lat": 49.29334, "lon": 2.30669, "source": "golden"}
{"raw": "Ath, 7812, Chaussée de Tournai 319", "components": {"house_number": "319", "street": "Chaussée de Tournai", "postcode": "7812", "locality": "Ath"}, "country": "BE", "lat": 50.62227, "lon": 3.7226, "source": "golden"}
{"raw": "Koning Albertstraat 41, 2610 Antwerpen", "components": {"house_number": "41", "street": "Koning Albertstraat", "postcode": "2610", "locality": "Antwerpen"}, "country": "BE", "lat": 51.1713, "lon": 4.38895, "source": "golden"}
{"raw": "Knokke-Heist, 8301, Knokkestraat 156", "components": {"house_number": "156", "street": "Knokkestraat", "postcode": "8301", "locality": "Knokke-Heist"}, "country": "BE", "lat": 51.33944, "lon": 3.24794, "source": "golden"}
{"raw": "Aalst, 9300, Goudbloemstraat 10", "components": {"house_number": "10", "street": "Goudbloemstraat", "postcode": "9300", "locality": "Aalst"}, "country": "BE", "lat": 50.94652, "lon": 4.05726, "source": "golden"}
{"raw": "Arlon, 6700, Rue de Toernich 82A", "components": {"house_number": "82A", "street": "Rue de Toernich", "postcode": "6700", "locality": "Arlon"}, "country": "BE", "lat": 49.29334, "lon": 2.30669, "source": "golden"}
{"raw": "5500 Dinant, Prieuré 35", "components": {"house_number": "35", "street": "Prieuré", "postcode": "5500", "locality": "Dinant"}, "country": "BE", "lat": 50.23993, "lon": 4.89563, "source": "golden"}
{"raw": "Huy, 4500, Rue Rioul 13", "components": {"house_number": "13", "street": "Rue Rioul", "postcode": "4500", "locality": "Huy"}, "country": "BE", "lat": 50.5232, "lon": 5.24387, "source": "golden"}
{"raw": "6590 Momignies, Rue Herreuse 3", "components": {"house_number": "3", "street": "Rue Herreuse", "postcode": "6590", "locality": "Momignies"}, "country": "BE", "lat": 50.03284, "lon": 4.17366, "source": "golden"}
{"raw": "Le Grand Rotheux 18, 6680 Sainte-Ode", "components": {"house_number": "18", "street": "Le Grand Rotheux", "postcode": "6680", "locality": "Sainte-Ode"}, "country": "BE", "lat": 49.29334, "lon": 2.30669, "source": "golden"}
{"raw": "Geer, 4250, Rue de Berloz 24", "components": {"house_number": "24", "street": "Rue de Berloz", "postcode": "4250", "locality": "Geer"}, "country": "BE", "lat": 49.29334, "lon": 2.30669, "source": "golden"}
{"raw": "Rue des Robiniers 57, 7024 Mons", "components": {"house_number": "57", "street": "Rue des Robiniers", "postcode": "7024", "locality": "Mons"}, "country": "BE", "lat": 50.41889, "lon": 3.94287, "source": "golden"}
{"raw": "Rue des Hêtres 1, 6700 Arlon", "components": {"house_number": "1", "street": "Rue des Hêtres", "postcode": "6700", "locality": "Arlon"}, "country": "BE", "lat": 49.68678, "lon": 5.80117, "source": "golden"}
{"raw": "Vielsalm, 6690, Baraque de Fraiture 8", "components": {"house_number": "8", "street": "Baraque de Fraiture", "postcode": "6690", "locality": "Vielsalm"}, "country": "BE", "lat": 50.24974, "lon": 5.73571, "source": "golden"}
{"raw": "Evere, 1140, Rue du Bon Pasteur 54", "components": {"house_number": "54", "street": "Rue du Bon Pasteur", "postcode": "1140", "locality": "Evere"}, "country": "BE", "lat": 50.87935, "lon": 4.40235, "source": "golden"}
{"raw": "Leuven, 3000, Bogaardenstraat 111", "components": {"house_number": "111", "street": "Bogaardenstraat", "postcode": "3000", "locality": "Leuven"}, "country": "BE", "lat": 50.87704, "lon": 4.71177, "source": "golden"}
{"raw": "Kerkhovensesteenweg 439A, 3920 Lommel", "components": {"house_number": "439A", "street": "Kerkhovensesteenweg", "postcode": "3920", "locality": "Lommel"}, "country": "BE", "lat": 51.16132, "lon": 5.2658, "source": "golden"}
{"raw": "Ten Boomgaard 21, 8200 Brugge", "components": {"house_number": "21", "street": "Ten Boomgaard", "postcode": "8200", "locality": "Brugge"}, "country": "BE", "lat": 51.18634, "lon": 3.21121, "source": "golden"}
{"raw": "1332 Rixensart, Square des Primevères 6", "components": {"house_number": "6", "street": "Square des Primevères", "postcode": "1332", "locality": "Rixensart"}, "country": "BE", "lat": 50.7263, "lon": 4.49755, "source": "golden"}
{"raw": "Beaumont, 6500, Chemin des Ecureuils 5", "components": {"house_number": "5", "street": "Chemin des Ecureuils", "postcode": "6500", "locality": "Beaumont"}, "country": "BE", "lat": 50.22334, "lon": 4.29531, "source": "golden"}
{"raw": "Sint-Joost-ten-Node, 1210, Maria-Theresiastraat 44", "components": {"house_number": "44", "street": "Maria-Theresiastraat", "postcode": "1210", "locality": "Sint-Joost-ten-Node"}, "country": "BE", "lat": 50.8477, "lon": 4.37224, "source": "golden"}
{"raw": "Merelbeke, 9820, Gaversesteenweg 239", "components": {"house_number": "239", "street": "Gaversesteenweg", "postcode": "9820", "locality": "Merelbeke"}, "country": "BE", "lat": 50.99763, "lon": 3.74192, "source": "golden"}
{"raw": "8210 Zedelgem, Stroelputstraat 71", "components": {"house_number": "71", "street": "Stroelputstraat", "postcode": "8210", "locality": "Zedelgem"}, "country": "BE", "lat": 51.10179, "lon": 3.1542, "source": "golden"}
{"raw": "Predikherenlaan 38, 2500 Lier", "components": {"house_number": "38", "street": "Predikherenlaan", "postcode": "2500", "locality": "Lier"}, "country": "BE", "lat": 51.13254, "lon": 4.57417, "source": "golden"}
{"raw": "6180 Courcelles, Rue Philippe Monnoyer 113A", "components": {"house_number": "113A", "street": "Rue Philippe Monnoyer", "postcode": "6180", "locality": "Courcelles"}, "country": "BE", "lat": 49.29334, "lon": 2.30669, "source": "golden"}
{"raw": "Résidence Normandie 31, 6200 Châtelet", "components": {"house_number": "31", "street": "Résidence Normandie", "postcode": "6200", "locality": "Châtelet"}, "country": "BE", "lat": 49.29334, "lon": 2.30669, "source": "golden"}
{"raw": "Neerstraat 30, 9400 Ninove", "components": {"house_number": "30", "street": "Neerstraat", "postcode": "9400", "locality": "Ninove"}, "country": "BE", "lat": 50.8118, "lon": 3.974, "source": "golden"}
{"raw": "2500 Lier, P.J. Denisstraat 1", "components": {"house_number": "1", "street": "P.J. Denisstraat", "postcode": "2500", "locality": "Lier"}, "country": "BE", "lat": 51.13186, "lon": 4.57892, "source": "golden"}
{"raw": "Avenue des Rossignols 9, 1970 Wezembeek-Oppem", "components": {"house_number": "9", "street": "Avenue des Rossignols", "postcode": "1970", "locality": "Wezembeek-Oppem"}, "country": "BE", "lat": 50.84517, "lon": 4.49753, "source": "golden"}
{"raw": "5353 Ohey, Rue de Filée 39B", "components": {"house_number": "39B", "street": "Rue de Filée", "postcode": "5353", "locality": "Ohey"}, "country": "BE", "lat": 49.29334, "lon": 2.30669, "source": "golden"}
{"raw": "De Haan, 8420, Nieuwe Steenweg 363", "components": {"house_number": "363", "street": "Nieuwe Steenweg", "postcode": "8420", "locality": "De Haan"}, "country": "BE", "lat": 51.27039, "lon": 3.03446, "source": "golden"}
{"raw": "Lütticher Straße 306, 4720 Kelmis", "components": {"house_number": "306", "street": "Lütticher Straße", "postcode": "4720", "locality": "Kelmis"}, "country": "BE", "lat": 50.71004, "lon": 6.00589, "source": "golden"}
{"raw": "3191 Boortmeerbeek, Bosveld 1", "components": {"house_number": "1", "street": "Bosveld", "postcode": "3191", "locality": "Boortmeerbeek"}, "country": "BE", "lat": 50.97481, "lon": 4.53627, "source": "golden"}
{"raw": "4400 Flémalle, Rue de la Fontaine 210", "components": {"house_number": "210", "street": "Rue de la Fontaine", "postcode": "4400", "locality": "Flémalle"}, "country": "BE", "lat": 50.61269, "lon": 5.47555, "source": "golden"}
{"raw": "Avenue de Vincennes 18, 6110 Montigny-le-Tilleul", "components": {"house_number": "18", "street": "Avenue de Vincennes", "postcode": "6110", "locality": "Montigny-le-Tilleul"}, "country": "BE", "lat": 50.37814, "lon": 4.36125, "source": "golden"}
{"raw": "route de Blocry 33, 1348 Ottignies-Louvain-la-Neuve", "components": {"house_number": "33", "street": "route de Blocry", "postcode": "1348", "locality": "Ottignies-Louvain-la-Neuve"}, "country": "BE", "lat": 50.66877, "lon": 4.60162, "source": "golden"}
{"raw": "Waremme, 4300, Rue Louis de Brouckère 2", "components": {"house_number": "2", "street": "Rue Louis de Brouckère", "postcode": "4300", "locality": "Waremme"}, "country": "BE", "lat": 50.70931, "lon": 5.278, "source": "golden"}
{"raw": "1500 Halle, Panoramalaan 25", "components": {"house_number": "25", "street": "Panoramalaan", "postcode": "1500", "locality": "Halle"}, "country": "BE", "lat": 50.72477, "lon": 4.2481, "source": "golden"}
{"raw": "Hasselt, 3500, Pastoor van Dijckstraat 3", "components": {"house_number": "3", "street": "Pastoor van Dijckstraat", "postcode": "3500", "locality": "Hasselt"}, "country": "BE", "lat": 50.92688, "lon": 5.32738, "source": "golden"}
{"raw": "Orsmaalstraat 16, 3440 Zoutleeuw", "components": {"house_number": "16", "street": "Orsmaalstraat", "postcode": "3440", "locality": "Zoutleeuw"}, "country": "BE", "lat": 50.81684, "lon": 5.0803, "source": "golden"}
{"raw": "Péruwelz, 7600, Rue de la Loquette 7", "components": {"house_number": "7", "street": "Rue de la Loquette", "postcode": "7600", "locality": "Péruwelz"}, "country": "BE", "lat": 50.51499, "lon": 3.5948, "source": "golden"}
{"raw": "Rue de Tournai 56A, 7620 Brunehaut", "components": {"house_number": "56A", "street": "Rue de Tournai", "postcode": "7620", "locality": "Brunehaut"}, "country": "BE", "lat": 50.54043, "lon": 3.42769, "source": "golden"}
{"raw": "Kerpener Strasse 7, 4780 Sankt Vith", "components": {"house_number": "7", "street": "Kerpener Strasse", "postcode": "4780", "locality": "Sankt Vith"}, "country": "BE", "lat": 50.28217, "lon": 6.12914, "source": "golden"}
{"raw": "Rhode-Saint-Genèse, 1640, Avenue des Myosotis 1", "components": {"house_number": "1", "street": "Avenue des Myosotis", "postcode": "1640", "locality": "Rhode-Saint-Genèse"}, "country": "BE", "lat": 50.74232, "lon": 4.34899, "source": "golden"}
{"raw": "Sint-Truidensesteenweg 248, 3350 Linter", "components": {"house_number": "248", "street": "Sint-Truidensesteenweg", "postcode": "3350", "locality": "Linter"}, "country": "BE", "lat": 50.80424, "lon": 5.07238, "source": "golden"}
{"raw": "6000 Charleroi, Rue de Dampremy (CH) 4", "components": {"house_number": "4", "street": "Rue de Dampremy (CH)", "postcode": "6000", "locality": "Charleroi"}, "country": "BE", "lat": 50.4087, "lon": 4.44237, "source": "golden"}
{"raw": "Crisnée, 4367, Grand'Route 63A", "components": {"house_number": "63A", "street": "Grand'Route", "postcode": "4367", "locality": "Crisnée"}, "country": "BE", "lat": 50.70641, "lon": 5.40391, "source": "golden"}
{"raw": "Kortenberg, 3078, Fazantenlaan 59", "components": {"house_number": "59", "street": "Fazantenlaan", "postcode": "3078", "locality": "Kortenberg"}, "country": "BE", "lat": 50.8704, "lon": 4.53212, "source": "golden"}
{"raw": "Tielt, 8700, Hondstraat 32A", "components": {"house_number": "32A", "street": "Hondstraat", "postcode": "8700", "locality": "Tielt"}, "country": "BE", "lat": 51.00484, "lon": 3.31686, "source": "golden"}
{"raw": "2930 Brasschaat, Kaartseplein 5", "components": {"house_number": "5", "street": "Kaartseplein", "postcode": "2930", "locality": "Brasschaat"}, "country": "BE", "lat": 51.30309, "lon": 4.48538, "source": "golden"}
{"raw": "9880 Aalter, Smedenpoort 17", "components": {"house_number": "17", "street": "Smedenpoort", "postcode": "9880", "locality": "Aalter"}, "country": "BE", "lat": 51.09275, "lon": 3.44757, "source": "golden"}
{"raw": "Landen, 3400, Betasiërsplein 10", "components": {"house_number": "10", "street": "Betasiërsplein", "postcode": "3400", "locality": "Landen"}, "country": "BE", "lat": 50.74549, "lon": 5.08353, "source": "golden"}
{"raw": "Plataanstraat 12, 8870 Izegem", "components": {"house_number": "12", "street": "Plataanstraat", "postcode": "8870", "locality": "Izegem"}, "country": "BE", "lat": 50.90949, "lon": 3.19699, "source": "golden"}
{"raw": "Dom Verhaegenstraat 2, 1880 Kapelle-op-den-Bos", "components": {"house_number": "2", "street": "Dom Verhaegenstraat", "postcode": "1880", "locality": "Kapelle-op-den-Bos"}, "country": "BE", "lat": 51.01474, "lon": 4.36497, "source": "golden"}
{"raw": "9270 Laarne, Bergstraat 24", "components": {"house_number": "24", "street": "Bergstraat", "postcode": "9270", "locality": "Laarne"}, "country": "BE", "lat": 51.03966, "lon": 3.85909, "source": "golden"}
{"raw": "9900 Eeklo, Markt 11", "components": {"house_number": "11", "street": "Markt", "postcode": "9900", "locality": "Eeklo"}, "country": "BE", "lat": 51.18367, "lon": 3.5671, "source": "golden"}
{"raw": "9700 Oudenaarde, Weldenstraat 78", "components": {"house_number": "78", "street": "Weldenstraat", "postcode": "9700", "locality": "Oudenaarde"}, "country": "BE", "lat": 50.87896, "lon": 3.67299, "source": "golden"}
{"raw": "Rue Try Grès 2, 5651 Walcourt", "components": {"house_number": "2", "street": "Rue Try Grès", "postcode": "5651", "locality": "Walcourt"}, "country": "BE", "lat": 50.28814, "lon": 4.4211, "source": "golden"}
{"raw": "Roeselare, 8800, Meensesteenweg 549", "components": {"house_number": "549", "street": "Meensesteenweg", "postcode": "8800", "locality": "Roeselare"}, "country": "BE", "lat": 50.90816, "lon": 3.11593, "source": "golden"}
{"raw": "Namur, 5020, Rue des Broux 3", "components": {"house_number": "3", "street": "Rue des Broux", "postcode": "5020", "locality": "Namur"}, "country": "BE", "lat": 50.50046, "lon": 4.87973, "source": "golden"}
{"raw": "Rue du Rivage 129, 5100 Namur", "components": {"house_number": "129", "street": "Rue du Rivage", "postcode": "5100", "locality": "Namur"}, "country": "BE", "lat": 50.42158, "lon": 4.88236, "source": "golden"}
{"raw": "1750 Lennik, Doelestraat 7", "components": {"house_number": "7", "street": "Doelestraat", "postcode": "1750", "locality": "Lennik"}, "country": "BE", "lat": 50.81268, "lon": 4.16513, "source": "golden"}
{"raw": "7971 Beloeil, Rue du Cul de Sac 9", "components": {"house_number": "9", "street": "Rue du Cul de Sac", "postcode": "7971", "locality": "Beloeil"}, "country": "BE", "lat": 50.52744, "lon": 3.64338, "source": "golden"}
{"raw": "Florenville, 6820, Rue de Bavière 51A", "components": {"house_number": "51A", "street": "Rue de Bavière", "postcode": "6820", "locality": "Florenville"}, "country": "BE", "lat": 49.71243, "lon": 5.17013, "source": "golden"}
{"raw": "Erquelinnes, 6560, Rue Joseph Wauters 172", "components": {"house_number": "172", "street": "Rue Joseph Wauters", "postcode": "6560", "locality": "Erquelinnes"}, "country": "BE", "lat": 50.32065, "lon": 4.07857, "source": "golden"}
{"raw": "8000 Brugge, Groenestraat 30", "components": {"house_number": "30", "street": "Groenestraat", "postcode": "8000", "locality": "Brugge"}, "country": "BE", "lat": 51.21182, "lon": 3.21742, "source": "golden"}
{"raw": "Tombergstraat 11, 1750 Lennik", "components": {"house_number": "11", "street": "Tombergstraat", "postcode": "1750", "locality": "Lennik"}, "country": "BE", "lat": 50.81922, "lon": 4.16468, "source": "golden"}
{"raw": "2170 Antwerpen, De Vlaschaardstraat 6", "components": {"house_number": "6", "street": "De Vlaschaardstraat", "postcode": "2170", "locality": "Antwerpen"}, "country": "BE", "lat": 51.24983, "lon": 4.43533, "source": "golden"}
{"raw": "7040 Quévy, Rue Reine Astrid 30", "components": {"house_number": "30", "street": "Rue Reine Astrid", "postcode": "7040", "locality": "Quévy"}, "country": "BE", "lat": 50.34043, "lon": 3.9041, "source": "golden"}
{"raw": "Victor Hugostraat 3, 2050 Antwerpen", "components": {"house_number": "3", "street": "Victor Hugostraat", "postcode": "2050", "locality": "Antwerpen"}, "country": "BE", "lat": 51.2295, "lon": 4.3899, "source": "golden"}
{"raw": "Waimes, 4950, Rue des Courtis 18", "components": {"house_number": "18", "street": "Rue des Courtis", "postcode": "4950", "locality": "Waimes"}, "country": "BE", "lat": 50.40505, "lon": 6.14393, "source": "golden"}
{"raw": "Mortsel, 2640, Kretenburgstraat 82", "components": {"house_number": "82", "street": "Kretenburgstraat", "postcode": "2640", "locality": "Mortsel"}, "country": "BE", "lat": 51.16353, "lon": 4.46843, "source": "golden"}
{"raw": "8300 Knokke-Heist, Jozef Nellenslaan 152", "components": {"house_number": "152", "street": "Jozef Nellenslaan", "postcode": "8300", "locality": "Knokke-Heist"}, "country": "BE", "lat": 51.34898, "lon": 3.28208, "source": "golden"}
{"raw": "4020 Liège, Boulevard de l'Est 16", "components": {"house_number": "16", "street": "Boulevard de l'Est", "postcode": "4020", "locality": "Liège"}, "country": "BE", "lat": 50.64179, "lon": 5.58133, "source": "golden"}
{"raw": "Krepelstraat 101D, 9400 Ninove", "components": {"house_number": "101D", "street": "Krepelstraat", "postcode": "9400", "locality": "Ninove"}, "country": "BE", "lat": 50.79204, "lon": 3.9967, "source": "golden"}
{"raw": "Oostkamp, 8020, Schooldreef 25", "components": {"house_number": "25", "street": "Schooldreef", "postcode": "8020", "locality": "Oostkamp"}, "country": "BE", "lat": 51.1534, "lon": 3.23711, "source": "golden"}
{"raw": "Rue Lemonnier 41, 4100 Seraing", "components": {"house_number": "41", "street": "Rue Lemonnier", "postcode": "4100", "locality": "Seraing"}, "country": "BE", "lat": 50.58625, "lon": 5.50979, "source": "golden"}
{"raw": "Gent, 9000, Keizer Karelstraat 157", "components": {"house_number": "157", "street": "Keizer Karelstraat", "postcode": "9000", "locality": "Gent"}, "country": "BE", "lat": 51.05087, "lon": 3.73359, "source": "golden"}
{"raw": "9185 Wachtebeke, Kleistraat 17", "components": {"house_number": "17", "street": "Kleistraat", "postcode": "9185", "locality": "Wachtebeke"}, "country": "BE", "lat": 51.19548, "lon": 3.85582, "source": "golden"}
{"raw": "Steegstraat 51, 3620 Lanaken", "components": {"house_number": "51", "street": "Steegstraat", "postcode": "3620", "locality": "Lanaken"}, "country": "BE", "lat": 50.89069, "lon": 5.62958, "source": "golden"}
{"raw": "Rue de Suzin 54, 5580 Rochefort", "components": {"house_number": "54", "street": "Rue de Suzin", "postcode": "5580", "locality": "Rochefort"}, "country": "BE", "lat": 50.16818, "lon": 5.20845, "source": "golden"}
{"raw": "Hamme, 9220, Stuyfbergen 30", "components": {"house_number": "30", "street": "Stuyfbergen", "postcode": "9220", "locality": "Hamme"}, "country": "BE", "lat": 51.04479, "lon": 4.17575, "source": "golden"}
{"raw": "3500 Hasselt, Boomkensstraat 112", "components": {"house_number": "112", "street": "Boomkensstraat", "postcode": "3500", "locality": "Hasselt"}, "country": "BE", "lat": 50.92463, "lon": 5.33071, "source": "golden"}
{"raw": "Goudveillaan 4, 2390 Malle", "components": {"house_number": "4", "street": "Goudveillaan", "postcode": "2390", "locality": "Malle"}, "country": "BE", "lat": 51.30879, "lon": 4.728, "source": "golden"}
{"raw": "Raf Verhaeststraat 42, 9050 Gent", "components": {"house_number": "42", "street": "Raf Verhaeststraat", "postcode": "9050", "locality": "Gent"}, "country": "BE", "lat": 51.03369, "lon": 3.76432, "source": "golden"}
{"raw": "Spa, 4900, Promenade de Walque 2", "components": {"house_number": "2", "street": "Promenade de Walque", "postcode": "4900", "locality": "Spa"}, "country": "BE", "lat": 50.47881, "lon": 5.85805, "source": "golden"}
{"raw": "Brugge, 8000, Ruddershove 3", "components": {"house_number": "3", "street": "Ruddershove", "postcode": "8000", "locality": "Brugge"}, "country": "BE", "lat": 51.22242, "lon": 3.19663, "source": "golden"}
{"raw": "9870 Zulte, Staatsbaan 29A", "components": {"house_number": "29A", "street": "Staatsbaan", "postcode": "9870", "locality": "Zulte"}, "country": "BE", "lat": 50.92602, "lon": 3.45109, "source": "golden"}
{"raw": "Rue Baron 13, 4400 Flémalle", "components": {"house_number": "13", "street": "Rue Baron", "postcode": "4400", "locality": "Flémalle"}, "country": "BE", "lat": 50.62265, "lon": 5.4649, "source": "golden"}
{"raw": "Bierbeek, 3360, Pimberg 45", "components": {"house_number": "45", "street": "Pimberg", "postcode": "3360", "locality": "Bierbeek"}, "country": "BE", "lat": 50.8674, "lon": 4.75759, "source": "golden"}
{"raw": "Pee Klakstraat 51, 9310 Aalst", "components": {"house_number": "51", "street": "Pee Klakstraat", "postcode": "9310", "locality": "Aalst"}, "country": "BE", "lat": 50.9493, "lon": 4.10951, "source": "golden"}
{"raw": "9800 Deinze, Pontstraat 12", "components": {"house_number": "12", "street": "Pontstraat", "postcode": "9800", "locality": "Deinze"}, "country": "BE", "lat": 50.98942, "lon": 3.56382, "source": "golden"}
{"raw": "Kerkstraat 77D, 3920 Lommel", "components": {"house_number": "77D", "street": "Kerkstraat", "postcode": "3920", "locality": "Lommel"}, "country": "BE", "lat": 51.22872, "lon": 5.31364, "source": "golden"}
{"raw": "Rue Pelémont 13, 5300 Andenne", "components": {"house_number": "13", "street": "Rue Pelémont", "postcode": "5300", "locality": "Andenne"}, "country": "BE", "lat": 50.49295, "lon": 5.12047, "source": "golden"}
{"raw": "Renaix, 9600, Floréal 65", "components": {"house_number": "65", "street": "Floréal", "postcode": "9600", "locality": "Renaix"}, "country": "BE", "lat": 50.74223, "lon": 3.57721, "source": "golden"}
{"raw": "Enghien, 7850, Rue Belle 33", "components": {"house_number": "33", "street": "Rue Belle", "postcode": "7850", "locality": "Enghien"}, "country": "BE", "lat": 50.69302, "lon": 4.00989, "source": "golden"}
{"raw": "4030 Liège, Rue Servais-Malaise 15", "components": {"house_number": "15", "street": "Rue Servais-Malaise", "postcode": "4030", "locality": "Liège"}, "country": "BE", "lat": 50.62913, "lon": 5.62462, "source": "golden"}
{"raw": "Winkelstraat 41, 8550 Zwevegem", "components": {"house_number": "41", "street": "Winkelstraat", "postcode": "8550", "locality": "Zwevegem"}, "country": "BE", "lat": 50.8104, "lon": 3.32257, "source": "golden"}
{"raw": "Rue Georges Touret 7, 4280 Hannut", "components": {"house_number": "7", "street": "Rue Georges Touret", "postcode": "4280", "locality": "Hannut"}, "country": "BE", "lat": 50.65606, "lon": 5.13403, "source": "golden"}
{"raw": "Liège, 4032, Rue Wilmart 9", "components": {"house_number": "9", "street": "Rue Wilmart", "postcode": "4032", "locality": "Liège"}, "country": "BE", "lat": 50.61507, "lon": 5.61761, "source": "golden"}
{"raw": "Geel, 2440, Eikevelden 95", "components": {"house_number": "95", "street": "Eikevelden", "postcode": "2440", "locality": "Geel"}, "country": "BE", "lat": 51.15689, "lon": 5.00539, "source": "golden"}
{"raw": "2540 Hove, Patrijzenlaan 14", "components": {"house_number": "14", "street": "Patrijzenlaan", "postcode": "2540", "locality": "Hove"}, "country": "BE", "lat": 51.14575, "lon": 4.48331, "source": "golden"}
{"raw": "Nivelles, 1400, Rue du Ri des Corbeaux 13", "components": {"house_number": "13", "street": "Rue du Ri des Corbeaux", "postcode": "1400", "locality": "Nivelles"}, "country": "BE", "lat": 50.59809, "lon": 4.29037, "source": "golden"}
{"raw": "Molenhoekstraat 2, 9831 Sint-Martens-Latem", "components": {"house_number": "2", "street": "Molenhoekstraat", "postcode": "9831", "locality": "Sint-Martens-Latem"}, "country": "BE", "lat": 50.99724, "lon": 3.61847, "source": "golden"}
{"raw": "Châtelet, 6200, Rue Paulus 19", "components": {"house_number": "19", "street": "Rue Paulus", "postcode": "6200", "locality": "Châtelet"}, "country": "BE", "lat": 50.40664, "lon": 4.52555, "source": "golden"}
{"raw": "Rue Neuville 12, 4219 Wasseiges", "components": {"house_number": "12", "street": "Rue Neuville", "postcode": "4219", "locality": "Wasseiges"}, "country": "BE", "lat": 50.63014, "lon": 5.04463, "source": "golden"}
{"raw": "Sombreffe, 5140, Avenue du 16-Juin-1815 9", "components": {"house_number": "9", "street": "Avenue du 16-Juin-1815", "postcode": "5140", "locality": "Sombreffe"}, "country": "BE", "lat": 50.51712, "lon": 4.57669, "source": "golden"}
{"raw": "Keerbergen, 3140, Broekelei 44", "components": {"house_number": "44", "street": "Broekelei", "postcode": "3140", "locality": "Keerbergen"}, "country": "BE", "lat": 51.00117, "lon": 4.62641, "source": "golden"}
{"raw": "2040 Antwerpen, Binnenpad 29", "components": {"house_number": "29", "street": "Binnenpad", "postcode": "2040", "locality": "Antwerpen"}, "country": "BE", "lat": 51.34213, "lon": 4.31058, "source": "golden"}
{"raw": "7070 Le Roeulx, Faubourg de Binche 24", "components": {"house_number": "24", "street": "Faubourg de Binche", "postcode": "7070", "locality": "Le Roeulx"}, "country": "BE", "lat": 50.49838, "lon": 4.10988, "source": "golden"}
{"raw": "9473 Denderleeuw, Kerkstraat 168", "components": {"house_number": "168", "street": "Kerkstraat", "postcode": "9473", "locality": "Denderleeuw"}, "country": "BE", "lat": 50.8953, "lon": 4.04317, "source": "golden"}
{"raw": "Le Roeulx, 7070, Rue de la Station 140", "components": {"house_number": "140", "street": "Rue de la Station", "postcode": "7070", "locality": "Le Roeulx"}, "country": "BE", "lat": 49.29334, "lon": 2.30669, "source": "golden"}
{"raw": "3220 Holsbeek, Gobbelsrode 126A", "components": {"house_number": "126A", "street": "Gobbelsrode", "postcode": "3220", "locality": "Holsbeek"}, "country": "BE", "lat": 50.90883, "lon": 4.80683, "source": "golden"}
{"raw": "Rue Jacob-Makoy 32, 4000 Liège", "components": {"house_number": "32", "street": "Rue Jacob-Makoy", "postcode": "4000", "locality": "Liège"}, "country": "BE", "lat": 50.6305, "lon": 5.55744, "source": "golden"}
{"raw": "Kortrijk, 8500, Sint-Sebastiaanslaan 117", "components": {"house_number": "117", "street": "Sint-Sebastiaanslaan", "postcode": "8500", "locality": "Kortrijk"}, "country": "BE", "lat": 50.81911, "lon": 3.26551, "source": "golden"}
{"raw": "3300 Tienen, Kloosterhof 41", "components": {"house_number": "41", "street": "Kloosterhof", "postcode": "3300", "locality": "Tienen"}, "country": "BE", "lat": 50.80586, "lon": 4.94397, "source": "golden"}
{"raw": "4180 Hamoir, Rue Fernand Ponthier 3", "components": {"house_number": "3", "street": "Rue Fernand Ponthier", "postcode": "4180", "locality": "Hamoir"}, "country": "BE", "lat": 50.4248, "lon": 5.53314, "source": "golden"}
{"raw": "Rue Raoul Gossuin 15, 7950 Chièvres", "components": {"house_number": "15", "street": "Rue Raoul Gossuin", "postcode": "7950", "locality": "Chièvres"}, "country": "BE", "lat": 50.55669, "lon": 3.80409, "source": "golden"}
{"raw": "9500 Geraardsbergen, Denderstraat 32A", "components": {"house_number": "32A", "street": "Denderstraat", "postcode": "9500", "locality": "Geraardsbergen"}, "country": "BE", "lat": 50.7732, "lon": 3.88132, "source": "golden"}
{"raw": "Rue de Merbes 28, 6567 Merbes-le-Château", "components": {"house_number": "28", "street": "Rue de Merbes", "postcode": "6567", "locality": "Merbes-le-Château"}, "country": "BE", "lat": 50.31863, "lon": 4.1824, "source": "golden"}
{"raw": "5060 Sambreville, Rue sous la Ville 12", "components": {"house_number": "12", "street": "Rue sous la Ville", "postcode": "5060", "locality": "Sambreville"}, "country": "BE", "lat": 50.43159, "lon": 4.61538, "source": "golden"}
{"raw": "Geraardsbergen, 9500, Watermolenstraat 28", "components": {"house_number": "28", "street": "Watermolenstraat", "postcode": "9500", "locality": "Geraardsbergen"}, "country": "BE", "lat": 50.76502, "lon": 3.82784, "source": "golden"}
{"raw": "Waarschoot, 9950, Stationsstraat 78", "components": {"house_number": "78", "street": "Stationsstraat", "postcode": "9950", "locality": "Waarschoot"}, "country": "BE", "lat": 51.15202, "lon": 3.61093, "source": "golden"}
{"raw": "7134 Binche, Rue Albert-Elisabeth 326", "components": {"house_number": "326", "street": "Rue Albert-Elisabeth", "postcode": "7134", "locality": "Binche"}, "country": "BE", "lat": 50.43271, "lon": 4.19568, "source": "golden"}
{"raw": "Chaussée Fernand Deliège 36, 6500 Beaumont", "components": {"house_number": "36", "street": "Chaussée Fernand Deliège", "postcode": "6500", "locality": "Beaumont"}, "country": "BE", "lat": 50.23734, "lon": 4.24551, "source": "golden"}
{"raw": "Rue de la Fontenalle 10, 5300 Andenne", "components": {"house_number": "10", "street": "Rue de la Fontenalle", "postcode": "5300", "locality": "Andenne"}, "country": "BE", "lat": 50.49666, "lon": 5.08484, "source": "golden"}
{"raw": "Pausleenstraat 41, 1540 Herne", "components": {"house_number": "41", "street": "Pausleenstraat", "postcode": "1540", "locality": "Herne"}, "country": "BE", "lat": 50.7315, "lon": 3.99315, "source": "golden"}
{"raw": "Nieuwerkerken, 3850, Tegelrijstraat 189", "components": {"house_number": "189", "street": "Tegelrijstraat", "postcode": "3850", "locality": "Nieuwerkerken"}, "country": "BE", "lat": 50.8894, "lon": 5.19123, "source": "golden"}
{"raw": "Zwevegem, 8550, Kanaalstraat 88", "components": {"house_number": "88", "street": "Kanaalstraat", "postcode": "8550", "locality": "Zwevegem"}, "country": "BE", "lat": 50.81406, "lon": 3.34904, "source": "golden"}
{"raw": "Rue Praile 180, 6120 Ham-sur-Heure-Nalinnes", "components": {"house_number": "180", "street": "Rue Praile", "postcode": "6120", "locality": "Ham-sur-Heure-Nalinnes"}, "country": "BE", "lat": 50.31468, "lon": 4.464, "source": "golden"}
{"raw": "Péruwelz, 7602, Rue du Joncquoy 43", "components": {"house_number": "43", "street": "Rue du Joncquoy", "postcode": "7602", "locality": "Péruwelz"}, "country": "BE", "lat": 50.54088, "lon": 3.59139, "source": "golden"}
{"raw": "8370 Blankenberge, Zeedijk 157", "components": {"house_number": "157", "street": "Zeedijk", "postcode": "8370", "locality": "Blankenberge"}, "country": "BE", "lat": 51.31691, "lon": 3.13189, "source": "golden"}
{"raw": "Donkerlei 13, 2800 Mechelen", "components": {"house_number": "13", "street": "Donkerlei", "postcode": "2800", "locality": "Mechelen"}, "country": "BE", "lat": 51.03567, "lon": 4.47987, "source": "golden"}
{"raw": "Beveren, 9120, Onze-Lieve-Vrouwstraat 115", "components": {"house_number": "115", "street": "Onze-Lieve-Vrouwstraat", "postcode": "9120", "locality": "Beveren"}, "country": "BE", "lat": 51.20906, "lon": 4.23867, "source": "golden"}
{"raw": "Woluwe-Saint-Lambert, 1200, Avenue des Rogations 25", "components": {"house_number": "25", "street": "Avenue des Rogations", "postcode": "1200", "locality": "Woluwe-Saint-Lambert"}, "country": "BE", "lat": 50.84264, "lon": 4.40442, "source": "golden"}
{"raw": "5300 Andenne, Rue sous Stud 58", "components": {"house_number": "58", "street": "Rue sous Stud", "postcode": "5300", "locality": "Andenne"}, "country": "BE", "lat": 50.48819, "lon": 5.07429, "source": "golden"}
{"raw": "9550 Herzele, Zavelstraat 28", "components": {"house_number": "28", "street": "Zavelstraat", "postcode": "9550", "locality": "Herzele"}, "country": "BE", "lat": 50.8511, "lon": 3.89834, "source": "golden"}
{"raw": "2270 Herenthout, Vonckstraat 25", "components": {"house_number": "25", "street": "Vonckstraat", "postcode": "2270", "locality": "Herenthout"}, "country": "BE", "lat": 51.13869, "lon": 4.75883, "source": "golden"}
{"raw": "Ballingsweg 25, 9620 Zottegem", "components": {"house_number": "25", "street": "Ballingsweg", "postcode": "9620", "locality": "Zottegem"}, "country": "BE", "lat": 50.88119, "lon": 3.83832, "source": "golden"}
{"raw": "Ploegstraat 5, 8370 Blankenberge", "components": {"house_number": "5", "street": "Ploegstraat", "postcode": "8370", "locality": "Blankenberge"}, "country": "BE", "lat": 51.30196, "lon": 3.14338, "source": "golden"}
{"raw": "1640 Rhode-Saint-Genèse, Avenue des Chênes 6", "components": {"house_number": "6", "street": "Avenue des Chênes", "postcode": "1640", "locality": "Rhode-Saint-Genèse"}, "country": "BE", "lat": 50.75669, "lon": 4.38586, "source": "golden"}
{"raw": "3891 Gingelom, Truilingenstraat 27", "components": {"house_number": "27", "street": "Truilingenstraat", "postcode": "3891", "locality": "Gingelom"}, "country": "BE", "lat": 50.75717, "lon": 5.17289, "source": "golden"}
{"raw": "Antwerpen, 2610, Legerstraat 259", "components": {"house_number": "259", "street": "Legerstraat", "postcode": "2610", "locality": "Antwerpen"}, "country": "BE", "lat": 51.16517, "lon": 4.38292, "source": "golden"}
{"raw": "Adriaan Brouwerstraat 80, 2900 Schoten", "components": {"house_number": "80", "street": "Adriaan Brouwerstraat", "postcode": "2900", "locality": "Schoten"}, "country": "BE", "lat": 51.24314, "lon": 4.48099, "source": "golden"}
{"raw": "3001 Leuven, Mezenlaan 10", "components": {"house_number": "10", "street": "Mezenlaan", "postcode": "3001", "locality": "Leuven"}, "country": "BE", "lat": 50.86009, "lon": 4.69512, "source": "golden"}
{"raw": "Rue des Américains 41, 4432 Ans", "components": {"house_number": "41", "street": "Rue des Américains", "postcode": "4432", "locality": "Ans"}, "country": "BE", "lat": 50.67205, "lon": 5.51056, "source": "golden"}
{"raw": "Ninove, 9400, Hendrik Vangassenstraat 19", "components": {"house_number": "19", "street": "Hendrik Vangassenstraat", "postcode": "9400", "locality": "Ninove"}, "country": "BE", "lat": 50.8355, "lon": 4.01794, "source": "golden"}
{"raw": "Avenue François Cornesse 15, 4920 Aywaille", "components": {"house_number": "15", "street": "Avenue François Cornesse", "postcode": "4920", "locality": "Aywaille"}, "country": "BE", "lat": 50.47453, "lon": 5.67437, "source": "golden"}
{"raw": "8210 Zedelgem, De Pleyne 39", "components": {"house_number": "39", "street": "De Pleyne", "postcode": "8210", "locality": "Zedelgem"}, "country": "BE", "lat": 51.14611, "lon": 3.14119, "source": "golden"}
{"raw": "Zangstraat 5, 3830 Wellen", "components": {"house_number": "5", "street": "Zangstraat", "postcode": "3830", "locality": "Wellen"}, "country": "BE", "lat": 50.83486, "lon": 5.35277, "source": "golden"}
{"raw": "Rue de la Halle 18, 7860 Lessines", "components": {"house_number": "18", "street": "Rue de la Halle", "postcode": "7860", "locality": "Lessines"}, "country": "BE", "lat": 50.71117, "lon": 3.82976, "source": "golden"}
{"raw": "Route d'Eghezée 170, 5190 Jemeppe-sur-Sambre", "components": {"house_number": "170", "street": "Route d'Eghezée", "postcode": "5190", "locality": "Jemeppe-sur-Sambre"}, "country": "BE", "lat": 50.47197, "lon": 4.67179, "source": "golden"}
{"raw": "Z. 5 Mollem 345, 1730 Asse", "components": {"house_number": "345", "street": "Z. 5 Mollem", "postcode": "1730", "locality": "Asse"}, "country": "BE", "lat": 50.91222, "lon": 4.22622, "source": "golden"}
{"raw": "Katteweidelaan 70, 3590 Diepenbeek", "components": {"house_number": "70", "street": "Katteweidelaan", "postcode": "3590", "locality": "Diepenbeek"}, "country": "BE", "lat": 50.89676, "lon": 5.43573, "source": "golden"}
{"raw": "6536 Thuin, Rue de la Victoire 99", "components": {"house_number": "99", "street": "Rue de la Victoire", "postcode": "6536", "locality": "Thuin"}, "country": "BE", "lat": 50.29884, "lon": 4.33261, "source": "golden"}
{"raw": "5030 Gembloux, Chaussée de Charleroi 54A", "components": {"house_number": "54A", "street": "Chaussée de Charleroi", "postcode": "5030", "locality": "Gembloux"}, "country": "BE", "lat": 49.29334, "lon": 2.30669, "source": "golden"}
{"raw": "Rue Albert-Henckels 7, 6700 Arlon", "components": {"house_number": "7", "street": "Rue Albert-Henckels", "postcode": "6700", "locality": "Arlon"}, "country": "BE", "lat": 49.68329, "lon": 5.69976, "source": "golden"}
{"raw": "Berlaar, 2590, Itegembaan 181", "components": {"house_number": "181", "street": "Itegembaan", "postcode": "2590", "locality": "Berlaar"}, "country": "BE", "lat": 51.11088, "lon": 4.67027, "source": "golden"}
{"raw": "Leopold I-laan 88, 8000 Brugge", "components": {"house_number": "88", "street": "Leopold I-laan", "postcode": "8000", "locality": "Brugge"}, "country": "BE", "lat": 51.21517, "lon": 3.20855, "source": "golden"}
{"raw": "7700 Mouscron, Avenue des Arbalétriers 53", "components": {"house_number": "53", "street": "Avenue des Arbalétriers", "postcode": "7700", "locality": "Mouscron"}, "country": "BE", "lat": 50.76276, "lon": 3.22247, "source": "golden"}
{"raw": "Kwalestraat 51, 9320 Aalst", "components": {"house_number": "51", "street": "Kwalestraat", "postcode": "9320", "locality": "Aalst"}, "country": "BE", "lat": 50.92636, "lon": 4.01161, "source": "golden"}
{"raw": "Liedekerke, 1770, Wilgenlaan 7", "components": {"house_number": "7", "street": "Wilgenlaan", "postcode": "1770", "locality": "Liedekerke"}, "country": "BE", "lat": 50.85617, "lon": 4.12287, "source": "golden"}
{"raw": "Evere, 1140, Rue Alphonse Vanden Bossche 39", "components": {"house_number": "39", "street": "Rue Alphonse Vanden Bossche", "postcode": "1140", "locality": "Evere"}, "country": "BE", "lat": 50.87197, "lon": 4.4017, "source": "golden"}
{"raw": "Rue des Droits de l'Homme 10, 6180 Courcelles", "components": {"house_number": "10", "street": "Rue des Droits de l'Homme", "postcode": "6180", "locality": "Courcelles"}, "country": "BE", "lat": 50.45241, "lon": 4.37161, "source": "golden"}
{"raw": "7860 Lessines, Ruelle des Dominicains 1", "components": {"house_number": "1", "street": "Ruelle des Dominicains", "postcode": "7860", "locality": "Lessines"}, "country": "BE", "lat": 49.29334, "lon": 2.30669, "source": "golden"}
{"raw": "Meerbeke 24, 9940 Evergem", "components": {"house_number": "24", "street": "Meerbeke", "postcode": "9940", "locality": "Evergem"}, "country": "BE", "lat": 51.12857, "lon": 3.69922, "source": "golden"}
{"raw": "Astridlaan 7A, 8760 Meulebeke", "components": {"house_number": "7A", "street": "Astridlaan", "postcode": "8760", "locality": "Meulebeke"}, "country": "BE", "lat": 50.94901, "lon": 3.28247, "source": "golden"}
{"raw": "Merelbeke, 9820, Hundelgemsesteenweg 1046", "components": {"house_number": "1046", "street": "Hundelgemsesteenweg", "postcode": "9820", "locality": "Merelbeke"}, "country": "BE", "lat": 50.97141, "lon": 3.73544, "source": "golden"}
{"raw": "9270 Laarne, Warande 109", "components": {"house_number": "109", "street": "Warande", "postcode": "9270", "locality": "Laarne"}, "country": "BE", "lat": 51.02498, "lon": 3.84879, "source": "golden"}
{"raw": "Anderlues, 6150, Rue Louis de Brouckère 37", "components": {"house_number": "37", "street": "Rue Louis de Brouckère", "postcode": "6150", "locality": "Anderlues"}, "country": "BE", "lat": 50.40085, "lon": 4.29019, "source": "golden"}
{"raw": "Ukkel, 1180, Schepenijlaan 40", "components": {"house_number": "40", "street": "Schepenijlaan", "postcode": "1180", "locality": "Ukkel"}, "country": "BE", "lat": 50.80406, "lon": 4.34526, "source": "golden"}
{"raw": "Tienen, 3300, Veldstraat 4", "components": {"house_number": "4", "street": "Veldstraat", "postcode": "3300", "locality": "Tienen"}, "country": "BE", "lat": 50.8118, "lon": 4.92504, "source": "golden"}
{"raw": "Haaltert, 9450, Kouterstraat 38", "components": {"house_number": "38", "street": "Kouterstraat", "postcode": "9450", "locality": "Haaltert"}, "country": "BE", "lat": 50.91526, "lon": 3.98298, "source": "golden"}
{"raw": "Maaseik, 3680, Industrieterrein Jagersborg 1314", "components": {"house_number": "1314", "street": "Industrieterrein Jagersborg", "postcode": "3680", "locality": "Maaseik"}, "country": "BE", "lat": 51.10491, "lon": 5.74794, "source": "golden"}
{"raw": "Huy, 4500, Rue de la Campagne 11", "components": {"house_number": "11", "street": "Rue de la Campagne", "postcode": "4500", "locality": "Huy"}, "country": "BE", "lat": 50.53315, "lon": 5.25848, "source": "golden"}
{"raw": "Kelmis, 4720, Königin Fabiola Straße 16", "components": {"house_number": "16", "street": "Königin Fabiola Straße", "postcode": "4720", "locality": "Kelmis"}, "country": "BE", "lat": 50.722, "lon": 6.01076, "source": "golden"}
{"raw": "3000 Leuven, Predikherinnenstraat 6", "components": {"house_number": "6", "street": "Predikherinnenstraat", "postcode": "3000", "locality": "Leuven"}, "country": "BE", "lat": 50.88163, "lon": 4.6944, "source": "golden"}
{"raw": "Fik Guidonstraat 22, 1080 Sint-Jans-Molenbeek", "components": {"house_number": "22", "street": "Fik Guidonstraat", "postcode": "1080", "locality": "Sint-Jans-Molenbeek"}, "country": "BE", "lat": 50.85947, "lon": 4.30383, "source": "golden"}
{"raw": "Charleroi, 6042, Rue de l'Etang (LT) 210", "components": {"house_number": "210", "street": "Rue de l'Etang (LT)", "postcode": "6042", "locality": "Charleroi"}, "country": "BE", "lat": 50.43636, "lon": 4.45335, "source": "golden"}
{"raw": "Kouterveldweg 4, 2880 Bornem", "components": {"house_number": "4", "street": "Kouterveldweg", "postcode": "2880", "locality": "Bornem"}, "country": "BE", "lat": 51.09572, "lon": 4.24697, "source": "golden"}
{"raw": "Kapelsesteenweg 569, 2180 Antwerpen", "components": {"house_number": "569", "street": "Kapelsesteenweg", "postcode": "2180", "locality": "Antwerpen"}, "country": "BE", "lat": 51.29285, "lon": 4.44335, "source": "golden"}
{"raw": "7784 Comines-Warneton, Rue de l'Abbé Courouble 20", "components": {"house_number": "20", "street": "Rue de l'Abbé Courouble", "postcode": "7784", "locality": "Comines-Warneton"}, "country": "BE", "lat": 50.75493, "lon": 2.94333, "source": "golden"}
{"raw": "Lille, 2275, Vennestraat 62", "components": {"house_number": "62", "street": "Vennestraat", "postcode": "2275", "locality": "Lille"}, "country": "BE", "lat": 51.26403, "lon": 4.87134, "source": "golden"}
{"raw": "Aalst, 9300, Raffelgemstraat 12", "components": {"house_number": "12", "street": "Raffelgemstraat", "postcode": "9300", "locality": "Aalst"}, "country": "BE", "lat": 50.94294, "lon": 4.01583, "source": "golden"}
{"raw": "Arlon, 6700, Rue de la Gendarmerie 7", "components": {"house_number": "7", "street": "Rue de la Gendarmerie", "postcode": "6700", "locality": "Arlon"}, "country": "BE", "lat": 49.64783, "lon": 5.8904, "source": "golden"}
{"raw": "9300 Aalst, Guldenboomplein 26", "components": {"house_number": "26", "street": "Guldenboomplein", "postcode": "9300", "locality": "Aalst"}, "country": "BE", "lat": 50.94956, "lon": 4.0328, "source": "golden"}
{"raw": "Quaregnon, 7390, Rue de la Liberté 13", "components": {"house_number": "13", "street": "Rue de la Liberté", "postcode": "7390", "locality": "Quaregnon"}, "country": "BE", "lat": 50.44172, "lon": 3.8559, "source": "golden"}
{"raw": "Moereind 108, 2275 Lille", "components": {"house_number": "108", "street": "Moereind", "postcode": "2275", "locality": "Lille"}, "country": "BE", "lat": 51.25616, "lon": 4.78442, "source": "golden"}
{"raw": "Etterbeek, 1040, Louis Hapstraat 6", "components": {"house_number": "6", "street": "Louis Hapstraat", "postcode": "1040", "locality": "Etterbeek"}, "country": "BE", "lat": 50.83529, "lon": 4.38318, "source": "golden"}
{"raw": "Rue Arnold Trillet 87, 4630 Soumagne", "components": {"house_number": "87", "street": "Rue Arnold Trillet", "postcode": "4630", "locality": "Soumagne"}, "country": "BE", "lat": 50.6235, "lon": 5.73009, "source": "golden"}
{"raw": "Rijselstraat 178, 8930 Menen", "components": {"house_number": "178", "street": "Rijselstraat", "postcode": "8930", "locality": "Menen"}, "country": "BE", "lat": 50.78991, "lon": 3.12601, "source": "golden"}
{"raw": "Pacificatiestraat 17, 1210 Sint-Joost-ten-Node", "components": {"house_number": "17", "street": "Pacificatiestraat", "postcode": "1210", "locality": "Sint-Joost-ten-Node"}, "country": "BE", "lat": 50.84911, "lon": 4.37512, "source": "golden"}
{"raw": "3211 Lubbeek, Boutersemstraat 19", "components": {"house_number": "19", "street": "Boutersemstraat", "postcode": "3211", "locality": "Lubbeek"}, "country": "BE", "lat": 50.85975, "lon": 4.88734, "source": "golden"}
{"raw": "7500 Tournai, Vieux Marché au Beurre 11", "components": {"house_number": "11", "street": "Vieux Marché au Beurre", "postcode": "7500", "locality": "Tournai"}, "country": "BE", "lat": 50.60461, "lon": 3.3904, "source": "golden"}
{"raw": "Damme, 8340, Hoornstraat 127", "components": {"house_number": "127", "street": "Hoornstraat", "postcode": "8340", "locality": "Damme"}, "country": "BE", "lat": 51.2531, "lon": 3.38298, "source": "golden"}
{"raw": "Grote Wede 6, 9040 Gent", "components": {"house_number": "6", "street": "Grote Wede", "postcode": "9040", "locality": "Gent"}, "country": "BE", "lat": 51.04766, "lon": 3.75324, "source": "golden"}
{"raw": "6880 Bertrix, Ruelles 31", "components": {"house_number": "31", "street": "Ruelles", "postcode": "6880", "locality": "Bertrix"}, "country": "BE", "lat": 49.81638, "lon": 5.18563, "source": "golden"}
{"raw": "1541 Herne, Markstraat 15", "components": {"house_number": "15", "street": "Markstraat", "postcode": "1541", "locality": "Herne"}, "country": "BE", "lat": 50.70647, "lon": 3.99089, "source": "golden"}
{"raw": "Serbosstraat 5, 9200 Dendermonde", "components": {"house_number": "5", "street": "Serbosstraat", "postcode": "9200", "locality": "Dendermonde"}, "country": "BE", "lat": 51.02079, "lon": 4.09293, "source": "golden"}
{"raw": "Soumagne, 4630, Clos des Aubépines 9", "components": {"house_number": "9", "street": "Clos des Aubépines", "postcode": "4630", "locality": "Soumagne"}, "country": "BE", "lat": 50.6325, "lon": 5.75017, "source": "golden"}
{"raw": "9400 Ninove, Leopoldstraat 54", "components": {"house_number": "54", "street": "Leopoldstraat", "postcode": "9400", "locality": "Ninove"}, "country": "BE", "lat": 50.85773, "lon": 4.05028, "source": "golden"}
{"raw": "Rue Pierre-Joseph Dewerpe 34, 6040 Charleroi", "components": {"house_number": "34", "street": "Rue Pierre-Joseph Dewerpe", "postcode": "6040", "locality": "Charleroi"}, "country": "BE", "lat": 50.44019, "lon": 4.45119, "source": "golden"}
{"raw": "4432 Ans, Rue Lambert Dewonck 144", "components": {"house_number": "144", "street": "Rue Lambert Dewonck", "postcode": "4432", "locality": "Ans"}, "country": "BE", "lat": 50.66701, "lon": 5.51322, "source": "golden"}
{"raw": "8970 Poperinge, Casselstraat 195", "components": {"house_number": "195", "street": "Casselstraat", "postcode": "8970", "locality": "Poperinge"}, "country": "BE", "lat": 50.84905, "lon": 2.71815, "source": "golden"}
{"raw": "Menen, 8930, Deken Darrasstraat 20", "components": {"house_number": "20", "street": "Deken Darrasstraat", "postcode": "8930", "locality": "Menen"}, "country": "BE", "lat": 50.79216, "lon": 3.19073, "source": "golden"}
{"raw": "5600 Philippeville, Rue des Orchidées 6", "components": {"house_number": "6", "street": "Rue des Orchidées", "postcode": "5600", "locality": "Philippeville"}, "country": "BE", "lat": 49.29334, "lon": 2.30669, "source": "golden"}
{"raw": "Rue Richelette 94, 4670 Blegny", "components": {"house_number": "94", "street": "Rue Richelette", "postcode": "4670", "locality": "Blegny"}, "country": "BE", "lat": 50.68315, "lon": 5.7348, "source": "golden"}
{"raw": "Dikkebusseweg 609, 8900 Ieper", "components": {"house_number": "609", "street": "Dikkebusseweg", "postcode": "8900", "locality": "Ieper"}, "country": "BE", "lat": 50.81928, "lon": 2.82798, "source": "golden"}
{"raw": "Liersesteenweg 215C, 3130 Begijnendijk", "components": {"house_number": "215C", "street": "Liersesteenweg", "postcode": "3130", "locality": "Begijnendijk"}, "country": "BE", "lat": 51.01809, "lon": 4.79734, "source": "golden"}
{"raw": "9340 Lede, Hoogstraat 48", "components": {"house_number": "48", "street": "Hoogstraat", "postcode": "9340", "locality": "Lede"}, "country": "BE", "lat": 50.96306, "lon": 3.97764, "source": "golden"}
{"raw": "Zuidlaan 78, 9230 Wetteren", "components": {"house_number": "78", "street": "Zuidlaan", "postcode": "9230", "locality": "Wetteren"}, "country": "BE", "lat": 50.99929, "lon": 3.88375, "source": "golden"}
{"raw": "Avenue de la Couronne 49, 1050 Ixelles", "components": {"house_number": "49", "street": "Avenue de la Couronne", "postcode": "1050", "locality": "Ixelles"}, "country": "BE", "lat": 50.83018, "lon": 4.37814, "source": "golden"}
{"raw": "6141 Fontaine-l'Evêque, Rue de Goutroux 2", "components": {"house_number": "2", "street": "Rue de Goutroux", "postcode": "6141", "locality": "Fontaine-l'Evêque"}, "country": "BE", "lat": 50.42503, "lon": 4.33349, "source": "golden"}
{"raw": "1457 Walhain, Rue des Combattants 20", "components": {"house_number": "20", "street": "Rue des Combattants", "postcode": "1457", "locality": "Walhain"}, "country": "BE", "lat": 49.29334, "lon": 2.30669, "source": "golden"}
{"raw": "4980 Trois-Ponts, Rue des Hezalles 48", "components": {"house_number": "48", "street": "Rue des Hezalles", "postcode": "4980", "locality": "Trois-Ponts"}, "country": "BE", "lat": 49.29334, "lon": 2.30669, "source": "golden"}
{"raw": "Leuven, 3010, Diestsesteenweg 627", "components": {"house_number": "627", "street": "Diestsesteenweg", "postcode": "3010", "locality": "Leuven"}, "country": "BE", "lat": 50.887, "lon": 4.74542, "source": "golden"}
{"raw": "4621 Fléron, Rue du Tilleul 28", "components": {"house_number": "28", "street": "Rue du Tilleul", "postcode": "4621", "locality": "Fléron"}, "country": "BE", "lat": 50.63404, "lon": 5.69561, "source": "golden"}
{"raw": "Rue d'Aiseau 80, 6200 Châtelet", "components": {"house_number": "80", "street": "Rue d'Aiseau", "postcode": "6200", "locality": "Châtelet"}, "country": "BE", "lat": 50.40608, "lon": 4.53896, "source": "golden"}
{"raw": "Heiststeenweg 184, 2580 Putte", "components": {"house_number": "184", "street": "Heiststeenweg", "postcode": "2580", "locality": "Putte"}, "country": "BE", "lat": 51.0625, "lon": 4.68147, "source": "golden"}
{"raw": "Eghezée, 5310, Rue de la Croisette 40", "components": {"house_number": "40", "street": "Rue de la Croisette", "postcode": "5310", "locality": "Eghezée"}, "country": "BE", "lat": 50.53984, "lon": 4.92878, "source": "golden"}
{"raw": "Seraing, 4102, Rue du Travail 7", "components": {"house_number": "7", "street": "Rue du Travail", "postcode": "4102", "locality": "Seraing"}, "country": "BE", "lat": 50.5799, "lon": 5.54767, "source": "golden"}
{"raw": "2260 Westerlo, Hogekant 14", "components": {"house_number": "14", "street": "Hogekant", "postcode": "2260", "locality": "Westerlo"}, "country": "BE", "lat": 51.11782, "lon": 4.87176, "source": "golden"}
{"raw": "Froidchapelle, 6440, Rue de la Pierraille 48", "components": {"house_number": "48", "street": "Rue de la Pierraille", "postcode": "6440", "locality": "Froidchapelle"}, "country": "BE", "lat": 49.29334, "lon": 2.30669, "source": "golden"}
{"raw": "Park Passionisten 28, 3300 Tienen", "components": {"house_number": "28", "street": "Park Passionisten", "postcode": "3300", "locality": "Tienen"}, "country": "BE", "lat": 50.81454, "lon": 4.93092, "source": "golden"}
{"raw": "Kortestraat 3, 3210 Lubbeek", "components": {"house_number": "3", "street": "Kortestraat", "postcode": "3210", "locality": "Lubbeek"}, "country": "BE", "lat": 50.89355, "lon": 4.77392, "source": "golden"}
{"raw": "Kinrooi, 3640, Simpelstraat 38", "components": {"house_number": "38", "street": "Simpelstraat", "postcode": "3640", "locality": "Kinrooi"}, "country": "BE", "lat": 51.14329, "lon": 5.72541, "source": "golden"}
{"raw": "Waarschoot, 9950, Zevenbunders 14", "components": {"house_number": "14", "street": "Zevenbunders", "postcode": "9950", "locality": "Waarschoot"}, "country": "BE", "lat": 51.14977, "lon": 3.59888, "source": "golden"}
{"raw": "2610 Antwerpen, Kernenergiestraat 8", "components": {"house_number": "8", "street": "Kernenergiestraat", "postcode": "2610", "locality": "Antwerpen"}, "country": "BE", "lat": 51.16217, "lon": 4.38658, "source": "golden"}
{"raw": "2830 Willebroek, Gaston Fromontstraat 54", "components": {"house_number": "54", "street": "Gaston Fromontstraat", "postcode": "2830", "locality": "Willebroek"}, "country": "BE", "lat": 51.06235, "lon": 4.35476, "source": "golden"}
{"raw": "Mouscron, 7711, Drève des Préaches 16", "components": {"house_number": "16", "street": "Drève des Préaches", "postcode": "7711", "locality": "Mouscron"}, "country": "BE", "lat": 50.73471, "lon": 3.28171, "source": "golden"}
{"raw": "Lichtervelde, 8810, Kauwentijnestraat 28", "components": {"house_number": "28", "street": "Kauwentijnestraat", "postcode": "8810", "locality": "Lichtervelde"}, "country": "BE", "lat": 51.02759, "lon": 3.14899, "source": "golden"}
{"raw": "1730 Asse, Terlindenweg 65", "components": {"house_number": "65", "street": "Terlindenweg", "postcode": "1730", "locality": "Asse"}, "country": "BE", "lat": 50.90037, "lon": 4.19109, "source": "golden"}
{"raw": "Zonnebeke, 8980, Nimfenbosdreef 21", "components": {"house_number": "21", "street": "Nimfenbosdreef", "postcode": "8980", "locality": "Zonnebeke"}, "country": "BE", "lat": 50.84906, "lon": 2.97172, "source": "golden"}
{"raw": "Rue Montgomery 73, 7540 Tournai", "components": {"house_number": "73", "street": "Rue Montgomery", "postcode": "7540", "locality": "Tournai"}, "country": "BE", "lat": 50.62887, "lon": 3.38723, "source": "golden"}
{"raw": "Zeedijk 148, 8370 Blankenberge", "components": {"house_number": "148", "street": "Zeedijk", "postcode": "8370", "locality": "Blankenberge"}, "country": "BE", "lat": 51.31627, "lon": 3.12875, "source": "golden"}
{"raw": "Antwerpsesteenweg 265, 2390 Malle", "components": {"house_number": "265", "street": "Antwerpsesteenweg", "postcode": "2390", "locality": "Malle"}, "country": "BE", "lat": 51.29669, "lon": 4.69252, "source": "golden"}
{"raw": "Mechelsestraat 162, 3000 Leuven", "components": {"house_number": "162", "street": "Mechelsestraat", "postcode": "3000", "locality": "Leuven"}, "country": "BE", "lat": 50.88529, "lon": 4.69782, "source": "golden"}
{"raw": "Boussu, 7300, Rue des Herbières 107", "components": {"house_number": "107", "street": "Rue des Herbières", "postcode": "7300", "locality": "Boussu"}, "country": "BE", "lat": 50.45094, "lon": 3.78774, "source": "golden"}
{"raw": "Diestsesteenweg 143, 3010 Leuven", "components": {"house_number": "143", "street": "Diestsesteenweg", "postcode": "3010", "locality": "Leuven"}, "country": "BE", "lat": 50.88414, "lon": 4.72173, "source": "golden"}
{"raw": "2440 Geel, Velodroomwijk 31", "components": {"house_number": "31", "street": "Velodroomwijk", "postcode": "2440", "locality": "Geel"}, "country": "BE", "lat": 51.17354, "lon": 4.98975, "source": "golden"}
{"raw": "6700 Arlon, Rue de Bastogne 141", "components": {"house_number": "141", "street": "Rue de Bastogne", "postcode": "6700", "locality": "Arlon"}, "country": "BE", "lat": 49.69138, "lon": 5.81204, "source": "golden"}
{"raw": "Aalst, 9310, Grote Baan 288", "components": {"house_number": "288", "street": "Grote Baan", "postcode": "9310", "locality": "Aalst"}, "country": "BE", "lat": 50.97531, "lon": 4.0764, "source": "golden"}
{"raw": "Molenstraat 60B, 3600 Genk", "components": {"house_number": "60B", "street": "Molenstraat", "postcode": "3600", "locality": "Genk"}, "country": "BE", "lat": 50.96404, "lon": 5.50453, "source": "golden"}
{"raw": "Rue des Tridaines 33, 4250 Geer", "components": {"house_number": "33", "street": "Rue des Tridaines", "postcode": "4250", "locality": "Geer"}, "country": "BE", "lat": 50.66588, "lon": 5.16805, "source": "golden"}
{"raw": "Walcourt, 5650, Rue des Falises 5", "components": {"house_number": "5", "street": "Rue des Falises", "postcode": "5650", "locality": "Walcourt"}, "country": "BE", "lat": 50.27123, "lon": 4.43347, "source": "golden"}
{"raw": "Rue de la Barre 29, 1390 Grez-Doiceau", "components": {"house_number": "29", "street": "Rue de la Barre", "postcode": "1390", "locality": "Grez-Doiceau"}, "country": "BE", "lat": 50.73766, "lon": 4.69745, "source": "golden"}
{"raw": "Rue de la Baronne Lemonnier 158, 5580 Rochefort", "components": {"house_number": "158", "street": "Rue de la Baronne Lemonnier", "postcode": "5580", "locality": "Rochefort"}, "country": "BE", "lat": 50.11087, "lon": 5.08921, "source": "golden"}
{"raw": "8000 Brugge, Zoete-Vaartstraat 21", "components": {"house_number": "21", "street": "Zoete-Vaartstraat", "postcode": "8000", "locality": "Brugge"}, "country": "BE", "lat": 51.23299, "lon": 3.24474, "source": "golden"}
{"raw": "1640 Sint-Genesius-Rode, Boomgaardweg 60", "components": {"house_number": "60", "street": "Boomgaardweg", "postcode": "1640", "locality": "Sint-Genesius-Rode"}, "country": "BE", "lat": 50.74127, "lon": 4.34872, "source": "golden"}
{"raw": "Leuze-en-Hainaut, 7900, Avenue des Héros Leuzois 61", "components": {"house_number": "61", "street": "Avenue des Héros Leuzois", "postcode": "7900", "locality": "Leuze-en-Hainaut"}, "country": "BE", "lat": 50.59991, "lon": 3.6309, "source": "golden"}
{"raw": "6720 Habay, Rue des Mineurs 34", "components": {"house_number": "34", "street": "Rue des Mineurs", "postcode": "6720", "locality": "Habay"}, "country": "BE", "lat": 49.7307, "lon": 5.65656, "source": "golden"}
{"raw": "Kruisstraat 150, 2570 Duffel", "components": {"house_number": "150", "street": "Kruisstraat", "postcode": "2570", "locality": "Duffel"}, "country": "BE", "lat": 51.08829, "lon": 4.48127, "source": "golden"}
{"raw": "6860 Léglise, Rue de l'Accord 9", "components": {"house_number": "9", "street": "Rue de l'Accord", "postcode": "6860", "locality": "Léglise"}, "country": "BE", "lat": 49.80246, "lon": 5.46687, "source": "golden"}
{"raw": "3600 Genk, Eindgracht 2", "components": {"house_number": "2", "street": "Eindgracht", "postcode": "3600", "locality": "Genk"}, "country": "BE", "lat": 50.96405, "lon": 5.49444, "source": "golden"}
{"raw": "4590 Ouffet, Rue Sauvenière 1", "components": {"house_number": "1", "street": "Rue Sauvenière", "postcode": "4590", "locality": "Ouffet"}, "country": "BE", "lat": 50.43847, "lon": 5.46448, "source": "golden"}
{"raw": "Rue d'Awagne 5, 5530 Yvoir", "components": {"house_number": "5", "street": "Rue d'Awagne", "postcode": "5530", "locality": "Yvoir"}, "country": "BE", "lat": 50.30932, "lon": 4.94308, "source": "golden"}
{"raw": "Antwerpen, 2140, Morckhovenlei 7", "components": {"house_number": "7", "street": "Morckhovenlei", "postcode": "2140", "locality": "Antwerpen"}, "country": "BE", "lat": 51.2111, "lon": 4.45269, "source": "golden"}
{"raw": "Jodoigne, 1370, Rue Champ du Moulin 33", "components": {"house_number": "33", "street": "Rue Champ du Moulin", "postcode": "1370", "locality": "Jodoigne"}, "country": "BE", "lat": 50.72114, "lon": 4.933, "source": "golden"}
{"raw": "Kouterweg 71, 8870 Izegem", "components": {"house_number": "71", "street": "Kouterweg", "postcode": "8870", "locality": "Izegem"}, "country": "BE", "lat": 50.92475, "lon": 3.22327, "source": "golden"}
{"raw": "Rue d'Italie 25, 7370 Dour", "components": {"house_number": "25", "street": "Rue d'Italie", "postcode": "7370", "locality": "Dour"}, "country": "BE", "lat": 50.39974, "lon": 3.73888, "source": "golden"}
{"raw": "2820 Bonheiden, Sint-Jansstraat 20", "components": {"house_number": "20", "street": "Sint-Jansstraat", "postcode": "2820", "locality": "Bonheiden"}, "country": "BE", "lat": 51.00222, "lon": 4.58834, "source": "golden"}
{"raw": "Vilvoorde, 1800, Vierbunder 7", "components": {"house_number": "7", "street": "Vierbunder", "postcode": "1800", "locality": "Vilvoorde"}, "country": "BE", "lat": 50.9478, "lon": 4.46891, "source": "golden"}
{"raw": "Rue des Casernes 2, 5024 Namur", "components": {"house_number": "2", "street": "Rue des Casernes", "postcode": "5024", "locality": "Namur"}, "country": "BE", "lat": 50.5069, "lon": 4.95474, "source": "golden"}
{"raw": "Héron, 4218, Rue Max Tannier 22", "components": {"house_number": "22", "street": "Rue Max Tannier", "postcode": "4218", "locality": "Héron"}, "country": "BE", "lat": 50.52174, "lon": 5.11917, "source": "golden"}
{"raw": "Halle, 1501, Groenstraat 46", "components": {"house_number": "46", "street": "Groenstraat", "postcode": "1501", "locality": "Halle"}, "country": "BE", "lat": 50.74313, "lon": 4.25775, "source": "golden"}
{"raw": "Sint-Martenplein 7, 3800 Sint-Truiden", "components": {"house_number": "7", "street": "Sint-Martenplein", "postcode": "3800", "locality": "Sint-Truiden"}, "country": "BE", "lat": 50.81589, "lon": 5.18279, "source": "golden"}
{"raw": "Zedelgem, 8211, Ossebilkstraat 50", "components": {"house_number": "50", "street": "Ossebilkstraat", "postcode": "8211", "locality": "Zedelgem"}, "country": "BE", "lat": 51.11481, "lon": 3.10032, "source": "golden"}
{"raw": "Vieux Chemin de Binche 470, 7000 Mons", "components": {"house_number": "470", "street": "Vieux Chemin de Binche", "postcode": "7000", "locality": "Mons"}, "country": "BE", "lat": 50.46305, "lon": 4.00096, "source": "golden"}
{"raw": "9250 Waasmunster, Krommingenstraat 30", "components": {"house_number": "30", "street": "Krommingenstraat", "postcode": "9250", "locality": "Waasmunster"}, "country": "BE", "lat": 51.12315, "lon": 4.02241, "source": "golden"}
{"raw": "6830 Bouillon, Chemin des Fauchés 10", "components": {"house_number": "10", "street": "Chemin des Fauchés", "postcode": "6830", "locality": "Bouillon"}, "country": "BE", "lat": 49.81143, "lon": 4.9993, "source": "golden"}
{"raw": "Grote Markt 27, 9100 Sint-Niklaas", "components": {"house_number": "27", "street": "Grote Markt", "postcode": "9100", "locality": "Sint-Niklaas"}, "country": "BE", "lat": 51.16325, "lon": 4.14036, "source": "golden"}
{"raw": "Chemin des Chapelles 19, 4500 Huy", "components": {"house_number": "19", "street": "Chemin des Chapelles", "postcode": "4500", "locality": "Huy"}, "country": "BE", "lat": 50.51721, "lon": 5.24805, "source": "golden"}
{"raw": "Wetteren, 9230, Noordlaan 30", "components": {"house_number": "30", "street": "Noordlaan", "postcode": "9230", "locality": "Wetteren"}, "country": "BE", "lat": 51.00164, "lon": 3.87242, "source": "golden"}
{"raw": "7640 Antoing, Square Charles de Gaulle 9", "components": {"house_number": "9", "street": "Square Charles de Gaulle", "postcode": "7640", "locality": "Antoing"}, "country": "BE", "lat": 50.56579, "lon": 3.44833, "source": "golden"}
{"raw": "Olmstraat 230, 1800 Vilvoorde", "components": {"house_number": "230", "street": "Olmstraat", "postcode": "1800", "locality": "Vilvoorde"}, "country": "BE", "lat": 50.93369, "lon": 4.43687, "source": "golden"}
{"raw": "Antwerpen, 2600, Grotesteenweg 656", "components": {"house_number": "656", "street": "Grotesteenweg", "postcode": "2600", "locality": "Antwerpen"}, "country": "BE", "lat": 51.17751, "lon": 4.43606, "source": "golden"}
{"raw": "5590 Ciney, Croix 12", "components": {"house_number": "12", "street": "Croix", "postcode": "5590", "locality": "Ciney"}, "country": "BE", "lat": 49.29334, "lon": 2.30669, "source": "golden"}
{"raw": "4990 Lierneux, Le Chenay 1C", "components": {"house_number": "1C", "street": "Le Chenay", "postcode": "4990", "locality": "Lierneux"}, "country": "BE", "lat": 49.29334, "lon": 2.30669, "source": "golden"}
{"raw": "Rue de l'Yser 80, 6900 Marche-en-Famenne", "components": {"house_number": "80", "street": "Rue de l'Yser", "postcode": "6900", "locality": "Marche-en-Famenne"}, "country": "BE", "lat": 50.16582, "lon": 5.27703, "source": "golden"}
{"raw": "Brugge, 8000, Pannebekestraat 102", "components": {"house_number": "102", "street": "Pannebekestraat", "postcode": "8000", "locality": "Brugge"}, "country": "BE", "lat": 51.22633, "lon": 3.23433, "source": "golden"}
{"raw": "Route de Châtelet 366, 5621 Florennes", "components": {"house_number": "366", "street": "Route de Châtelet", "postcode": "5621", "locality": "Florennes"}, "country": "BE", "lat": 50.27858, "lon": 4.56466, "source": "golden"}
{"raw": "8500 Kortrijk, Koningin Elisabethlaan 34", "components": {"house_number": "34", "street": "Koningin Elisabethlaan", "postcode": "8500", "locality": "Kortrijk"}, "country": "BE", "lat": 50.83655, "lon": 3.26151, "source": "golden"}
{"raw": "Chaussée de Wavre 1006, 1160 Auderghem", "components": {"house_number": "1006", "street": "Chaussée de Wavre", "postcode": "1160", "locality": "Auderghem"}, "country": "BE", "lat": 50.8248, "lon": 4.39974, "source": "golden"}
{"raw": "4784 Sankt Vith, Am Mühlenberg 37", "components": {"house_number": "37", "street": "Am Mühlenberg", "postcode": "4784", "locality": "Sankt Vith"}, "country": "BE", "lat": 50.26333, "lon": 6.0431, "source": "golden"}
{"raw": "2018 Antwerpen, Cuylitsstraat 21", "components": {"house_number": "21", "street": "Cuylitsstraat", "postcode": "2018", "locality": "Antwerpen"}, "country": "BE", "lat": 51.20463, "lon": 4.39391, "source": "golden"}
{"raw": "Rue Albert et Marie-Louise Servais-Kinet 16, 1200 Woluwe-Saint-Lambert", "components": {"house_number": "16", "street": "Rue Albert et Marie-Louise Servais-Kinet", "postcode": "1200", "locality": "Woluwe-Saint-Lambert"}, "country": "BE", "lat": 50.84521, "lon": 4.4142, "source": "golden"}
{"raw": "Zeedijk-Heist 148, 8301 Knokke-Heist", "components": {"house_number": "148", "street": "Zeedijk-Heist", "postcode": "8301", "locality": "Knokke-Heist"}, "country": "BE", "lat": 51.34037, "lon": 3.23334, "source": "golden"}
{"raw": "Altenaken 6, 3320 Hoegaarden", "components": {"house_number": "6", "street": "Altenaken", "postcode": "3320", "locality": "Hoegaarden"}, "country": "BE", "lat": 50.77307, "lon": 4.90307, "source": "golden"}
{"raw": "3440 Zoutleeuw, Walgang 8", "components": {"house_number": "8", "street": "Walgang", "postcode": "3440", "locality": "Zoutleeuw"}, "country": "BE", "lat": 50.83076, "lon": 5.10598, "source": "golden"}
{"raw": "Toekomststraat 11, 2260 Westerlo", "components": {"house_number": "11", "street": "Toekomststraat", "postcode": "2260", "locality": "Westerlo"}, "country": "BE", "lat": 51.1351, "lon": 4.90775, "source": "golden"}
{"raw": "Zinktrekkersplein 8, 3920 Lommel", "components": {"house_number": "8", "street": "Zinktrekkersplein", "postcode": "3920", "locality": "Lommel"}, "country": "BE", "lat": 51.22535, "lon": 5.25885, "source": "golden"}
{"raw": "Viroinval, 5670, Rue de Treignes 44", "components": {"house_number": "44", "street": "Rue de Treignes", "postcode": "5670", "locality": "Viroinval"}, "country": "BE", "lat": 50.09991, "lon": 4.69138, "source": "golden"}
{"raw": "4280 Hannut, Place Henri Hallet 1", "components": {"house_number": "1", "street": "Place Henri Hallet", "postcode": "4280", "locality": "Hannut"}, "country": "BE", "lat": 50.67176, "lon": 5.07826, "source": "golden"}
{"raw": "1853 Grimbergen, Jozef Van Elewijckstraat 103", "components": {"house_number": "103", "street": "Jozef Van Elewijckstraat", "postcode": "1853", "locality": "Grimbergen"}, "country": "BE", "lat": 50.90305, "lon": 4.35094, "source": "golden"}
{"raw": "Rue Arthur Masson 76, 6464 Chimay", "components": {"house_number": "76", "street": "Rue Arthur Masson", "postcode": "6464", "locality": "Chimay"}, "country": "BE", "lat": 49.95884, "lon": 4.36582, "source": "golden"}
{"raw": "Brueghellaan 8, 1970 Wezembeek-Oppem", "components": {"house_number": "8", "street": "Brueghellaan", "postcode": "1970", "locality": "Wezembeek-Oppem"}, "country": "BE", "lat": 50.84234, "lon": 4.50187, "source": "golden"}
{"raw": "Rue du Chaudfour 16, 6840 Neufchâteau", "components": {"house_number": "16", "street": "Rue du Chaudfour", "postcode": "6840", "locality": "Neufchâteau"}, "country": "BE", "lat": 49.84054, "lon": 5.441, "source": "golden"}
{"raw": "Rue Perdue 5, 7500 Tournai", "components": {"house_number": "5", "street": "Rue Perdue", "postcode": "7500", "locality": "Tournai"}, "country": "BE", "lat": 50.6074, "lon": 3.38421, "source": "golden"}
{"raw": "Rue de la Basse-Marihaye 33, 4100 Seraing", "components": {"house_number": "33", "street": "Rue de la Basse-Marihaye", "postcode": "4100", "locality": "Seraing"}, "country": "BE", "lat": 50.60468, "lon": 5.4974, "source": "golden"}
{"raw": "Rue des Champs 20B, 4300 Waremme", "components": {"house_number": "20B", "street": "Rue des Champs", "postcode": "4300", "locality": "Waremme"}, "country": "BE", "lat": 50.69104, "lon": 5.26009, "source": "golden"}
{"raw": "Ham, 3945, Heeseind 4", "components": {"house_number": "4", "street": "Heeseind", "postcode": "3945", "locality": "Ham"}, "country": "BE", "lat": 51.12137, "lon": 5.19733, "source": "golden"}
{"raw": "3150 Haacht, Jennekensstraat 31A", "components": {"house_number": "31A", "street": "Jennekensstraat", "postcode": "3150", "locality": "Haacht"}, "country": "BE", "lat": 50.97013, "lon": 4.63061, "source": "golden"}
{"raw": "Boenerstraat 112, 3600 Genk", "components": {"house_number": "112", "street": "Boenerstraat", "postcode": "3600", "locality": "Genk"}, "country": "BE", "lat": 50.92987, "lon": 5.52921, "source": "golden"}
{"raw": "Retie, 2470, St. Martinusstraat 6", "components": {"house_number": "6", "street": "St. Martinusstraat", "postcode": "2470", "locality": "Retie"}, "country": "BE", "lat": 51.26627, "lon": 5.08466, "source": "golden"}
{"raw": "4570 Marchin, Rue de la Source 1F", "components": {"house_number": "1F", "street": "Rue de la Source", "postcode": "4570", "locality": "Marchin"}, "country": "BE", "lat": 50.47613, "lon": 5.22538, "source": "golden"}
{"raw": "7300 Boussu, Rue Saint-Antoine 23", "components": {"house_number": "23", "street": "Rue Saint-Antoine", "postcode": "7300", "locality": "Boussu"}, "country": "BE", "lat": 50.4127, "lon": 3.78047, "source": "golden"}
{"raw": "8800 Roeselare, Herentalslaan 6", "components": {"house_number": "6", "street": "Herentalslaan", "postcode": "8800", "locality": "Roeselare"}, "country": "BE", "lat": 50.95469, "lon": 3.13198, "source": "golden"}
{"raw": "3471 Kortenaken, Putstraat 38", "components": {"house_number": "38", "street": "Putstraat", "postcode": "3471", "locality": "Kortenaken"}, "country": "BE", "lat": 50.84752, "lon": 5.00085, "source": "golden"}
{"raw": "Tournai, 7500, Rue de l'Yser 6", "components": {"house_number": "6", "street": "Rue de l'Yser", "postcode": "7500", "locality": "Tournai"}, "country": "BE", "lat": 50.60793, "lon": 3.38609, "source": "golden"}
{"raw": "Charleroi, 6040, Rue César De Paepe 84", "components": {"house_number": "84", "street": "Rue César De Paepe", "postcode": "6040", "locality": "Charleroi"}, "country": "BE", "lat": 50.43704, "lon": 4.41285, "source": "golden"}
{"raw": "4130 Esneux, Avenue de la Grotte 41", "components": {"house_number": "41", "street": "Avenue de la Grotte", "postcode": "4130", "locality": "Esneux"}, "country": "BE", "lat": 50.5632, "lon": 5.57941, "source": "golden"}
{"raw": "3730 Hoeselt, Vrijhernstraat 33", "components": {"house_number": "33", "street": "Vrijhernstraat", "postcode": "3730", "locality": "Hoeselt"}, "country": "BE", "lat": 50.81934, "lon": 5.45603, "source": "golden"}
{"raw": "Visé, 4600, Avenue du Pont 18", "components": {"house_number": "18", "street": "Avenue du Pont", "postcode": "4600", "locality": "Visé"}, "country": "BE", "lat": 50.73777, "lon": 5.69334, "source": "golden"}
{"raw": "Zaventem, 1933, Sint-Pancratiuslaan 45", "components": {"house_number": "45", "street": "Sint-Pancratiuslaan", "postcode": "1933", "locality": "Zaventem"}, "country": "BE", "lat": 50.85782, "lon": 4.52319, "source": "golden"}
{"raw": "2550 Kontich, Leiaard 19", "components": {"house_number": "19", "street": "Leiaard", "postcode": "2550", "locality": "Kontich"}, "country": "BE", "lat": 51.13024, "lon": 4.4415, "source": "golden"}
{"raw": "Herstal, 4040, En Faurieux 69", "components": {"house_number": "69", "street": "En Faurieux", "postcode": "4040", "locality": "Herstal"}, "country": "BE", "lat": 50.66571, "lon": 5.62587, "source": "golden"}
{"raw": "Ilya Prigoginelaan 8, 1180 Ukkel", "components": {"house_number": "8", "street": "Ilya Prigoginelaan", "postcode": "1180", "locality": "Ukkel"}, "country": "BE", "lat": 50.79198, "lon": 4.33033, "source": "golden"}
{"raw": "2920 Kalmthout, Boswachtersdreef 54", "components": {"house_number": "54", "street": "Boswachtersdreef", "postcode": "2920", "locality": "Kalmthout"}, "country": "BE", "lat": 51.35878, "lon": 4.47633, "source": "golden"}
{"raw": "6150 Anderlues, Rue de Nivelles 101", "components": {"house_number": "101", "street": "Rue de Nivelles", "postcode": "6150", "locality": "Anderlues"}, "country": "BE", "lat": 50.41942, "lon": 4.27502, "source": "golden"}
{"raw": "3740 Bilzen, Lochtstraat 35", "components": {"house_number": "35", "street": "Lochtstraat", "postcode": "3740", "locality": "Bilzen"}, "country": "BE", "lat": 50.87915, "lon": 5.57292, "source": "golden"}
{"raw": "4770 Amel, Rechter Straße 12", "components": {"house_number": "12", "street": "Rechter Straße", "postcode": "4770", "locality": "Amel"}, "country": "BE", "lat": 50.33303, "lon": 6.11589, "source": "golden"}
{"raw": "3670 Meeuwen-Gruitrode, Dampstraat 38", "components": {"house_number": "38", "street": "Dampstraat", "postcode": "3670", "locality": "Meeuwen-Gruitrode"}, "country": "BE", "lat": 51.06795, "lon": 5.53071, "source": "golden"}
{"raw": "Beukenhoflaan 45, 2630 Aartselaar", "components": {"house_number": "45", "street": "Beukenhoflaan", "postcode": "2630", "locality": "Aartselaar"}, "country": "BE", "lat": 51.13398, "lon": 4.37929, "source": "golden"}
{"raw": "Bavostraat 53, 3550 Heusden-Zolder", "components": {"house_number": "53", "street": "Bavostraat", "postcode": "3550", "locality": "Heusden-Zolder"}, "country": "BE", "lat": 51.02973, "lon": 5.24699, "source": "golden"}
{"raw": "Oud-Turnhout, 2360, Kerkstraat 24", "components": {"house_number": "24", "street": "Kerkstraat", "postcode": "2360", "locality": "Oud-Turnhout"}, "country": "BE", "lat": 51.31977, "lon": 4.97989, "source": "golden"}
{"raw": "Avenue Albert 1er 36, 5000 Namur", "components": {"house_number": "36", "street": "Avenue Albert 1er", "postcode": "5000", "locality": "Namur"}, "country": "BE", "lat": 50.46612, "lon": 4.88068, "source": "golden"}
{"raw": "8770 Ingelmunster, Doelstraat 4", "components": {"house_number": "4", "street": "Doelstraat", "postcode": "8770", "locality": "Ingelmunster"}, "country": "BE", "lat": 50.92198, "lon": 3.24928, "source": "golden"}
{"raw": "Rue d'Erpion 11, 6440 Froidchapelle", "components": {"house_number": "11", "street": "Rue d'Erpion", "postcode": "6440", "locality": "Froidchapelle"}, "country": "BE", "lat": 50.21707, "lon": 4.36433, "source": "golden"}
{"raw": "Golflaan 45, 1640 Sint-Genesius-Rode", "components": {"house_number": "45", "street": "Golflaan", "postcode": "1640", "locality": "Sint-Genesius-Rode"}, "country": "BE", "lat": 50.7411, "lon": 4.40331, "source": "golden"}
{"raw": "Halle, 1500, Rood Kruisstraat 59", "components": {"house_number": "59", "street": "Rood Kruisstraat", "postcode": "1500", "locality": "Halle"}, "country": "BE", "lat": 50.72621, "lon": 4.23914, "source": "golden"}
{"raw": "9991 Maldegem, Bilken 4", "components": {"house_number": "4", "street": "Bilken", "postcode": "9991", "locality": "Maldegem"}, "country": "BE", "lat": 51.20952, "lon": 3.48474, "source": "golden"}
{"raw": "Burght 34, 1547 Bever", "components": {"house_number": "34", "street": "Burght", "postcode": "1547", "locality": "Bever"}, "country": "BE", "lat": 50.72146, "lon": 3.92431, "source": "golden"}
{"raw": "2140 Antwerpen, Plantin en Moretuslei 335", "components": {"house_number": "335", "street": "Plantin en Moretuslei", "postcode": "2140", "locality": "Antwerpen"}, "country": "BE", "lat": 51.20918, "lon": 4.43702, "source": "golden"}
{"raw": "Brugge, 8200, Molenijzer 9", "components": {"house_number": "9", "street": "Molenijzer", "postcode": "8200", "locality": "Brugge"}, "country": "BE", "lat": 51.18804, "lon": 3.17947, "source": "golden"}
{"raw": "Rue Prince Albert 14, 4840 Welkenraedt", "components": {"house_number": "14", "street": "Rue Prince Albert", "postcode": "4840", "locality": "Welkenraedt"}, "country": "BE", "lat": 50.66153, "lon": 5.97772, "source": "golden"}
{"raw": "1350 Orp-Jauche, Rue du Vert-Galant 45", "components": {"house_number": "45", "street": "Rue du Vert-Galant", "postcode": "1350", "locality": "Orp-Jauche"}, "country": "BE", "lat": 49.29334, "lon": 2.30669, "source": "golden"}
{"raw": "Anderlues, 6150, Chaussée de Thuin 43", "components": {"house_number": "43", "street": "Chaussée de Thuin", "postcode": "6150", "locality": "Anderlues"}, "country": "BE", "lat": 50.40392, "lon": 4.28652, "source": "golden"}
{"raw": "Profondeville, 5170, Avenue des Tilleuls 24", "components": {"house_number": "24", "street": "Avenue des Tilleuls", "postcode": "5170", "locality": "Profondeville"}, "country": "BE", "lat": 50.37467, "lon": 4.86661, "source": "golden"}
{"raw": "1861 Meise, Oppemstraat 8", "components": {"house_number": "8", "street": "Oppemstraat", "postcode": "1861", "locality": "Meise"}, "country": "BE", "lat": 50.94982, "lon": 4.30824, "source": "golden"}
{"raw": "4340 Awans, Rue Noël Heine 16", "components": {"house_number": "16", "street": "Rue Noël Heine", "postcode": "4340", "locality": "Awans"}, "country": "BE", "lat": 50.66751, "lon": 5.4641, "source": "golden"}
{"raw": "3294 Diest, Lintenberg 35", "components": {"house_number": "35", "street": "Lintenberg", "postcode": "3294", "locality": "Diest"}, "country": "BE", "lat": 50.99738, "lon": 5.03222, "source": "golden"}
{"raw": "9400 Ninove, Burchtdam 6", "components": {"house_number": "6", "street": "Burchtdam", "postcode": "9400", "locality": "Ninove"}, "country": "BE", "lat": 50.83231, "lon": 4.02369, "source": "golden"}
{"raw": "Chimay, 6460, Chaussée de Mons 6", "components": {"house_number": "6", "street": "Chaussée de Mons", "postcode": "6460", "locality": "Chimay"}, "country": "BE", "lat": 50.0504, "lon": 4.31027, "source": "golden"}
{"raw": "Antwerpen, 2020, Abdijstraat 225", "components": {"house_number": "225", "street": "Abdijstraat", "postcode": "2020", "locality": "Antwerpen"}, "country": "BE", "lat": 51.18692, "lon": 4.38637, "source": "golden"}
{"raw": "Landen, 3400, Brouwerijstraat 25", "components": {"house_number": "25", "street": "Brouwerijstraat", "postcode": "3400", "locality": "Landen"}, "country": "BE", "lat": 50.78375, "lon": 5.01098, "source": "golden"}
{"raw": "7170 Manage, Grand'Rue 36", "components": {"house_number": "36", "street": "Grand'Rue", "postcode": "7170", "locality": "Manage"}, "country": "BE", "lat": 50.50367, "lon": 4.23602, "source": "golden"}
{"raw": "Wortegem-Petegem, 9790, Moregemplein 28", "components": {"house_number": "28", "street": "Moregemplein", "postcode": "9790", "locality": "Wortegem-Petegem"}, "country": "BE", "lat": 50.8494, "lon": 3.55992, "source": "golden"}
{"raw": "Oudenaarde, 9700, Galgestraat 46", "components": {"house_number": "46", "street": "Galgestraat", "postcode": "9700", "locality": "Oudenaarde"}, "country": "BE", "lat": 50.8527, "lon": 3.61424, "source": "golden"}
{"raw": "7604 Péruwelz, Rue de Tournai 56A", "components": {"house_number": "56A", "street": "Rue de Tournai", "postcode": "7604", "locality": "Péruwelz"}, "country": "BE", "lat": 49.29334, "lon": 2.30669, "source": "golden"}
{"raw": "7912 Frasnes-lez-Anvaing, Rue Lucien Delaunoit 6", "components": {"house_number": "6", "street": "Rue Lucien Delaunoit", "postcode": "7912", "locality": "Frasnes-lez-Anvaing"}, "country": "BE", "lat": 50.7197, "lon": 3.60886, "source": "golden"}
{"raw": "8500 Kortrijk, Vredelaan 28", "components": {"house_number": "28", "street": "Vredelaan", "postcode": "8500", "locality": "Kortrijk"}, "country": "BE", "lat": 50.82885, "lon": 3.28673, "source": "golden"}
{"raw": "Blauwe-Reigerstraat 11, 8670 Koksijde", "components": {"house_number": "11", "street": "Blauwe-Reigerstraat", "postcode": "8670", "locality": "Koksijde"}, "country": "BE", "lat": 51.1223, "lon": 2.68991, "source": "golden"}
{"raw": "Rue Constant Legrève 20, 1300 Wavre", "components": {"house_number": "20", "street": "Rue Constant Legrève", "postcode": "1300", "locality": "Wavre"}, "country": "BE", "lat": 50.70126, "lon": 4.57747, "source": "golden"}
{"raw": "Zwalm, 9636, Lindestraat 28", "components": {"house_number": "28", "street": "Lindestraat", "postcode": "9636", "locality": "Zwalm"}, "country": "BE", "lat": 50.88968, "lon": 3.68831, "source": "golden"}
{"raw": "Rue de Tournai 179, 7620 Brunehaut", "components": {"house_number": "179", "street": "Rue de Tournai", "postcode": "7620", "locality": "Brunehaut"}, "country": "BE", "lat": 50.53404, "lon": 3.42568, "source": "golden"}
{"raw": "Rue Fivé 161, 4100 Seraing", "components": {"house_number": "161", "street": "Rue Fivé", "postcode": "4100", "locality": "Seraing"}, "country": "BE", "lat": 50.59628, "lon": 5.48782, "source": "golden"}
{"raw": "Schoonderhage 5, 9550 Herzele", "components": {"house_number": "5", "street": "Schoonderhage", "postcode": "9550", "locality": "Herzele"}, "country": "BE", "lat": 50.86529, "lon": 3.89751, "source": "golden"}
{"raw": "Etalle, 6741, Rue de la Petite Chauvière 18", "components": {"house_number": "18", "street": "Rue de la Petite Chauvière", "postcode": "6741", "locality": "Etalle"}, "country": "BE", "lat": 49.66702, "lon": 5.67557, "source": "golden"}
{"raw": "1160 Auderghem, Clos Albert Crommelynck 10", "components": {"house_number": "10", "street": "Clos Albert Crommelynck", "postcode": "1160", "locality": "Auderghem"}, "country": "BE", "lat": 50.82295, "lon": 4.42915, "source": "golden"}
{"raw": "Bardelare 8, 9971 Kaprijke", "components": {"house_number": "8", "street": "Bardelare", "postcode": "9971", "locality": "Kaprijke"}, "country": "BE", "lat": 51.18447, "lon": 3.63429, "source": "golden"}
{"raw": "4671 Blegny, Rue Hubert Delfosse 17", "components": {"house_number": "17", "street": "Rue Hubert Delfosse", "postcode": "4671", "locality": "Blegny"}, "country": "BE", "lat": 50.64781, "lon": 5.68332, "source": "golden"}
{"raw": "8740 Pittem, Schuiferskapellestraat 82", "components": {"house_number": "82", "street": "Schuiferskapellestraat", "postcode": "8740", "locality": "Pittem"}, "country": "BE", "lat": 51.00569, "lon": 3.27828, "source": "golden"}
{"raw": "Grote Markt 7A, 9200 Dendermonde", "components": {"house_number": "7A", "street": "Grote Markt", "postcode": "9200", "locality": "Dendermonde"}, "country": "BE", "lat": 51.03076, "lon": 4.09864, "source": "golden"}
{"raw": "Maaseik, 3680, Molenveldlaan 23", "components": {"house_number": "23", "street": "Molenveldlaan", "postcode": "3680", "locality": "Maaseik"}, "country": "BE", "lat": 51.09069, "lon": 5.70551, "source": "golden"}
{"raw": "3850 Nieuwerkerken, Diestersteenweg 23", "components": {"house_number": "23", "street": "Diestersteenweg", "postcode": "3850", "locality": "Nieuwerkerken"}, "country": "BE", "lat": 50.8566, "lon": 5.18831, "source": "golden"}
{"raw": "Steenhuizestraat 24, 9550 Herzele", "components": {"house_number": "24", "street": "Steenhuizestraat", "postcode": "9550", "locality": "Herzele"}, "country": "BE", "lat": 50.85147, "lon": 3.8848, "source": "golden"}
{"raw": "La Louvière, 7110, Rue du Levant 14", "components": {"house_number": "14", "street": "Rue du Levant", "postcode": "7110", "locality": "La Louvière"}, "country": "BE", "lat": 50.47122, "lon": 4.15081, "source": "golden"}
{"raw": "Leopoldsburg, 3971, Huylstraat 5", "components": {"house_number": "5", "street": "Huylstraat", "postcode": "3971", "locality": "Leopoldsburg"}, "country": "BE", "lat": 51.10933, "lon": 5.23585, "source": "golden"}
{"raw": "8800 Roeselare, Lorkenstraat 11", "components": {"house_number": "11", "street": "Lorkenstraat", "postcode": "8800", "locality": "Roeselare"}, "country": "BE", "lat": 50.93438, "lon": 3.10589, "source": "golden"}
{"raw": "Rumst, 2840, Statiestraat 4", "components": {"house_number": "4", "street": "Statiestraat", "postcode": "2840", "locality": "Rumst"}, "country": "BE", "lat": 51.07827, "lon": 4.42405, "source": "golden"}
{"raw": "8670 Koksijde, George Grardplein 19", "components": {"house_number": "19", "street": "George Grardplein", "postcode": "8670", "locality": "Koksijde"}, "country": "BE", "lat": 51.11171, "lon": 2.61155, "source": "golden"}
{"raw": "1800 Vilvoorde, Olympiadelaan 31", "components": {"house_number": "31", "street": "Olympiadelaan", "postcode": "1800", "locality": "Vilvoorde"}, "country": "BE", "lat": 50.90572, "lon": 4.36738, "source": "golden"}
{"raw": "Steenokkerzeel, 1820, de Ribaucourtdreef 21", "components": {"house_number": "21", "street": "de Ribaucourtdreef", "postcode": "1820", "locality": "Steenokkerzeel"}, "country": "BE", "lat": 50.92869, "lon": 4.51202, "source": "golden"}
{"raw": "Laakdal, 2431, Kabienstraat 9", "components": {"house_number": "9", "street": "Kabienstraat", "postcode": "2431", "locality": "Laakdal"}, "country": "BE", "lat": 51.07106, "lon": 4.98359, "source": "golden"}
{"raw": "Tongersesteenweg 84A, 3840 Borgloon", "components": {"house_number": "84A", "street": "Tongersesteenweg", "postcode": "3840", "locality": "Borgloon"}, "country": "BE", "lat": 50.79941, "lon": 5.35737, "source": "golden"}
{"raw": "Aarschot, 3202, Tieltseweg 38", "components": {"house_number": "38", "street": "Tieltseweg", "postcode": "3202", "locality": "Aarschot"}, "country": "BE", "lat": 50.97248, "lon": 4.89319, "source": "golden"}
{"raw": "Woluwe-Saint-Lambert, 1200, Rue Théodore De Cuyper 229", "components": {"house_number": "229", "street": "Rue Théodore De Cuyper", "postcode": "1200", "locality": "Woluwe-Saint-Lambert"}, "country": "BE", "lat": 50.85526, "lon": 4.43884, "source": "golden"}
{"raw": "Sint-Elooisplein 49, 8793 Waregem", "components": {"house_number": "49", "street": "Sint-Elooisplein", "postcode": "8793", "locality": "Waregem"}, "country": "BE", "lat": 50.90711, "lon": 3.40241, "source": "golden"}
{"raw": "Saint-Nicolas, 4420, Chaussée Jean-Jacques Knaepen 126", "components": {"house_number": "126", "street": "Chaussée Jean-Jacques Knaepen", "postcode": "4420", "locality": "Saint-Nicolas"}, "country": "BE", "lat": 50.64263, "lon": 5.52951, "source": "golden"}
{"raw": "4680 Oupeye, Rue du Roi Albert 32", "components": {"house_number": "32", "street": "Rue du Roi Albert", "postcode": "4680", "locality": "Oupeye"},