{"raw": "8300 Snærild, Høghus 41", "components": {"house_number": "41", "street": "Høghus", "postcode": "8300", "locality": "Snærild"}, "country": "DK", "lat": 55.9796297, "lon": 10.1221837, "source": "golden"}
{"raw": "Frederiksberg, 1954, Hostrups Have 18", "components": {"house_number": "18", "street": "Hostrups Have", "postcode": "1954", "locality": "Frederiksberg"}, "country": "DK", "lat": 55.6835594, "lon": 12.5394043, "source": "golden"}
{"raw": "Lille Strandstræde 20, 1254 Amalienborg", "components": {"house_number": "20", "street": "Lille Strandstræde", "postcode": "1254", "locality": "Amalienborg"}, "country": "DK", "lat": 55.6812104, "lon": 12.5902182, "source": "golden"}
{"raw": "Frederikssundsvej 115, 2400 Bellahøj", "components": {"house_number": "115", "street": "Frederikssundsvej", "postcode": "2400", "locality": "Bellahøj"}, "country": "DK", "lat": 55.7064294, "lon": 12.5173596, "source": "golden"}
{"raw": "8240 Risskov, Brassøvej 16", "components": {"house_number": "16", "street": "Brassøvej", "postcode": "8240", "locality": "Risskov"}, "country": "DK", "lat": 56.203275, "lon": 10.2340562, "source": "golden"}
{"raw": "1208 Indre By, Kompagnistræde 22", "components": {"house_number": "22", "street": "Kompagnistræde", "postcode": "1208", "locality": "Indre By"}, "country": "DK", "lat": 55.6769298, "lon": 12.5748635, "source": "golden"}
{"raw": "Nyhavn, 1218, Rigsdagsgården 9", "components": {"house_number": "9", "street": "Rigsdagsgården", "postcode": "1218", "locality": "Nyhavn"}, "country": "DK", "lat": 55.6754064, "lon": 12.5811366, "source": "golden"}
{"raw": "Vibekevang, 2100, Vermundsgade 38A", "components": {"house_number": "38A", "street": "Vermundsgade", "postcode": "2100", "locality": "Vibekevang"}, "country": "DK", "lat": 55.7067545, "lon": 12.5522604, "source": "golden"}
{"raw": "Valby, 2500, Vigerslev Allé 30", "components": {"house_number": "30", "street": "Vigerslev Allé", "postcode": "2500", "locality": "Valby"}, "country": "DK", "lat": 55.6621471, "lon": 12.5201415, "source": "golden"}
{"raw": "Julsøvej 204B, 8600 Svejbæk", "components": {"house_number": "204B", "street": "Julsøvej", "postcode": "8600", "locality": "Svejbæk"}, "country": "DK", "lat": 56.1331236, "lon": 9.6335752, "source": "golden"}
{"raw": "Søndergården, 3500, Ryetvej 123", "components": {"house_number": "123", "street": "Ryetvej", "postcode": "3500", "locality": "Søndergården"}, "country": "DK", "lat": 55.7882763, "lon": 12.3626366, "source": "golden"}
{"raw": "Tjørring, 7400, Fuglsang Toft 4A", "components": {"house_number": "4A", "street": "Fuglsang Toft", "postcode": "7400", "locality": "Tjørring"}, "country": "DK", "lat": 56.1588711, "lon": 8.9426385, "source": "golden"}
{"raw": "Gørløse, 3330, Solvej 13", "components": {"house_number": "13", "street": "Solvej", "postcode": "3330", "locality": "Gørløse"}, "country": "DK", "lat": 55.8832228, "lon": 12.1932908, "source": "golden"}
{"raw": "1318 Nyhavn, Krusemyntegade 26", "components": {"house_number": "26", "street": "Krusemyntegade", "postcode": "1318", "locality": "Nyhavn"}, "country": "DK", "lat": 55.6887285, "lon": 12.5841439, "source": "golden"}
{"raw": "København N, 2200, Krogerupgade 51", "components": {"house_number": "51", "street": "Krogerupgade", "postcode": "2200", "locality": "København N"}, "country": "DK", "lat": 55.6963282, "lon": 12.5405228, "source": "golden"}
{"raw": "Nørre Dalby, 4140, Klempegårdsvej 15", "components": {"house_number": "15", "street": "Klempegårdsvej", "postcode": "4140", "locality": "Nørre Dalby"}, "country": "DK", "lat": 55.4804254, "lon": 12.0098126, "source": "golden"}
{"raw": "N.J. Fjords Alle 7, 1957 Frederiksberg", "components": {"house_number": "7", "street": "N.J. Fjords Alle", "postcode": "1957", "locality": "Frederiksberg"}, "country": "DK", "lat": 55.6834814, "lon": 12.5427197, "source": "golden"}
{"raw": "Sofus Francks Vænge 24, 2000 Valby", "components": {"house_number": "24", "street": "Sofus Francks Vænge", "postcode": "2000", "locality": "Valby"}, "country": "DK", "lat": 55.67108, "lon": 12.50442, "source": "golden"}
{"raw": "3300 Hanehoved, Mariagårdsvej 21", "components": {"house_number": "21", "street": "Mariagårdsvej", "postcode": "3300", "locality": "Hanehoved"}, "country": "DK", "lat": 55.9686215, "lon": 11.9865654, "source": "golden"}
{"raw": "3120 Munkerup, Bøgevangen 1B", "components": {"house_number": "1B", "street": "Bøgevangen", "postcode": "3120", "locality": "Munkerup"}, "country": "DK", "lat": 56.1025778, "lon": 12.3711944, "source": "golden"}
{"raw": "Nørre Søgade 43, 1370 Nørrebro", "components": {"house_number": "43", "street": "Nørre Søgade", "postcode": "1370", "locality": "Nørrebro"}, "country": "DK", "lat": 55.6818469, "lon": 12.5614196, "source": "golden"}
{"raw": "Klarup, 9220, Langerak 24A", "components": {"house_number": "24A", "street": "Langerak", "postcode": "9220", "locality": "Klarup"}, "country": "DK", "lat": 57.0459496, "lon": 10.0507118, "source": "golden"}
{"raw": "3400 Gammel Ullerød, Rugvangen 9C", "components": {"house_number": "9C", "street": "Rugvangen", "postcode": "3400", "locality": "Gammel Ullerød"}, "country": "DK", "lat": 55.9484329, "lon": 12.2711475, "source": "golden"}
{"raw": "7000 Vejlby, Vejlbyvej 1A", "components": {"house_number": "1A", "street": "Vejlbyvej", "postcode": "7000", "locality": "Vejlby"}, "country": "DK", "lat": 55.5879971, "lon": 9.7334934, "source": "golden"}
{"raw": "Nørgaardsvej 25, 2800 Kongens Lyngby", "components": {"house_number": "25", "street": "Nørgaardsvej", "postcode": "2800", "locality": "Kongens Lyngby"}, "country": "DK", "lat": 55.7706393, "lon": 12.5083589, "source": "golden"}
{"raw": "Haregade 14B, 3720 Aakirkeby", "components": {"house_number": "14B", "street": "Haregade", "postcode": "3720", "locality": "Aakirkeby"}, "country": "DK", "lat": 55.0618013, "lon": 14.9200842, "source": "golden"}
{"raw": "Firhøj, 3250, Firhøjvej 64", "components": {"house_number": "64", "street": "Firhøjvej", "postcode": "3250", "locality": "Firhøj"}, "country": "DK", "lat": 56.0983503, "lon": 12.3538884, "source": "golden"}
{"raw": "Køgevej 43B, 4000 Roskilde", "components": {"house_number": "43B", "street": "Køgevej", "postcode": "4000", "locality": "Roskilde"}, "country": "DK", "lat": 55.6318841, "lon": 12.0905628, "source": "golden"}
{"raw": "Frederiksberg, 1804, Bakkegårds Alle 12", "components": {"house_number": "12", "street": "Bakkegårds Alle", "postcode": "1804", "locality": "Frederiksberg"}, "country": "DK", "lat": 55.669662, "lon": 12.532065, "source": "golden"}
{"raw": "Tibberup, 3060, Kofod Anchers Vej 83", "components": {"house_number": "83", "street": "Kofod Anchers Vej", "postcode": "3060", "locality": "Tibberup"}, "country": "DK", "lat": 55.9861123, "lon": 12.5415235, "source": "golden"}
{"raw": "København, 1355, Gammeltoftsgade 12B", "components": {"house_number": "12B", "street": "Gammeltoftsgade", "postcode": "1355", "locality": "København"}, "country": "DK", "lat": 55.6891048, "lon": 12.571499, "source": "golden"}
{"raw": "Engdiget 16, 2610 Rødovre", "components": {"house_number": "16", "street": "Engdiget", "postcode": "2610", "locality": "Rødovre"}, "country": "DK", "lat": 55.6904796, "lon": 12.4650114, "source": "golden"}
{"raw": "Fåborgvej 40, 4000 Himmelev", "components": {"house_number": "40", "street": "Fåborgvej", "postcode": "4000", "locality": "Himmelev"}, "country": "DK", "lat": 55.6617628, "lon": 12.0983147, "source": "golden"}
{"raw": "Nørhede, 6893, Tinghøjvej 4B", "components": {"house_number": "4B", "street": "Tinghøjvej", "postcode": "6893", "locality": "Nørhede"}, "country": "DK", "lat": 55.8341774, "lon": 8.4653047, "source": "golden"}
{"raw": "Bistrup, 3460, Bistrupvej 105C", "components": {"house_number": "105C", "street": "Bistrupvej", "postcode": "3460", "locality": "Bistrup"}, "country": "DK", "lat": 55.8288053, "lon": 12.4317661, "source": "golden"}
{"raw": "1553 Copenhagen, H.C. Andersens Boulevard 6", "components": {"house_number": "6", "street": "H.C. Andersens Boulevard", "postcode": "1553", "locality": "Copenhagen"}, "country": "DK", "lat": 55.6774808, "lon": 12.5655512, "source": "golden"}
{"raw": "Svebølle, 4470, Lavendelvej 36", "components": {"house_number": "36", "street": "Lavendelvej", "postcode": "4470", "locality": "Svebølle"}, "country": "DK", "lat": 55.6498744, "lon": 11.2790744, "source": "golden"}
{"raw": "8660 Veng, Dalvej 14A", "components": {"house_number": "14A", "street": "Dalvej", "postcode": "8660", "locality": "Veng"}, "country": "DK", "lat": 56.1091939, "lon": 9.893869, "source": "golden"}
{"raw": "4593 Kaldred, Børgesvej 3", "components": {"house_number": "3", "street": "Børgesvej", "postcode": "4593", "locality": "Kaldred"}, "country": "DK", "lat": 55.7016087, "lon": 11.2752416, "source": "golden"}
{"raw": "Vesterbrogade 10C, 8722 Hedensted", "components": {"house_number": "10C", "street": "Vesterbrogade", "postcode": "8722", "locality": "Hedensted"}, "country": "DK", "lat": 55.7691652, "lon": 9.6977588, "source": "golden"}
{"raw": "2000 Valby, Borgmester Fischers Vej 8", "components": {"house_number": "8", "street": "Borgmester Fischers Vej", "postcode": "2000", "locality": "Valby"}, "country": "DK", "lat": 55.6706801, "lon": 12.5061823, "source": "golden"}
{"raw": "Østbirk, 8752, Industrivej 6C", "components": {"house_number": "6C", "street": "Industrivej", "postcode": "8752", "locality": "Østbirk"}, "country": "DK", "lat": 55.9676482, "lon": 9.744578, "source": "golden"}
{"raw": "Cecilielyst, 6200, Hjelmhaverne 71", "components": {"house_number": "71", "street": "Hjelmhaverne", "postcode": "6200", "locality": "Cecilielyst"}, "country": "DK", "lat": 55.0379257, "lon": 9.4045667, "source": "golden"}
{"raw": "Hørhavevej 1A, 3100 Kildekrog", "components": {"house_number": "1A", "street": "Hørhavevej", "postcode": "3100", "locality": "Kildekrog"}, "country": "DK", "lat": 56.0839586, "lon": 12.430851, "source": "golden"}
{"raw": "1250 Amalienborg, Sankt Annæ Plads 14", "components": {"house_number": "14", "street": "Sankt Annæ Plads", "postcode": "1250", "locality": "Amalienborg"}, "country": "DK", "lat": 55.6813518, "lon": 12.5913492, "source": "golden"}
{"raw": "Højgaardsvej 1, 4760 Bakkebølle", "components": {"house_number": "1", "street": "Højgaardsvej", "postcode": "4760", "locality": "Bakkebølle"}, "country": "DK", "lat": 54.9976102, "lon": 12.0039679, "source": "golden"}
{"raw": "Alumevangen 5, 3250 Smidstrup", "components": {"house_number": "5", "street": "Alumevangen", "postcode": "3250", "locality": "Smidstrup"}, "country": "DK", "lat": 56.1165836, "lon": 12.2448703, "source": "golden"}
{"raw": "Bregninge, 4593, Kaldredvej 7", "components": {"house_number": "7", "street": "Kaldredvej", "postcode": "4593", "locality": "Bregninge"}, "country": "DK", "lat": 55.6851442, "lon": 11.3104302, "source": "golden"}
{"raw": "Nyhavn, 1150, Købmagergade 7", "components": {"house_number": "7", "street": "Købmagergade", "postcode": "1150", "locality": "Nyhavn"}, "country": "DK", "lat": 55.6794671, "lon": 12.5792367, "source": "golden"}
{"raw": "2700 Bellahøj, Tværvangen 3", "components": {"house_number": "3", "street": "Tværvangen", "postcode": "2700", "locality": "Bellahøj"}, "country": "DK", "lat": 55.7067302, "lon": 12.5130899, "source": "golden"}
{"raw": "4140 Borup, Dalstrøget 70", "components": {"house_number": "70", "street": "Dalstrøget", "postcode": "4140", "locality": "Borup"}, "country": "DK", "lat": 55.5019602, "lon": 11.9864512, "source": "golden"}
{"raw": "Humlum, 7600, Bakke Alle 7", "components": {"house_number": "7", "street": "Bakke Alle", "postcode": "7600", "locality": "Humlum"}, "country": "DK", "lat": 56.5433316, "lon": 8.5469361, "source": "golden"}
{"raw": "Bispebjerg, 2400, Rørsangervej 52", "components": {"house_number": "52", "street": "Rørsangervej", "postcode": "2400", "locality": "Bispebjerg"}, "country": "DK", "lat": 55.7003412, "lon": 12.5260033, "source": "golden"}
{"raw": "Hegnet 39, 8700 Lund", "components": {"house_number": "39", "street": "Hegnet", "postcode": "8700", "locality": "Lund"}, "country": "DK", "lat": 55.8975756, "lon": 9.7722156, "source": "golden"}
{"raw": "Ørstedvej 47, 4130 Valore Huse", "components": {"house_number": "47", "street": "Ørstedvej", "postcode": "4130", "locality": "Valore Huse"}, "country": "DK", "lat": 55.5403668, "lon": 12.0435463, "source": "golden"}
{"raw": "3520 Farum, Birkhøjterrasserne 411C", "components": {"house_number": "411C", "street": "Birkhøjterrasserne", "postcode": "3520", "locality": "Farum"}, "country": "DK", "lat": 55.8211813, "lon": 12.3773302, "source": "golden"}
{"raw": "2500 Vigerslev, Danhaven 17", "components": {"house_number": "17", "street": "Danhaven", "postcode": "2500", "locality": "Vigerslev"}, "country": "DK", "lat": 55.6509042, "lon": 12.493692, "source": "golden"}
{"raw": "Hjørnegårdsvej 23, 4070 Lille Karleby", "components": {"house_number": "23", "street": "Hjørnegårdsvej", "postcode": "4070", "locality": "Lille Karleby"}, "country": "DK", "lat": 55.6942208, "lon": 11.9262536, "source": "golden"}
{"raw": "Gylfesvej 17B, 3060 Tibberup", "components": {"house_number": "17B", "street": "Gylfesvej", "postcode": "3060", "locality": "Tibberup"}, "country": "DK", "lat": 55.989441, "lon": 12.5562547, "source": "golden"}
{"raw": "Klerkegade 25G, 1308 Nyhavn", "components": {"house_number": "25G", "street": "Klerkegade", "postcode": "1308", "locality": "Nyhavn"}, "country": "DK", "lat": 55.6867997, "lon": 12.5828599, "source": "golden"}
{"raw": "Nybølle Hede, 4913, Husmandsvejen 33B", "components": {"house_number": "33B", "street": "Husmandsvejen", "postcode": "4913", "locality": "Nybølle Hede"}, "country": "DK", "lat": 54.9550147, "lon": 11.2281201, "source": "golden"}
{"raw": "Dr. Priemes Vej 12A, 1854 Frederiksberg", "components": {"house_number": "12A", "street": "Dr. Priemes Vej", "postcode": "1854", "locality": "Frederiksberg"}, "country": "DK", "lat": 55.675262, "lon": 12.5343498, "source": "golden"}
{"raw": "Bragesgade 26E, 2200 København N", "components": {"house_number": "26E", "street": "Bragesgade", "postcode": "2200", "locality": "København N"}, "country": "DK", "lat": 55.7007765, "lon": 12.5460366, "source": "golden"}
{"raw": "Gejsing, 6640, Sandvænget 18", "components": {"house_number": "18", "street": "Sandvænget", "postcode": "6640", "locality": "Gejsing"}, "country": "DK", "lat": 55.4803644, "lon": 9.2671388, "source": "golden"}
{"raw": "Ny Osted, 4320, Bregnetvedvej 21", "components": {"house_number": "21", "street": "Bregnetvedvej", "postcode": "4320", "locality": "Ny Osted"}, "country": "DK", "lat": 55.5542508, "lon": 11.9690336, "source": "golden"}
{"raw": "København, 1354, Ole Suhrs Gade 3", "components": {"house_number": "3", "street": "Ole Suhrs Gade", "postcode": "1354", "locality": "København"}, "country": "DK", "lat": 55.6888511, "lon": 12.5727381, "source": "golden"}
{"raw": "Strandvejen 2A, 6840 Oksbøl", "components": {"house_number": "2A", "street": "Strandvejen", "postcode": "6840", "locality": "Oksbøl"}, "country": "DK", "lat": 55.627493, "lon": 8.2735316, "source": "golden"}
{"raw": "Østerbro, 2100, Koldinggade 4", "components": {"house_number": "4", "street": "Koldinggade", "postcode": "2100", "locality": "Østerbro"}, "country": "DK", "lat": 55.706676, "lon": 12.5781396, "source": "golden"}
{"raw": "3770 Grønnedal, Æblevej 48", "components": {"house_number": "48", "street": "Æblevej", "postcode": "3770", "locality": "Grønnedal"}, "country": "DK", "lat": 55.2700815, "lon": 14.8058303, "source": "golden"}
{"raw": "Uglevang 60, 3450 Lillerød", "components": {"house_number": "60", "street": "Uglevang", "postcode": "3450", "locality": "Lillerød"}, "country": "DK", "lat": 55.8810152, "lon": 12.3525933, "source": "golden"}
{"raw": "6600 Nyby, Hundsbækvej 6A", "components": {"house_number": "6A", "street": "Hundsbækvej", "postcode": "6600", "locality": "Nyby"}, "country": "DK", "lat": 55.5228471, "lon": 9.0661518, "source": "golden"}
{"raw": "2820 Vangede, Myrtoften 29", "components": {"house_number": "29", "street": "Myrtoften", "postcode": "2820", "locality": "Vangede"}, "country": "DK", "lat": 55.7467156, "lon": 12.5057488, "source": "golden"}
{"raw": "3500 Søndergården, Åkandevej 74", "components": {"house_number": "74", "street": "Åkandevej", "postcode": "3500", "locality": "Søndergården"}, "country": "DK", "lat": 55.7873498, "lon": 12.3547442, "source": "golden"}
{"raw": "1057 Nyhavn, Holbergsgade 6", "components": {"house_number": "6", "street": "Holbergsgade", "postcode": "1057", "locality": "Nyhavn"}, "country": "DK", "lat": 55.677767, "lon": 12.5875821, "source": "golden"}
{"raw": "8340 Beder-Malling, Veilgårdsparken 38", "components": {"house_number": "38", "street": "Veilgårdsparken", "postcode": "8340", "locality": "Beder-Malling"}, "country": "DK", "lat": 56.046572, "lon": 10.1937098, "source": "golden"}
{"raw": "Anders Rasmussensvej 3, 4070 Ejby", "components": {"house_number": "3", "street": "Anders Rasmussensvej", "postcode": "4070", "locality": "Ejby"}, "country": "DK", "lat": 55.6920003, "lon": 11.846819, "source": "golden"}
{"raw": "Postmosen 128, 3400 Hillerød", "components": {"house_number": "128", "street": "Postmosen", "postcode": "3400", "locality": "Hillerød"}, "country": "DK", "lat": 55.9416927, "lon": 12.3313763, "source": "golden"}
{"raw": "8722 Lille Dalby, Gåskjærholm 38", "components": {"house_number": "38", "street": "Gåskjærholm", "postcode": "8722", "locality": "Lille Dalby"}, "country": "DK", "lat": 55.7647958, "lon": 9.7263307, "source": "golden"}
{"raw": "Nyhavn, 1114, Kronprinsensgade 13", "components": {"house_number": "13", "street": "Kronprinsensgade", "postcode": "1114", "locality": "Nyhavn"}, "country": "DK", "lat": 55.6808871, "lon": 12.5796989, "source": "golden"}
{"raw": "Flegmade 62, 7100 Vejle", "components": {"house_number": "62", "street": "Flegmade", "postcode": "7100", "locality": "Vejle"}, "country": "DK", "lat": 55.7100575, "lon": 9.5235992, "source": "golden"}
{"raw": "Ulvevej 14, 4622 Havdrup", "components": {"house_number": "14", "street": "Ulvevej", "postcode": "4622", "locality": "Havdrup"}, "country": "DK", "lat": 55.5494073, "lon": 12.1196941, "source": "golden"}
{"raw": "Kegnæshøj, 6470, Nørre Landevej 1B", "components": {"house_number": "1B", "street": "Nørre Landevej", "postcode": "6470", "locality": "Kegnæshøj"}, "country": "DK", "lat": 54.854906, "lon": 9.9915868, "source": "golden"}
{"raw": "Pottemagerstien 12, 3300 Asserbo", "components": {"house_number": "12", "street": "Pottemagerstien", "postcode": "3300", "locality": "Asserbo"}, "country": "DK", "lat": 56.0059312, "lon": 12.0051572, "source": "golden"}
{"raw": "1060 Nyhavn, Holmens Kanal 20", "components": {"house_number": "20", "street": "Holmens Kanal", "postcode": "1060", "locality": "Nyhavn"}, "country": "DK", "lat": 55.6772916, "lon": 12.5839505, "source": "golden"}
{"raw": "Syrenvej 21, 8653 Salten", "components": {"house_number": "21", "street": "Syrenvej", "postcode": "8653", "locality": "Salten"}, "country": "DK", "lat": 56.0860061, "lon": 9.5629778, "source": "golden"}
{"raw": "Christianshavn, 1058, Havnegade 43", "components": {"house_number": "43", "street": "Havnegade", "postcode": "1058", "locality": "Christianshavn"}, "country": "DK", "lat": 55.6777749, "lon": 12.5912666, "source": "golden"}
{"raw": "Kildevældet 9, 9000 Kærby", "components": {"house_number": "9", "street": "Kildevældet", "postcode": "9000", "locality": "Kærby"}, "country": "DK", "lat": 57.0328458, "lon": 9.937144, "source": "golden"}
{"raw": "Sporegangen 11, 3000 Rørtang", "components": {"house_number": "11", "street": "Sporegangen", "postcode": "3000", "locality": "Rørtang"}, "country": "DK", "lat": 56.0226145, "lon": 12.5786271, "source": "golden"}
{"raw": "Ny Carlsberg Vej 14, 1760 Enghave", "components": {"house_number": "14", "street": "Ny Carlsberg Vej", "postcode": "1760", "locality": "Enghave"}, "country": "DK", "lat": 55.6657932, "lon": 12.5457224, "source": "golden"}
{"raw": "Sydgaden 26G, 7400 Snejbjerg", "components": {"house_number": "26G", "street": "Sydgaden", "postcode": "7400", "locality": "Snejbjerg"}, "country": "DK", "lat": 56.1322348, "lon": 8.8987863, "source": "golden"}
{"raw": "8800 Viborg, Vilhelm Ehlerts Alle 15", "components": {"house_number": "15", "street": "Vilhelm Ehlerts Alle", "postcode": "8800", "locality": "Viborg"}, "country": "DK", "lat": 56.4472233, "lon": 9.3912336, "source": "golden"}
{"raw": "1657 Vesterbro, Eskildsgade 20", "components": {"house_number": "20", "street": "Eskildsgade", "postcode": "1657", "locality": "Vesterbro"}, "country": "DK", "lat": 55.6707891, "lon": 12.5552884, "source": "golden"}
{"raw": "Rømersgade 20C, 1362 København", "components": {"house_number": "20C", "street": "Rømersgade", "postcode": "1362", "locality": "København"}, "country": "DK", "lat": 55.6845704, "lon": 12.5701277, "source": "golden"}
{"raw": "Nørrebro, 2200, Peter Fabers Gade 16", "components": {"house_number": "16", "street": "Peter Fabers Gade", "postcode": "2200", "locality": "Nørrebro"}, "country": "DK", "lat": 55.6909348, "lon": 12.555421, "source": "golden"}
{"raw": "Copenhagen, 1550, Rådhuspladsen 16", "components": {"house_number": "16", "street": "Rådhuspladsen", "postcode": "1550", "locality": "Copenhagen"}, "country": "DK", "lat": 55.6759512, "lon": 12.5671942, "source": "golden"}
{"raw": "Indre By, 1160, Amagertorv 15", "components": {"house_number": "15", "street": "Amagertorv", "postcode": "1160", "locality": "Indre By"}, "country": "DK", "lat": 55.6786255, "lon": 12.5780361, "source": "golden"}
{"raw": "Irisvej 19, 5610 Melby Huse", "components": {"house_number": "19", "street": "Irisvej", "postcode": "5610", "locality": "Melby Huse"}, "country": "DK", "lat": 55.2602481, "lon": 9.9178195, "source": "golden"}
{"raw": "3100 Saunte, Merkurvej 18", "components": {"house_number": "18", "street": "Merkurvej", "postcode": "3100", "locality": "Saunte"}, "country": "DK", "lat": 56.0834299, "lon": 12.492861, "source": "golden"}
{"raw": "1420 Christianshavn, Dronningensgade 75", "components": {"house_number": "75", "street": "Dronningensgade", "postcode": "1420", "locality": "Christianshavn"}, "country": "DK", "lat": 55.6736226, "lon": 12.5944455, "source": "golden"}
{"raw": "Orla Lehmanns Vej 10, 2000 Frederiksberg", "components": {"house_number": "10", "street": "Orla Lehmanns Vej", "postcode": "2000", "locality": "Frederiksberg"}, "country": "DK", "lat": 55.6799817, "lon": 12.5204382, "source": "golden"}
{"raw": "Sønderballevej 1A, 6857 Ho", "components": {"house_number": "1A", "street": "Sønderballevej", "postcode": "6857", "locality": "Ho"}, "country": "DK", "lat": 55.54847, "lon": 8.2283072, "source": "golden"}
{"raw": "3650 Ølstykke, Hagbardsvej 60", "components": {"house_number": "60", "street": "Hagbardsvej", "postcode": "3650", "locality": "Ølstykke"}, "country": "DK", "lat": 55.7759856, "lon": 12.1784372, "source": "golden"}
{"raw": "1123 Nyhavn, Gothersgade 14", "components": {"house_number": "14", "street": "Gothersgade", "postcode": "1123", "locality": "Nyhavn"}, "country": "DK", "lat": 55.6820377, "lon": 12.5839644, "source": "golden"}
{"raw": "Spanager, 4140, Dalbyvej 53", "components": {"house_number": "53", "street": "Dalbyvej", "postcode": "4140", "locality": "Spanager"}, "country": "DK", "lat": 55.4845544, "lon": 12.0355266, "source": "golden"}
{"raw": "Masnedøgade 15, 2100 København Ø", "components": {"house_number": "15", "street": "Masnedøgade", "postcode": "2100", "locality": "København Ø"}, "country": "DK", "lat": 55.710136, "lon": 12.572557, "source": "golden"}
{"raw": "3600 Frederikssund, Rådhusvænget 27", "components": {"house_number": "27", "street": "Rådhusvænget", "postcode": "3600", "locality": "Frederikssund"}, "country": "DK", "lat": 55.8407495, "lon": 12.0572789, "source": "golden"}
{"raw": "Hornsved, 3630, Pilevej 15", "components": {"house_number": "15", "street": "Pilevej", "postcode": "3630", "locality": "Hornsved"}, "country": "DK", "lat": 55.9192525, "lon": 11.9123318, "source": "golden"}
{"raw": "Wilkensvej 19, 2000 Valby", "components": {"house_number": "19", "street": "Wilkensvej", "postcode": "2000", "locality": "Valby"}, "country": "DK", "lat": 55.6822374, "lon": 12.515148, "source": "golden"}
{"raw": "Christianshavn, 1402, Hammershøis Kaj 6", "components": {"house_number": "6", "street": "Hammershøis Kaj", "postcode": "1402", "locality": "Christianshavn"}, "country": "DK", "lat": 55.671438, "lon": 12.5865132, "source": "golden"}
{"raw": "1574 Indre By, Niels Brocks Gade 6", "components": {"house_number": "6", "street": "Niels Brocks Gade", "postcode": "1574", "locality": "Indre By"}, "country": "DK", "lat": 55.6711912, "lon": 12.5714497, "source": "golden"}
{"raw": "1067 Nyhavn, Nikolaj Plads 26", "components": {"house_number": "26", "street": "Nikolaj Plads", "postcode": "1067", "locality": "Nyhavn"}, "country": "DK", "lat": 55.678665, "lon": 12.5809207, "source": "golden"}
{"raw": "Lyngvejen 130, 6950 Tyvmose", "components": {"house_number": "130", "street": "Lyngvejen", "postcode": "6950", "locality": "Tyvmose"}, "country": "DK", "lat": 56.0915965, "lon": 8.1100749, "source": "golden"}
{"raw": "Bærhaven 5, 2500 Hvidovre", "components": {"house_number": "5", "street": "Bærhaven", "postcode": "2500", "locality": "Hvidovre"}, "country": "DK", "lat": 55.6446754, "lon": 12.5003217, "source": "golden"}
{"raw": "5853 Ørbæk, Kløvervej 1C", "components": {"house_number": "1C", "street": "Kløvervej", "postcode": "5853", "locality": "Ørbæk"}, "country": "DK", "lat": 55.2598445, "lon": 10.6676156, "source": "golden"}
{"raw": "8300 Blæsbjerg, Holbeks Ager 6", "components": {"house_number": "6", "street": "Holbeks Ager", "postcode": "8300", "locality": "Blæsbjerg"}, "country": "DK", "lat": 55.9785507, "lon": 10.1271013, "source": "golden"}
{"raw": "5260 Højby, Kærnehøjvej 6B", "components": {"house_number": "6B", "street": "Kærnehøjvej", "postcode": "5260", "locality": "Højby"}, "country": "DK", "lat": 55.3399085, "lon": 10.4368123, "source": "golden"}
{"raw": "Amalienborg, 1256, Amaliegade 36", "components": {"house_number": "36", "street": "Amaliegade", "postcode": "1256", "locality": "Amalienborg"}, "country": "DK", "lat": 55.6858005, "lon": 12.5949418, "source": "golden"}
{"raw": "Stenlandsvej 2, 3200 Nejlinge", "components": {"house_number": "2", "street": "Stenlandsvej", "postcode": "3200", "locality": "Nejlinge"}, "country": "DK", "lat": 56.0252943, "lon": 12.2110264, "source": "golden"}
{"raw": "3230 Vejret i Esrum, Sodemarksvej 11", "components": {"house_number": "11", "street": "Sodemarksvej", "postcode": "3230", "locality": "Vejret i Esrum"}, "country": "DK", "lat": 56.0533061, "lon": 12.3659545, "source": "golden"}
{"raw": "1256 Amalienborg, Amaliegade 6A", "components": {"house_number": "6A", "street": "Amaliegade", "postcode": "1256", "locality": "Amalienborg"}, "country": "DK", "lat": 55.6820754, "lon": 12.5920624, "source": "golden"}
{"raw": "Juul Steens Alle 10, 2900 Gentofte", "components": {"house_number": "10", "street": "Juul Steens Alle", "postcode": "2900", "locality": "Gentofte"}, "country": "DK", "lat": 55.7386946, "lon": 12.5542551, "source": "golden"}
{"raw": "9480 Løkken, Vrenstedvej 26", "components": {"house_number": "26", "street": "Vrenstedvej", "postcode": "9480", "locality": "Løkken"}, "country": "DK", "lat": 57.3696398, "lon": 9.7153119, "source": "golden"}
{"raw": "Egebæk Havekoloni 88, 5000 Odense C", "components": {"house_number": "88", "street": "Egebæk Havekoloni", "postcode": "5000", "locality": "Odense C"}, "country": "DK", "lat": 55.4195381, "lon": 10.3847468, "source": "golden"}
{"raw": "Stigsborg Bakke 9, 9400 Nørresundby", "components": {"house_number": "9", "street": "Stigsborg Bakke", "postcode": "9400", "locality": "Nørresundby"}, "country": "DK", "lat": 57.058281, "lon": 9.9391853, "source": "golden"}
{"raw": "2300 Amager Øst, Holmbladsgade 112", "components": {"house_number": "112", "street": "Holmbladsgade", "postcode": "2300", "locality": "Amager Øst"}, "country": "DK", "lat": 55.6671207, "lon": 12.6167793, "source": "golden"}
{"raw": "Birkestien 2, 4593 Kaldred", "components": {"house_number": "2", "street": "Birkestien", "postcode": "4593", "locality": "Kaldred"}, "country": "DK", "lat": 55.6920328, "lon": 11.2643941, "source": "golden"}
{"raw": "3520 Stavnsholt, Maglehøj 178", "components": {"house_number": "178", "street": "Maglehøj", "postcode": "3520", "locality": "Stavnsholt"}, "country": "DK", "lat": 55.8118421, "lon": 12.3840686, "source": "golden"}
{"raw": "Vibekevang, 2200, Tagensvej 18A", "components": {"house_number": "18A", "street": "Tagensvej", "postcode": "2200", "locality": "Vibekevang"}, "country": "DK", "lat": 55.6976569, "lon": 12.5584243, "source": "golden"}
{"raw": "Hillerød, 3400, Rosenvænget 10", "components": {"house_number": "10", "street": "Rosenvænget", "postcode": "3400", "locality": "Hillerød"}, "country": "DK", "lat": 55.9392479, "lon": 12.3265746, "source": "golden"}
{"raw": "3100 Horneby, Assegårdsvej 1", "components": {"house_number": "1", "street": "Assegårdsvej", "postcode": "3100", "locality": "Horneby"}, "country": "DK", "lat": 56.0841004, "lon": 12.442705, "source": "golden"}
{"raw": "Mejerivænget 29, 5580 Brandstrup", "components": {"house_number": "29", "street": "Mejerivænget", "postcode": "5580", "locality": "Brandstrup"}, "country": "DK", "lat": 55.4565578, "lon": 9.8666316, "source": "golden"}
{"raw": "Colbjørnsensgade 12, 1652 Vesterbro", "components": {"house_number": "12", "street": "Colbjørnsensgade", "postcode": "1652", "locality": "Vesterbro"}, "country": "DK", "lat": 55.6723446, "lon": 12.5618431, "source": "golden"}
{"raw": "Slet Parkvej 26H, 8310 Slet", "components": {"house_number": "26H", "street": "Slet Parkvej", "postcode": "8310", "locality": "Slet"}, "country": "DK", "lat": 56.1026936, "lon": 10.1438077, "source": "golden"}
{"raw": "Gammel Ullerød, 3400, Axel Jarls Vej 29", "components": {"house_number": "29", "street": "Axel Jarls Vej", "postcode": "3400", "locality": "Gammel Ullerød"}, "country": "DK", "lat": 55.9528773, "lon": 12.2690423, "source": "golden"}
{"raw": "Vesterbro, 1909, Vodroffs Tværgade 5E", "components": {"house_number": "5E", "street": "Vodroffs Tværgade", "postcode": "1909", "locality": "Vesterbro"}, "country": "DK", "lat": 55.6758515, "lon": 12.5523926, "source": "golden"}
{"raw": "Elsborg, 8840, Vandet Mosevej 27", "components": {"house_number": "27", "street": "Vandet Mosevej", "postcode": "8840", "locality": "Elsborg"}, "country": "DK", "lat": 56.3498674, "lon": 9.4752997, "source": "golden"}
{"raw": "Gentofte, 2820, Mitchellsstræde 3B", "components": {"house_number": "3B", "street": "Mitchellsstræde", "postcode": "2820", "locality": "Gentofte"}, "country": "DK", "lat": 55.748688, "lon": 12.5394822, "source": "golden"}
{"raw": "Roskilde, 4000, Ringparken 46", "components": {"house_number": "46", "street": "Ringparken", "postcode": "4000", "locality": "Roskilde"}, "country": "DK", "lat": 55.6313514, "lon": 12.0857715, "source": "golden"}
{"raw": "4450 Bjergsted, Bjergsted Byvej 21", "components": {"house_number": "21", "street": "Bjergsted Byvej", "postcode": "4450", "locality": "Bjergsted"}, "country": "DK", "lat": 55.6668758, "lon": 11.3509817, "source": "golden"}
{"raw": "Abildtoften 52, 3660 Ganløse", "components": {"house_number": "52", "street": "Abildtoften", "postcode": "3660", "locality": "Ganløse"}, "country": "DK", "lat": 55.7868714, "lon": 12.2723812, "source": "golden"}
{"raw": "Adolph Steens Alle 5, 1971 Nørrebro", "components": {"house_number": "5", "street": "Adolph Steens Alle", "postcode": "1971", "locality": "Nørrebro"}, "country": "DK", "lat": 55.6842033, "lon": 12.5523152, "source": "golden"}
{"raw": "2500 Vigerslev, Nakskovvej 35", "components": {"house_number": "35", "street": "Nakskovvej", "postcode": "2500", "locality": "Vigerslev"}, "country": "DK", "lat": 55.6687574, "lon": 12.493122, "source": "golden"}
{"raw": "1313 Amalienborg, Sankt Pauls Gade 14", "components": {"house_number": "14", "street": "Sankt Pauls Gade", "postcode": "1313", "locality": "Amalienborg"}, "country": "DK", "lat": 55.6871747, "lon": 12.588652, "source": "golden"}
{"raw": "2300 Sundbyvester, Amagerbrogade 87", "components": {"house_number": "87", "street": "Amagerbrogade", "postcode": "2300", "locality": "Sundbyvester"}, "country": "DK", "lat": 55.6598828, "lon": 12.605911, "source": "golden"}
{"raw": "3120 Villingebæk, Strandkrogen 44", "components": {"house_number": "44", "street": "Strandkrogen", "postcode": "3120", "locality": "Villingebæk"}, "country": "DK", "lat": 56.0968204, "lon": 12.4050721, "source": "golden"}
{"raw": "Nystedvej 28, 2500 Vigerslev", "components": {"house_number": "28", "street": "Nystedvej", "postcode": "2500", "locality": "Vigerslev"}, "country": "DK", "lat": 55.6666224, "lon": 12.4896113, "source": "golden"}
{"raw": "Slude Strand, 5871, Slude Strand 19", "components": {"house_number": "19", "street": "Slude Strand", "postcode": "5871", "locality": "Slude Strand"}, "country": "DK", "lat": 55.2519279, "lon": 10.7972993, "source": "golden"}
{"raw": "Bølshavn, 3740, Tuevej 1E", "components": {"house_number": "1E", "street": "Tuevej", "postcode": "3740", "locality": "Bølshavn"}, "country": "DK", "lat": 55.1448503, "lon": 15.089234, "source": "golden"}
{"raw": "3000 Helsingør, Skyttenstræde 8", "components": {"house_number": "8", "street": "Skyttenstræde", "postcode": "3000", "locality": "Helsingør"}, "country": "DK", "lat": 56.0329513, "lon": 12.6100587, "source": "golden"}
{"raw": "5230 Hunderup, Rødegårdsløkken Havekoloni 313", "components": {"house_number": "313", "street": "Rødegårdsløkken Havekoloni", "postcode": "5230", "locality": "Hunderup"}, "country": "DK", "lat": 55.3883371, "lon": 10.4074278, "source": "golden"}
{"raw": "Slimminge, 4100, Tjørnedalsvej 22", "components": {"house_number": "22", "street": "Tjørnedalsvej", "postcode": "4100", "locality": "Slimminge"}, "country": "DK", "lat": 55.4443761, "lon": 11.9540982, "source": "golden"}
{"raw": "Vester Såby, 4330, Anemonevænget 2", "components": {"house_number": "2", "street": "Anemonevænget", "postcode": "4330", "locality": "Vester Såby"}, "country": "DK", "lat": 55.629639, "lon": 11.8416684, "source": "golden"}
{"raw": "1071 Nyhavn, Dybensgade 22", "components": {"house_number": "22", "street": "Dybensgade", "postcode": "1071", "locality": "Nyhavn"}, "country": "DK", "lat": 55.6779415, "lon": 12.5823774, "source": "golden"}
{"raw": "1250 Amalienborg, Sankt Annæ Plads 10C", "components": {"house_number": "10C", "street": "Sankt Annæ Plads", "postcode": "1250", "locality": "Amalienborg"}, "country": "DK", "lat": 55.6812175, "lon": 12.5910815, "source": "golden"}
{"raw": "Søvej 17, 4140 Borup", "components": {"house_number": "17", "street": "Søvej", "postcode": "4140", "locality": "Borup"}, "country": "DK", "lat": 55.4945795, "lon": 11.9760151, "source": "golden"}
{"raw": "Niels Hemmingsens Gade 21, 1153 Indre By", "components": {"house_number": "21", "street": "Niels Hemmingsens Gade", "postcode": "1153", "locality": "Indre By"}, "country": "DK", "lat": 55.6802669, "lon": 12.5758046, "source": "golden"}
{"raw": "Tullinsgade 8, 1618 Vesterbro", "components": {"house_number": "8", "street": "Tullinsgade", "postcode": "1618", "locality": "Vesterbro"}, "country": "DK", "lat": 55.6736157, "lon": 12.5509834, "source": "golden"}
{"raw": "Bredgade 45B, 1260 Amalienborg", "components": {"house_number": "45B", "street": "Bredgade", "postcode": "1260", "locality": "Amalienborg"}, "country": "DK", "lat": 55.684172, "lon": 12.5899432, "source": "golden"}
{"raw": "Nørrebro, 2200, Sjællandsgade 42", "components": {"house_number": "42", "street": "Sjællandsgade", "postcode": "2200", "locality": "Nørrebro"}, "country": "DK", "lat": 55.6957796, "lon": 12.5579864, "source": "golden"}
{"raw": "3630 Landerslev Strand, Strandbakken 15", "components": {"house_number": "15", "street": "Strandbakken", "postcode": "3630", "locality": "Landerslev Strand"}, "country": "DK", "lat": 55.8294926, "lon": 11.9555631, "source": "golden"}
{"raw": "N.J. Fjords Alle 14, 1957 Frederiksberg", "components": {"house_number": "14", "street": "N.J. Fjords Alle", "postcode": "1957", "locality": "Frederiksberg"}, "country": "DK", "lat": 55.6827834, "lon": 12.5414679, "source": "golden"}
{"raw": "3630 Bakkegårde, Ringvej 33", "components": {"house_number": "33", "street": "Ringvej", "postcode": "3630", "locality": "Bakkegårde"}, "country": "DK", "lat": 55.9142142, "lon": 11.9207844, "source": "golden"}
{"raw": "Herning, 7400, Gl. Skolevej 2", "components": {"house_number": "2", "street": "Gl. Skolevej", "postcode": "7400", "locality": "Herning"}, "country": "DK", "lat": 56.136765, "lon": 8.9649968, "source": "golden"}
{"raw": "1270 Amalienborg, Grønningen 25", "components": {"house_number": "25", "street": "Grønningen", "postcode": "1270", "locality": "Amalienborg"}, "country": "DK", "lat": 55.6903158, "lon": 12.5891093, "source": "golden"}
{"raw": "Skælskør, 4230, Jernbanevej 18", "components": {"house_number": "18", "street": "Jernbanevej", "postcode": "4230", "locality": "Skælskør"}, "country": "DK", "lat": 55.2523843, "lon": 11.2923084, "source": "golden"}
{"raw": "Kløvervej 46E, 6000 Tved", "components": {"house_number": "46E", "street": "Kløvervej", "postcode": "6000", "locality": "Tved"}, "country": "DK", "lat": 55.4855651, "lon": 9.5001777, "source": "golden"}
{"raw": "Vesterbro, 1850, Gammel Kongevej 91B", "components": {"house_number": "91B", "street": "Gammel Kongevej", "postcode": "1850", "locality": "Vesterbro"}, "country": "DK", "lat": 55.6743953, "lon": 12.5483444, "source": "golden"}
{"raw": "Skjern, 6900, Bækkevangen 16", "components": {"house_number": "16", "street": "Bækkevangen", "postcode": "6900", "locality": "Skjern"}, "country": "DK", "lat": 55.9532771, "lon": 8.4887753, "source": "golden"}
{"raw": "Dannevirkegade 11, 1763 Vesterbro-Kongens Enghave", "components": {"house_number": "11", "street": "Dannevirkegade", "postcode": "1763", "locality": "Vesterbro-Kongens Enghave"}, "country": "DK", "lat": 55.6651835, "lon": 12.5420254, "source": "golden"}
{"raw": "Hellerup, 2900, Tuborgvej 20", "components": {"house_number": "20", "street": "Tuborgvej", "postcode": "2900", "locality": "Hellerup"}, "country": "DK", "lat": 55.7275074, "lon": 12.5717389, "source": "golden"}
{"raw": "Edvard Falcks Gade 2, 1569 Kalvebod Brygge", "components": {"house_number": "2", "street": "Edvard Falcks Gade", "postcode": "1569", "locality": "Kalvebod Brygge"}, "country": "DK", "lat": 55.6712632, "lon": 12.5704395, "source": "golden"}
{"raw": "Søborg, 2860, Vandtårnsvej 44", "components": {"house_number": "44", "street": "Vandtårnsvej", "postcode": "2860", "locality": "Søborg"}, "country": "DK", "lat": 55.7368246, "lon": 12.5010007, "source": "golden"}
{"raw": "Faksbjergvej 5, 4470 Svebølle", "components": {"house_number": "5", "street": "Faksbjergvej", "postcode": "4470", "locality": "Svebølle"}, "country": "DK", "lat": 55.6528879, "lon": 11.2834517, "source": "golden"}
{"raw": "1120 Nyhavn, Vognmagergade 7", "components": {"house_number": "7", "street": "Vognmagergade", "postcode": "1120", "locality": "Nyhavn"}, "country": "DK", "lat": 55.682169, "lon": 12.5789024, "source": "golden"}
{"raw": "København NV, 2400, Sokkelundsvej 44", "components": {"house_number": "44", "street": "Sokkelundsvej", "postcode": "2400", "locality": "København NV"}, "country": "DK", "lat": 55.7091965, "lon": 12.5172056, "source": "golden"}
{"raw": "Tikøb, 3080, Præstegårdsvej 14", "components": {"house_number": "14", "street": "Præstegårdsvej", "postcode": "3080", "locality": "Tikøb"}, "country": "DK", "lat": 56.0203407, "lon": 12.4538705, "source": "golden"}
{"raw": "Korsgade 20, 2200 Nørrebro", "components": {"house_number": "20", "street": "Korsgade", "postcode": "2200", "locality": "Nørrebro"}, "country": "DK", "lat": 55.6853336, "lon": 12.5577901, "source": "golden"}
{"raw": "2300 Holmen, Lindegang 39", "components": {"house_number": "39", "street": "Lindegang", "postcode": "2300", "locality": "Holmen"}, "country": "DK", "lat": 55.6771149, "lon": 12.6134662, "source": "golden"}
{"raw": "Lundbro Have 17, 7800 Lundbro", "components": {"house_number": "17", "street": "Lundbro Have", "postcode": "7800", "locality": "Lundbro"}, "country": "DK", "lat": 56.5594431, "lon": 8.9967418, "source": "golden"}
{"raw": "Lille Kirkestræde 8, 1072 Nyhavn", "components": {"house_number": "8", "street": "Lille Kirkestræde", "postcode": "1072", "locality": "Nyhavn"}, "country": "DK", "lat": 55.6784641, "lon": 12.5803815, "source": "golden"}
{"raw": "Astrupvej 14A, 4450 Bjergsted", "components": {"house_number": "14A", "street": "Astrupvej", "postcode": "4450", "locality": "Bjergsted"}, "country": "DK", "lat": 55.6639568, "lon": 11.3521331, "source": "golden"}
{"raw": "Randers C, 8930, Mysundevej 15", "components": {"house_number": "15", "street": "Mysundevej", "postcode": "8930", "locality": "Randers C"}, "country": "DK", "lat": 56.4847069, "lon": 10.0315446, "source": "golden"}
{"raw": "Ladegårdshuse, 4000, Børnehøjen 11", "components": {"house_number": "11", "street": "Børnehøjen", "postcode": "4000", "locality": "Ladegårdshuse"}, "country": "DK", "lat": 55.6613416, "lon": 12.108829, "source": "golden"}
{"raw": "Ølby Lyng, 4600, Københavnsvej 128B", "components": {"house_number": "128B", "street": "Københavnsvej", "postcode": "4600", "locality": "Ølby Lyng"}, "country": "DK", "lat": 55.4850339, "lon": 12.1894709, "source": "golden"}
{"raw": "Årslev, 5792, Lensmarken 16A", "components": {"house_number": "16A", "street": "Lensmarken", "postcode": "5792", "locality": "Årslev"}, "country": "DK", "lat": 55.295926, "lon": 10.4676967, "source": "golden"}
{"raw": "Rorupvej 9, 4320 Rorup", "components": {"house_number": "9", "street": "Rorupvej", "postcode": "4320", "locality": "Rorup"}, "country": "DK", "lat": 55.5789405, "lon": 11.985083, "source": "golden"}
{"raw": "8250 Skæring, Egå Marina 671", "components": {"house_number": "671", "street": "Egå Marina", "postcode": "8250", "locality": "Skæring"}, "country": "DK", "lat": 56.2103361, "lon": 10.2890158, "source": "golden"}
{"raw": "Buddinge, 2800, Stenkrogen 12", "components": {"house_number": "12", "street": "Stenkrogen", "postcode": "2800", "locality": "Buddinge"}, "country": "DK", "lat": 55.7594576, "lon": 12.4849818, "source": "golden"}
{"raw": "2500 Valby, Ramsingsvej 28A", "components": {"house_number": "28A", "street": "Ramsingsvej", "postcode": "2500", "locality": "Valby"}, "country": "DK", "lat": 55.659292, "lon": 12.5081037, "source": "golden"}
{"raw": "Vesterbro-Kongens Enghave, 2450, Teglholmsgade 36", "components": {"house_number": "36", "street": "Teglholmsgade", "postcode": "2450", "locality": "Vesterbro-Kongens Enghave"}, "country": "DK", "lat": 55.6521923, "lon": 12.5491422, "source": "golden"}
{"raw": "Havnevej 12, 3100 Hornbæk", "components": {"house_number": "12", "street": "Havnevej", "postcode": "3100", "locality": "Hornbæk"}, "country": "DK", "lat": 56.0915334, "lon": 12.4571596, "source": "golden"}
{"raw": "Hedelærkevej 2B, 3300 Asserbo", "components": {"house_number": "2B", "street": "Hedelærkevej", "postcode": "3300", "locality": "Asserbo"}, "country": "DK", "lat": 56.0105504, "lon": 12.0089582, "source": "golden"}
{"raw": "Silkeborg, 8600, Falkevej 1F", "components": {"house_number": "1F", "street": "Falkevej", "postcode": "8600", "locality": "Silkeborg"}, "country": "DK", "lat": 56.1707329, "lon": 9.5590626, "source": "golden"}
{"raw": "6971 Spjald, Søndergårdsparken 1", "components": {"house_number": "1", "street": "Søndergårdsparken", "postcode": "6971", "locality": "Spjald"}, "country": "DK", "lat": 56.1296456, "lon": 8.5075639, "source": "golden"}
{"raw": "4000 Roskilde, Lammegade 20", "components": {"house_number": "20", "street": "Lammegade", "postcode": "4000", "locality": "Roskilde"}, "country": "DK", "lat": 55.6388501, "lon": 12.0798728, "source": "golden"}
{"raw": "4591 Føllenslev Græsmark, Lavningen 1", "components": {"house_number": "1", "street": "Lavningen", "postcode": "4591", "locality": "Føllenslev Græsmark"}, "country": "DK", "lat": 55.7394689, "lon": 11.3114261, "source": "golden"}
{"raw": "1879 Frederiksberg, H.C. Ørsteds Vej 22E", "components": {"house_number": "22E", "street": "H.C. Ørsteds Vej", "postcode": "1879", "locality": "Frederiksberg"}, "country": "DK", "lat": 55.6780865, "lon": 12.5476348, "source": "golden"}
{"raw": "Valby, 2500, Skolegade 2", "components": {"house_number": "2", "street": "Skolegade", "postcode": "2500", "locality": "Valby"}, "country": "DK", "lat": 55.6658983, "lon": 12.5133793, "source": "golden"}
{"raw": "Enghavevej 65, 1674 Vesterbro-Kongens Enghave", "components": {"house_number": "65", "street": "Enghavevej", "postcode": "1674", "locality": "Vesterbro-Kongens Enghave"}, "country": "DK", "lat": 55.6647812, "lon": 12.5429791, "source": "golden"}
{"raw": "4593 Kaldred, Jacobsvej 15", "components": {"house_number": "15", "street": "Jacobsvej", "postcode": "4593", "locality": "Kaldred"}, "country": "DK", "lat": 55.7069867, "lon": 11.2707736, "source": "golden"}
{"raw": "Salamanderparken 122, 8260 Lemming", "components": {"house_number": "122", "street": "Salamanderparken", "postcode": "8260", "locality": "Lemming"}, "country": "DK", "lat": 56.127554, "lon": 10.100641, "source": "golden"}
{"raw": "4040 Jyllinge, Pibergårdsvej 13", "components": {"house_number": "13", "street": "Pibergårdsvej", "postcode": "4040", "locality": "Jyllinge"}, "country": "DK", "lat": 55.7465684, "lon": 12.1057257, "source": "golden"}
{"raw": "Enghave, 1721, Dybbølsgade 59", "components": {"house_number": "59", "street": "Dybbølsgade", "postcode": "1721", "locality": "Enghave"}, "country": "DK", "lat": 55.6668266, "lon": 12.5486066, "source": "golden"}
{"raw": "3400 Hjortelund, Frødalen 3", "components": {"house_number": "3", "street": "Frødalen", "postcode": "3400", "locality": "Hjortelund"}, "country": "DK", "lat": 55.9415117, "lon": 12.3497206, "source": "golden"}
{"raw": "Farvergade 27G, 1463 Indre By", "components": {"house_number": "27G", "street": "Farvergade", "postcode": "1463", "locality": "Indre By"}, "country": "DK", "lat": 55.6754132, "lon": 12.5721716, "source": "golden"}
{"raw": "Odense, 5000, Pantheons Passage 2", "components": {"house_number": "2", "street": "Pantheons Passage", "postcode": "5000", "locality": "Odense"}, "country": "DK", "lat": 55.3960776, "lon": 10.3805782, "source": "golden"}
{"raw": "Hareskovby, 3500, Skovmose Alle 65", "components": {"house_number": "65", "street": "Skovmose Alle", "postcode": "3500", "locality": "Hareskovby"}, "country": "DK", "lat": 55.758541, "lon": 12.4018965, "source": "golden"}
{"raw": "Amalienborg, 1057, Holbergsgade 15", "components": {"house_number": "15", "street": "Holbergsgade", "postcode": "1057", "locality": "Amalienborg"}, "country": "DK", "lat": 55.6784637, "lon": 12.5895596, "source": "golden"}
{"raw": "Amalienborg, 1264, Store Kongensgade 95", "components": {"house_number": "95", "street": "Store Kongensgade", "postcode": "1264", "locality": "Amalienborg"}, "country": "DK", "lat": 55.6867079, "lon": 12.5895576, "source": "golden"}
{"raw": "2000 Bispebjerg, Borups Alle 148", "components": {"house_number": "148", "street": "Borups Alle", "postcode": "2000", "locality": "Bispebjerg"}, "country": "DK", "lat": 55.6948322, "lon": 12.5295213, "source": "golden"}
{"raw": "Volsted, 9530, Volsted Bygade 4B", "components": {"house_number": "4B", "street": "Volsted Bygade", "postcode": "9530", "locality": "Volsted"}, "country": "DK", "lat": 56.9088802, "lon": 9.9060417, "source": "golden"}
{"raw": "1553 Indre By, H.C. Andersens Boulevard 40B", "components": {"house_number": "40B", "street": "H.C. Andersens Boulevard", "postcode": "1553", "locality": "Indre By"}, "country": "DK", "lat": 55.6719228, "lon": 12.5747094, "source": "golden"}
{"raw": "Mindelundsvej 4D, 5240 Seden", "components": {"house_number": "4D", "street": "Mindelundsvej", "postcode": "5240", "locality": "Seden"}, "country": "DK", "lat": 55.4231454, "lon": 10.441806, "source": "golden"}
{"raw": "2500 Valby, Lyshøj Allé 17", "components": {"house_number": "17", "street": "Lyshøj Allé", "postcode": "2500", "locality": "Valby"}, "country": "DK", "lat": 55.6622493, "lon": 12.5126421, "source": "golden"}
{"raw": "Helsingør, 3000, Sct Anna Gade 27B", "components": {"house_number": "27B", "street": "Sct Anna Gade", "postcode": "3000", "locality": "Helsingør"}, "country": "DK", "lat": 56.0366726, "lon": 12.6121392, "source": "golden"}
{"raw": "2860 Søborg, Søborg Hovedgade 86", "components": {"house_number": "86", "street": "Søborg Hovedgade", "postcode": "2860", "locality": "Søborg"}, "country": "DK", "lat": 55.7347865, "lon": 12.5137286, "source": "golden"}
{"raw": "Genvej 4, 3770 Allinge", "components": {"house_number": "4", "street": "Genvej", "postcode": "3770", "locality": "Allinge"}, "country": "DK", "lat": 55.2685008, "lon": 14.801728, "source": "golden"}
{"raw": "Valby, 2500, Toftegårds Plads 3", "components": {"house_number": "3", "street": "Toftegårds Plads", "postcode": "2500", "locality": "Valby"}, "country": "DK", "lat": 55.6621485, "lon": 12.5163633, "source": "golden"}
{"raw": "Baldersgade 31, 8230 Åbyhøj", "components": {"house_number": "31", "street": "Baldersgade", "postcode": "8230", "locality": "Åbyhøj"}, "country": "DK", "lat": 56.1506562, "lon": 10.1706174, "source": "golden"}
{"raw": "1550 Copenhagen, Rådhuspladsen 4", "components": {"house_number": "4", "street": "Rådhuspladsen", "postcode": "1550", "locality": "Copenhagen"}, "country": "DK", "lat": 55.6767598, "lon": 12.5675612, "source": "golden"}
{"raw": "Møntergade 5, 1116 Nyhavn", "components": {"house_number": "5", "street": "Møntergade", "postcode": "1116", "locality": "Nyhavn"}, "country": "DK", "lat": 55.6818682, "lon": 12.5794206, "source": "golden"}
{"raw": "Ceresbyen 18, 8000 Vestervang", "components": {"house_number": "18", "street": "Ceresbyen", "postcode": "8000", "locality": "Vestervang"}, "country": "DK", "lat": 56.1555068, "lon": 10.189418, "source": "golden"}
{"raw": "Enghave, 1666, Matthæusgade 46B", "components": {"house_number": "46B", "street": "Matthæusgade", "postcode": "1666", "locality": "Enghave"}, "country": "DK", "lat": 55.6698075, "lon": 12.5473938, "source": "golden"}
{"raw": "Kolind, 8560, Bredgade 3B", "components": {"house_number": "3B", "street": "Bredgade", "postcode": "8560", "locality": "Kolind"}, "country": "DK", "lat": 56.3622743, "lon": 10.5875318, "source": "golden"}
{"raw": "Frederiksberg, 1954, Hostrups Have 62", "components": {"house_number": "62", "street": "Hostrups Have", "postcode": "1954", "locality": "Frederiksberg"}, "country": "DK", "lat": 55.684667, "lon": 12.5383786, "source": "golden"}
{"raw": "1552 Copenhagen, Vester Voldgade 14", "components": {"house_number": "14", "street": "Vester Voldgade", "postcode": "1552", "locality": "Copenhagen"}, "country": "DK", "lat": 55.6769693, "lon": 12.5677216, "source": "golden"}
{"raw": "2670 Hundige, Hundige Strandvej 201", "components": {"house_number": "201", "street": "Hundige Strandvej", "postcode": "2670", "locality": "Hundige"}, "country": "DK", "lat": 55.5845716, "lon": 12.3185034, "source": "golden"}
{"raw": "Gevninge Old, 4000, Fjordager 24", "components": {"house_number": "24", "street": "Fjordager", "postcode": "4000", "locality": "Gevninge Old"}, "country": "DK", "lat": 55.6494379, "lon": 11.9519419, "source": "golden"}
{"raw": "3300 Tisvilde Ry, Nattergalevej 1", "components": {"house_number": "1", "street": "Nattergalevej", "postcode": "3300", "locality": "Tisvilde Ry"}, "country": "DK", "lat": 56.0039368, "lon": 12.0515113, "source": "golden"}
{"raw": "9000 Aalborg, Kielersvej 16", "components": {"house_number": "16", "street": "Kielersvej", "postcode": "9000", "locality": "Aalborg"}, "country": "DK", "lat": 57.0396535, "lon": 9.9210083, "source": "golden"}
{"raw": "Bringe, 3500, Dalsø Park 72", "components": {"house_number": "72", "street": "Dalsø Park", "postcode": "3500", "locality": "Bringe"}, "country": "DK", "lat": 55.7812719, "lon": 12.3415151, "source": "golden"}
{"raw": "Mysundegade 21, 1668 Enghave", "components": {"house_number": "21", "street": "Mysundegade", "postcode": "1668", "locality": "Enghave"}, "country": "DK", "lat": 55.6681205, "lon": 12.5482905, "source": "golden"}
{"raw": "4593 Kaldred, Filippavej 18", "components": {"house_number": "18", "street": "Filippavej", "postcode": "4593", "locality": "Kaldred"}, "country": "DK", "lat": 55.7014503, "lon": 11.2661667, "source": "golden"}
{"raw": "2700 Brønshøj-Husum, Terrasserne 29", "components": {"house_number": "29", "street": "Terrasserne", "postcode": "2700", "locality": "Brønshøj-Husum"}, "country": "DK", "lat": 55.7200672, "lon": 12.4897186, "source": "golden"}
{"raw": "1310 Amalienborg, Fredericiagade 30", "components": {"house_number": "30", "street": "Fredericiagade", "postcode": "1310", "locality": "Amalienborg"}, "country": "DK", "lat": 55.6861046, "lon": 12.5896811, "source": "golden"}
{"raw": "Studstrup, 8250, Fyrrevej 18", "components": {"house_number": "18", "street": "Fyrrevej", "postcode": "8250", "locality": "Studstrup"}, "country": "DK", "lat": 56.2390341, "lon": 10.3359274, "source": "golden"}
{"raw": "Sønderhaven 105, 9270 Romdrup", "components": {"house_number": "105", "street": "Sønderhaven", "postcode": "9270", "locality": "Romdrup"}, "country": "DK", "lat": 57.0097288, "lon": 10.0291433, "source": "golden"}
{"raw": "Nyhavn, 1060, Holmens Kanal 7", "components": {"house_number": "7", "street": "Holmens Kanal", "postcode": "1060", "locality": "Nyhavn"}, "country": "DK", "lat": 55.6782527, "lon": 12.5863876, "source": "golden"}
{"raw": "Kattehale 19, 4900 Rosnæs", "components": {"house_number": "19", "street": "Kattehale", "postcode": "4900", "locality": "Rosnæs"}, "country": "DK", "lat": 54.835189, "lon": 11.1093942, "source": "golden"}
{"raw": "1123 Nyhavn, Gothersgade 97", "components": {"house_number": "97", "street": "Gothersgade", "postcode": "1123", "locality": "Nyhavn"}, "country": "DK", "lat": 55.6835638, "lon": 12.5769902, "source": "golden"}
{"raw": "2000 Frederiksberg, V.E. Gamborgs Vej 15", "components": {"house_number": "15", "street": "V.E. Gamborgs Vej", "postcode": "2000", "locality": "Frederiksberg"}, "country": "DK", "lat": 55.6823545, "lon": 12.5182018, "source": "golden"}
{"raw": "Høje Tåstrup, 2630, Engelholm Alle 42", "components": {"house_number": "42", "street": "Engelholm Alle", "postcode": "2630", "locality": "Høje Tåstrup"}, "country": "DK", "lat": 55.6441461, "lon": 12.2675626, "source": "golden"}
{"raw": "Østerbro, 2100, Rosenvængets Allé 23", "components": {"house_number": "23", "street": "Rosenvængets Allé", "postcode": "2100", "locality": "Østerbro"}, "country": "DK", "lat": 55.6994357, "lon": 12.581619, "source": "golden"}
{"raw": "Amalienborg, 1255, Store Strandstræde 11", "components": {"house_number": "11", "street": "Store Strandstræde", "postcode": "1255", "locality": "Amalienborg"}, "country": "DK", "lat": 55.6811658, "lon": 12.5885612, "source": "golden"}
{"raw": "8800 Øster Teglgård, Sørosen 18", "components": {"house_number": "18", "street": "Sørosen", "postcode": "8800", "locality": "Øster Teglgård"}, "country": "DK", "lat": 56.4245497, "lon": 9.4128286, "source": "golden"}
{"raw": "8410 Ugelbølle, Møllerens Hus 7", "components": {"house_number": "7", "street": "Møllerens Hus", "postcode": "8410", "locality": "Ugelbølle"}, "country": "DK", "lat": 56.3054816, "lon": 10.4046587, "source": "golden"}
{"raw": "Applebys Plads 23, 1411 Islands Brygge", "components": {"house_number": "23", "street": "Applebys Plads", "postcode": "1411", "locality": "Islands Brygge"}, "country": "DK", "lat": 55.6706363, "lon": 12.5854048, "source": "golden"}
{"raw": "Gyldenløvesgade 12, 1369 Copenhagen", "components": {"house_number": "12", "street": "Gyldenløvesgade", "postcode": "1369", "locality": "Copenhagen"}, "country": "DK", "lat": 55.6805513, "lon": 12.5627107, "source": "golden"}
{"raw": "Bentevej 5, 3660 Ølstykke", "components": {"house_number": "5", "street": "Bentevej", "postcode": "3660", "locality": "Ølstykke"}, "country": "DK", "lat": 55.7681607, "lon": 12.1816379, "source": "golden"}
{"raw": "3460 Birkerød, Havestien 28", "components": {"house_number": "28", "street": "Havestien", "postcode": "3460", "locality": "Birkerød"}, "country": "DK", "lat": 55.8353196, "lon": 12.439038, "source": "golden"}
{"raw": "7400 Tjørring, Fuglsang Toft 4A", "components": {"house_number": "4A", "street": "Fuglsang Toft", "postcode": "7400", "locality": "Tjørring"}, "country": "DK", "lat": 56.1588711, "lon": 8.9426385, "source": "golden"}
{"raw": "Hals, 9370, Søhesten 91", "components": {"house_number": "91", "street": "Søhesten", "postcode": "9370", "locality": "Hals"}, "country": "DK", "lat": 57.0023985, "lon": 10.3031274, "source": "golden"}
{"raw": "Vigerslevvej 315, 2500 Hvidovre", "components": {"house_number": "315", "street": "Vigerslevvej", "postcode": "2500", "locality": "Hvidovre"}, "country": "DK", "lat": 55.6467155, "lon": 12.4954015, "source": "golden"}
{"raw": "4320 Højby, Landevejshøjen 3", "components": {"house_number": "3", "street": "Landevejshøjen", "postcode": "4320", "locality": "Højby"}, "country": "DK", "lat": 55.5979408, "lon": 11.9822894, "source": "golden"}
{"raw": "Herfølge, 4681, Tinggården 148", "components": {"house_number": "148", "street": "Tinggården", "postcode": "4681", "locality": "Herfølge"}, "country": "DK", "lat": 55.4121076, "lon": 12.1515944, "source": "golden"}
{"raw": "4592 Nordstrand, Gniben 16A", "components": {"house_number": "16A", "street": "Gniben", "postcode": "4592", "locality": "Nordstrand"}, "country": "DK", "lat": 55.9149184, "lon": 11.0835034, "source": "golden"}
{"raw": "4000 Svogerslev, Hjørnekilden 38", "components": {"house_number": "38", "street": "Hjørnekilden", "postcode": "4000", "locality": "Svogerslev"}, "country": "DK", "lat": 55.6357207, "lon": 12.0159411, "source": "golden"}
{"raw": "Åparken 8, 9000 Aalborg", "components": {"house_number": "8", "street": "Åparken", "postcode": "9000", "locality": "Aalborg"}, "country": "DK", "lat": 57.0410688, "lon": 9.9243898, "source": "golden"}
{"raw": "Bergthorasgade 11, 2300 Islands Brygge", "components": {"house_number": "11", "street": "Bergthorasgade", "postcode": "2300", "locality": "Islands Brygge"}, "country": "DK", "lat": 55.6652694, "lon": 12.5777299, "source": "golden"}
{"raw": "1850 Vesterbro, Gammel Kongevej 84", "components": {"house_number": "84", "street": "Gammel Kongevej", "postcode": "1850", "locality": "Vesterbro"}, "country": "DK", "lat": 55.6748007, "lon": 12.5491044, "source": "golden"}
{"raw": "Arkonagade 1, 1726 Enghave", "components": {"house_number": "1", "street": "Arkonagade", "postcode": "1726", "locality": "Enghave"}, "country": "DK", "lat": 55.6661121, "lon": 12.5524644, "source": "golden"}
{"raw": "Ved Bellahøj Nord 10, 2700 Bellahøj", "components": {"house_number": "10", "street": "Ved Bellahøj Nord", "postcode": "2700", "locality": "Bellahøj"}, "country": "DK", "lat": 55.7037706, "lon": 12.5104774, "source": "golden"}
{"raw": "3230 Vestervang, Græsted Park 8", "components": {"house_number": "8", "street": "Græsted Park", "postcode": "3230", "locality": "Vestervang"}, "country": "DK", "lat": 56.0682871, "lon": 12.2787894, "source": "golden"}
{"raw": "2100 Østerbro, Præstøgade 12", "components": {"house_number": "12", "street": "Præstøgade", "postcode": "2100", "locality": "Østerbro"}, "country": "DK", "lat": 55.7004254, "lon": 12.588572, "source": "golden"}
{"raw": "Stavnsholt, 3520, Hesselbækpark 38", "components": {"house_number": "38", "street": "Hesselbækpark", "postcode": "3520", "locality": "Stavnsholt"}, "country": "DK", "lat": 55.8214071, "lon": 12.3978195, "source": "golden"}
{"raw": "Emdrup, 2400, Engblommevej 25", "components": {"house_number": "25", "street": "Engblommevej", "postcode": "2400", "locality": "Emdrup"}, "country": "DK", "lat": 55.7230687, "lon": 12.5253355, "source": "golden"}
{"raw": "Slotsgade 42, 3400 Hillerød", "components": {"house_number": "42", "street": "Slotsgade", "postcode": "3400", "locality": "Hillerød"}, "country": "DK", "lat": 55.9319645, "lon": 12.2996399, "source": "golden"}
{"raw": "Kongedammen 30, 3000 Højstrup", "components": {"house_number": "30", "street": "Kongedammen", "postcode": "3000", "locality": "Højstrup"}, "country": "DK", "lat": 56.0447921, "lon": 12.5898988, "source": "golden"}
{"raw": "Amalienborg, 1052, Herluf Trolles Gade 16", "components": {"house_number": "16", "street": "Herluf Trolles Gade", "postcode": "1052", "locality": "Amalienborg"}, "country": "DK", "lat": 55.6789089, "lon": 12.5897121, "source": "golden"}
{"raw": "Kaldred, 4593, Knudsmindevej 4", "components": {"house_number": "4", "street": "Knudsmindevej", "postcode": "4593", "locality": "Kaldred"}, "country": "DK", "lat": 55.6973972, "lon": 11.2696103, "source": "golden"}
{"raw": "Tibberup, 3060, Jernbane Alle 86", "components": {"house_number": "86", "street": "Jernbane Alle", "postcode": "3060", "locality": "Tibberup"}, "country": "DK", "lat": 55.988208, "lon": 12.5478251, "source": "golden"}
{"raw": "Kastrup, 2770, Sirgræsvej 19", "components": {"house_number": "19", "street": "Sirgræsvej", "postcode": "2770", "locality": "Kastrup"}, "country": "DK", "lat": 55.6346445, "lon": 12.6341689, "source": "golden"}
{"raw": "Nyhavn, 1350, Øster Voldgade 20", "components": {"house_number": "20", "street": "Øster Voldgade", "postcode": "1350", "locality": "Nyhavn"}, "country": "DK", "lat": 55.6894677, "lon": 12.5831826, "source": "golden"}
{"raw": "Yding Toft 8M, 8752 Yding", "components": {"house_number": "8M", "street": "Yding Toft", "postcode": "8752", "locality": "Yding"}, "country": "DK", "lat": 56.0002639, "lon": 9.7645551, "source": "golden"}
{"raw": "Funder Skovvej 121, 8600 Funder", "components": {"house_number": "121", "street": "Funder Skovvej", "postcode": "8600", "locality": "Funder"}, "country": "DK", "lat": 56.1459076, "lon": 9.4776469, "source": "golden"}
{"raw": "1429 Christiania, Burmeistersgade 24", "components": {"house_number": "24", "street": "Burmeistersgade", "postcode": "1429", "locality": "Christiania"}, "country": "DK", "lat": 55.675641, "lon": 12.5989749, "source": "golden"}
{"raw": "Frederiksberg, 1954, Hostrups Have 40", "components": {"house_number": "40", "street": "Hostrups Have", "postcode": "1954", "locality": "Frederiksberg"}, "country": "DK", "lat": 55.6845751, "lon": 12.5405609, "source": "golden"}
{"raw": "5602 Avernak By, Stenager 12", "components": {"house_number": "12", "street": "Stenager", "postcode": "5602", "locality": "Avernak By"}, "country": "DK", "lat": 55.0331263, "lon": 10.2577048, "source": "golden"}
{"raw": "6000 Kolding, Zahnsgade 40A", "components": {"house_number": "40A", "street": "Zahnsgade", "postcode": "6000", "locality": "Kolding"}, "country": "DK", "lat": 55.4920362, "lon": 9.4683178, "source": "golden"}
{"raw": "Vanløse, 2720, Jydeholmen 45", "components": {"house_number": "45", "street": "Jydeholmen", "postcode": "2720", "locality": "Vanløse"}, "country": "DK", "lat": 55.68499, "lon": 12.4854547, "source": "golden"}
{"raw": "Søvej 34, 4140 Borup", "components": {"house_number": "34", "street": "Søvej", "postcode": "4140", "locality": "Borup"}, "country": "DK", "lat": 55.4937561, "lon": 11.9781997, "source": "golden"}
{"raw": "2900 Gentofte, Tranegårdsvej 65", "components": {"house_number": "65", "street": "Tranegårdsvej", "postcode": "2900", "locality": "Gentofte"}, "country": "DK", "lat": 55.7428822, "lon": 12.5585531, "source": "golden"}
{"raw": "2100 København Ø, Vognmandsmarken 5", "components": {"house_number": "5", "street": "Vognmandsmarken", "postcode": "2100", "locality": "København Ø"}, "country": "DK", "lat": 55.7132617, "lon": 12.5614931, "source": "golden"}
{"raw": "Bredgade 71, 1260 Amalienborg", "components": {"house_number": "71", "street": "Bredgade", "postcode": "1260", "locality": "Amalienborg"}, "country": "DK", "lat": 55.6869408, "lon": 12.5921615, "source": "golden"}
{"raw": "Humlevænget 5, 3250 Bregnerød", "components": {"house_number": "5", "street": "Humlevænget", "postcode": "3250", "locality": "Bregnerød"}, "country": "DK", "lat": 56.1153882, "lon": 12.3291096, "source": "golden"}
{"raw": "3200 Helsinge Tofte, Toftevangen 100", "components": {"house_number": "100", "street": "Toftevangen", "postcode": "3200", "locality": "Helsinge Tofte"}, "country": "DK", "lat": 56.0182665, "lon": 12.1819184, "source": "golden"}
{"raw": "Frederiksgade 33B, 7620 Lemvig", "components": {"house_number": "33B", "street": "Frederiksgade", "postcode": "7620", "locality": "Lemvig"}, "country": "DK", "lat": 56.5477653, "lon": 8.3080122, "source": "golden"}
{"raw": "Strandby, 6700, Grådybet 73B", "components": {"house_number": "73B", "street": "Grådybet", "postcode": "6700", "locality": "Strandby"}, "country": "DK", "lat": 55.4784638, "lon": 8.4356163, "source": "golden"}
{"raw": "2200 Nørrebro, Murergade 16", "components": {"house_number": "16", "street": "Murergade", "postcode": "2200", "locality": "Nørrebro"}, "country": "DK", "lat": 55.6843931, "lon": 12.5569118, "source": "golden"}
{"raw": "Tornekrogen 79, 3500 Værløse", "components": {"house_number": "79", "street": "Tornekrogen", "postcode": "3500", "locality": "Værløse"}, "country": "DK", "lat": 55.7805698, "lon": 12.3874008, "source": "golden"}
{"raw": "Egeparken 6, 9000 Vejgård", "components": {"house_number": "6", "street": "Egeparken", "postcode": "9000", "locality": "Vejgård"}, "country": "DK", "lat": 57.02759, "lon": 9.9466959, "source": "golden"}
{"raw": "Nyhavn, 1322, Suensonsgade 56", "components": {"house_number": "56", "street": "Suensonsgade", "postcode": "1322", "locality": "Nyhavn"}, "country": "DK", "lat": 55.6894076, "lon": 12.5856582, "source": "golden"}
{"raw": "Vigerslevvej 324, 2500 Hvidovre", "components": {"house_number": "324", "street": "Vigerslevvej", "postcode": "2500", "locality": "Hvidovre"}, "country": "DK", "lat": 55.6469092, "lon": 12.4941285, "source": "golden"}
{"raw": "2500 København SV, Trekronergade 126F", "components": {"house_number": "126F", "street": "Trekronergade", "postcode": "2500", "locality": "København SV"}, "country": "DK", "lat": 55.6520941, "lon": 12.5197521, "source": "golden"}
{"raw": "Kousgaards Plads 4, 7400 Herning", "components": {"house_number": "4", "street": "Kousgaards Plads", "postcode": "7400", "locality": "Herning"}, "country": "DK", "lat": 56.1373421, "lon": 8.979497, "source": "golden"}
{"raw": "Strandgade 85, 1401 Christianshavn", "components": {"house_number": "85", "street": "Strandgade", "postcode": "1401", "locality": "Christianshavn"}, "country": "DK", "lat": 55.6773246, "lon": 12.5953267, "source": "golden"}
{"raw": "Enghave, 1620, Vesterbrogade 107D", "components": {"house_number": "107D", "street": "Vesterbrogade", "postcode": "1620", "locality": "Enghave"}, "country": "DK", "lat": 55.6712253, "lon": 12.5447179, "source": "golden"}
{"raw": "4140 Borup, Bækgårdsvej 2D", "components": {"house_number": "2D", "street": "Bækgårdsvej", "postcode": "4140", "locality": "Borup"}, "country": "DK", "lat": 55.4976454, "lon": 11.9773273, "source": "golden"}
{"raw": "2500 Valby, Valbygårdsvej 48", "components": {"house_number": "48", "street": "Valbygårdsvej", "postcode": "2500", "locality": "Valby"}, "country": "DK", "lat": 55.6595538, "lon": 12.5226634, "source": "golden"}
{"raw": "1400 Christianshavn, Torvegade 53", "components": {"house_number": "53", "street": "Torvegade", "postcode": "1400", "locality": "Christianshavn"}, "country": "DK", "lat": 55.6719076, "lon": 12.5927436, "source": "golden"}
{"raw": "Dirchsvej 5, 2300 Sundbyerne", "components": {"house_number": "5", "street": "Dirchsvej", "postcode": "2300", "locality": "Sundbyerne"}, "country": "DK", "lat": 55.643649, "lon": 12.6173217, "source": "golden"}
{"raw": "3230 Alme Englod, Nordvestvej 8", "components": {"house_number": "8", "street": "Nordvestvej", "postcode": "3230", "locality": "Alme Englod"}, "country": "DK", "lat": 56.074101, "lon": 12.2824502, "source": "golden"}
{"raw": "Nordøstpassagen 22, 8700 Horsens", "components": {"house_number": "22", "street": "Nordøstpassagen", "postcode": "8700", "locality": "Horsens"}, "country": "DK", "lat": 55.8577179, "lon": 9.8701605, "source": "golden"}
{"raw": "7400 Snejbjerg, Sydgaden 99", "components": {"house_number": "99", "street": "Sydgaden", "postcode": "7400", "locality": "Snejbjerg"}, "country": "DK", "lat": 56.1303683, "lon": 8.8926953, "source": "golden"}
{"raw": "4000 Vindinge Lillevang, Forsythiavej 4", "components": {"house_number": "4", "street": "Forsythiavej", "postcode": "4000", "locality": "Vindinge Lillevang"}, "country": "DK", "lat": 55.636505, "lon": 12.1102094, "source": "golden"}
{"raw": "Ellegårdspark 69, 3520 Stavnsholt", "components": {"house_number": "69", "street": "Ellegårdspark", "postcode": "3520", "locality": "Stavnsholt"}, "country": "DK", "lat": 55.8167154, "lon": 12.3951628, "source": "golden"}
{"raw": "Amagerbro, 2300, Dalslandsgade 24", "components": {"house_number": "24", "street": "Dalslandsgade", "postcode": "2300", "locality": "Amagerbro"}, "country": "DK", "lat": 55.666226, "lon": 12.6045662, "source": "golden"}
{"raw": "5260 Lindved, Lindvedhave 51", "components": {"house_number": "51", "street": "Lindvedhave", "postcode": "5260", "locality": "Lindved"}, "country": "DK", "lat": 55.3421567, "lon": 10.4213342, "source": "golden"}
{"raw": "Skive, 7800, Nørregade 42", "components": {"house_number": "42", "street": "Nørregade", "postcode": "7800", "locality": "Skive"}, "country": "DK", "lat": 56.5696225, "lon": 9.0283677, "source": "golden"}
{"raw": "5400 Bogense, Fredskovsvænget 2", "components": {"house_number": "2", "street": "Fredskovsvænget", "postcode": "5400", "locality": "Bogense"}, "country": "DK", "lat": 55.5597484, "lon": 10.0988822, "source": "golden"}
{"raw": "4320 Allerslev Huse, Lejrevej 66", "components": {"house_number": "66", "street": "Lejrevej", "postcode": "4320", "locality": "Allerslev Huse"}, "country": "DK", "lat": 55.5830496, "lon": 11.9682493, "source": "golden"}
{"raw": "Kompagnistræde 41, 1208 Indre By", "components": {"house_number": "41", "street": "Kompagnistræde", "postcode": "1208", "locality": "Indre By"}, "country": "DK", "lat": 55.6763606, "lon": 12.5737259, "source": "golden"}
{"raw": "4140 Borup, Hovedgaden 33", "components": {"house_number": "33", "street": "Hovedgaden", "postcode": "4140", "locality": "Borup"}, "country": "DK", "lat": 55.4976688, "lon": 11.9751021, "source": "golden"}
{"raw": "4600 Ølby Lyng, Horsevej 11", "components": {"house_number": "11", "street": "Horsevej", "postcode": "4600", "locality": "Ølby Lyng"}, "country": "DK", "lat": 55.4850573, "lon": 12.1740661, "source": "golden"}
{"raw": "Kastanievej 36, 5900 Rudkøbing", "components": {"house_number": "36", "street": "Kastanievej", "postcode": "5900", "locality": "Rudkøbing"}, "country": "DK", "lat": 54.9406738, "lon": 10.7175082, "source": "golden"}
{"raw": "4593 Kaldred, Eskebjergvej 100", "components": {"house_number": "100", "street": "Eskebjergvej", "postcode": "4593", "locality": "Kaldred"}, "country": "DK", "lat": 55.6971544, "lon": 11.254996, "source": "golden"}
{"raw": "Nansensgade 90A, 1366 København", "components": {"house_number": "90A", "street": "Nansensgade", "postcode": "1366", "locality": "København"}, "country": "DK", "lat": 55.6850687, "lon": 12.5672524, "source": "golden"}
{"raw": "Kaldred, 4593, Ingelisevej 7", "components": {"house_number": "7", "street": "Ingelisevej", "postcode": "4593", "locality": "Kaldred"}, "country": "DK", "lat": 55.7046221, "lon": 11.2674924, "source": "golden"}
{"raw": "Gefionsvej 98, 3000 Højstrup", "components": {"house_number": "98", "street": "Gefionsvej", "postcode": "3000", "locality": "Højstrup"}, "country": "DK", "lat": 56.0337047, "lon": 12.5874874, "source": "golden"}
{"raw": "Grindsted, 7200, Odinsvej 2B", "components": {"house_number": "2B", "street": "Odinsvej", "postcode": "7200", "locality": "Grindsted"}, "country": "DK", "lat": 55.7547473, "lon": 8.9612388, "source": "golden"}
{"raw": "9220 Øster Uttrup, Skallerupvej 44B", "components": {"house_number": "44B", "street": "Skallerupvej", "postcode": "9220", "locality": "Øster Uttrup"}, "country": "DK", "lat": 57.0384546, "lon": 10.0144795, "source": "golden"}
{"raw": "Svanemosegårdsvej 13, 1967 Nørrebro", "components": {"house_number": "13", "street": "Svanemosegårdsvej", "postcode": "1967", "locality": "Nørrebro"}, "country": "DK", "lat": 55.6839746, "lon": 12.5499257, "source": "golden"}
{"raw": "9800 Ilbro, Ulstrupvej 45B", "components": {"house_number": "45B", "street": "Ulstrupvej", "postcode": "9800", "locality": "Ilbro"}, "country": "DK", "lat": 57.4312719, "lon": 10.0388619, "source": "golden"}
{"raw": "Silene Alle 5, 2860 Vangede", "components": {"house_number": "5", "street": "Silene Alle", "postcode": "2860", "locality": "Vangede"}, "country": "DK", "lat": 55.742397, "lon": 12.5114498, "source": "golden"}
{"raw": "Valby, 2000, Bag Søndermarken 21", "components": {"house_number": "21", "street": "Bag Søndermarken", "postcode": "2000", "locality": "Valby"}, "country": "DK", "lat": 55.6672977, "lon": 12.5211151, "source": "golden"}
{"raw": "Nyhavn, 1057, Holbergsgade 12", "components": {"house_number": "12", "street": "Holbergsgade", "postcode": "1057", "locality": "Nyhavn"}, "country": "DK", "lat": 55.6779919, "lon": 12.5885758, "source": "golden"}
{"raw": "Frederiksberg, 1812, Kochsvej 5A", "components": {"house_number": "5A", "street": "Kochsvej", "postcode": "1812", "locality": "Frederiksberg"}, "country": "DK", "lat": 55.6734873, "lon": 12.5380972, "source": "golden"}
{"raw": "Ganløse, 3660, Urtetoften 8", "components": {"house_number": "8", "street": "Urtetoften", "postcode": "3660", "locality": "Ganløse"}, "country": "DK", "lat": 55.7883142, "lon": 12.2715506, "source": "golden"}
{"raw": "Fritz Hansens Vej 15, 3450 Lillerød", "components": {"house_number": "15", "street": "Fritz Hansens Vej", "postcode": "3450", "locality": "Lillerød"}, "country": "DK", "lat": 55.8693014, "lon": 12.3556573, "source": "golden"}
{"raw": "9530 Støvring, Kærvej 4B", "components": {"house_number": "4B", "street": "Kærvej", "postcode": "9530", "locality": "Støvring"}, "country": "DK", "lat": 56.8903488, "lon": 9.8388697, "source": "golden"}
{"raw": "Søster Svenstrup Byvej 31, 4130 Birkedhøj", "components": {"house_number": "31", "street": "Søster Svenstrup Byvej", "postcode": "4130", "locality": "Birkedhøj"}, "country": "DK", "lat": 55.5461334, "lon": 11.9996514, "source": "golden"}
{"raw": "2700 Brønshøj-Husum, Lindholmsvej 31", "components": {"house_number": "31", "street": "Lindholmsvej", "postcode": "2700", "locality": "Brønshøj-Husum"}, "country": "DK", "lat": 55.6983899, "lon": 12.4833573, "source": "golden"}
{"raw": "Møllevej 13P, 4140 Borup", "components": {"house_number": "13P", "street": "Møllevej", "postcode": "4140", "locality": "Borup"}, "country": "DK", "lat": 55.4990715, "lon": 11.9853384, "source": "golden"}
{"raw": "Ny Hammersholt, 3400, Ved Store Dyrehave 54", "components": {"house_number": "54", "street": "Ved Store Dyrehave", "postcode": "3400", "locality": "Ny Hammersholt"}, "country": "DK", "lat": 55.9260985, "lon": 12.3352389, "source": "golden"}
{"raw": "Vestervang, 8000, Ceresbyen 18", "components": {"house_number": "18", "street": "Ceresbyen", "postcode": "8000", "locality": "Vestervang"}, "country": "DK", "lat": 56.1555068, "lon": 10.189418, "source": "golden"}
{"raw": "Kirke Hvalsø, 4330, Jernbanevej 29", "components": {"house_number": "29", "street": "Jernbanevej", "postcode": "4330", "locality": "Kirke Hvalsø"}, "country": "DK", "lat": 55.5985876, "lon": 11.8602872, "source": "golden"}
{"raw": "Enghave, 2450, Vasbygade 32", "components": {"house_number": "32", "street": "Vasbygade", "postcode": "2450", "locality": "Enghave"}, "country": "DK", "lat": 55.6568472, "lon": 12.5484364, "source": "golden"}
{"raw": "Præstebrovej 5, 2860 Mørkhøj", "components": {"house_number": "5", "street": "Præstebrovej", "postcode": "2860", "locality": "Mørkhøj"}, "country": "DK", "lat": 55.7347357, "lon": 12.4578491, "source": "golden"}
{"raw": "Svebølle, 4470, Centret 2B", "components": {"house_number": "2B", "street": "Centret", "postcode": "4470", "locality": "Svebølle"}, "country": "DK", "lat": 55.652884, "lon": 11.2784014, "source": "golden"}
{"raw": "Enghave, 1722, Godsbanegade 21", "components": {"house_number": "21", "street": "Godsbanegade", "postcode": "1722", "locality": "Enghave"}, "country": "DK", "lat": 55.6656755, "lon": 12.5552405, "source": "golden"}
{"raw": "Klerkegade 17A, 1308 Nyhavn", "components": {"house_number": "17A", "street": "Klerkegade", "postcode": "1308", "locality": "Nyhavn"}, "country": "DK", "lat": 55.686457, "lon": 12.5847708, "source": "golden"}
{"raw": "2450 Vesterbro-Kongens Enghave, Borgbjergsvej 1", "components": {"house_number": "1", "street": "Borgbjergsvej", "postcode": "2450", "locality": "Vesterbro-Kongens Enghave"}, "country": "DK", "lat": 55.6524304, "lon": 12.5387477, "source": "golden"}
{"raw": "Lille Skensved, 4623, Ved Banen 16", "components": {"house_number": "16", "street": "Ved Banen", "postcode": "4623", "locality": "Lille Skensved"}, "country": "DK", "lat": 55.5093869, "lon": 12.1427187, "source": "golden"}
{"raw": "Vestre Ringgade 76B, 8000 Vestervang", "components": {"house_number": "76B", "street": "Vestre Ringgade", "postcode": "8000", "locality": "Vestervang"}, "country": "DK", "lat": 56.1597499, "lon": 10.183817, "source": "golden"}
{"raw": "Gentofte, 2920, L E Bruuns Vej 33", "components": {"house_number": "33", "street": "L E Bruuns Vej", "postcode": "2920", "locality": "Gentofte"}, "country": "DK", "lat": 55.7497731, "lon": 12.5600305, "source": "golden"}
{"raw": "Vesterbro, 1654, Abel Cathrines Gade 14", "components": {"house_number": "14", "street": "Abel Cathrines Gade", "postcode": "1654", "locality": "Vesterbro"}, "country": "DK", "lat": 55.6713667, "lon": 12.5593097, "source": "golden"}
{"raw": "2000 Frederiksberg, Howitzvej 67F", "components": {"house_number": "67F", "street": "Howitzvej", "postcode": "2000", "locality": "Frederiksberg"}, "country": "DK", "lat": 55.6803129, "lon": 12.5229642, "source": "golden"}
{"raw": "Åby, 9440, Hovensvej 55", "components": {"house_number": "55", "street": "Hovensvej", "postcode": "9440", "locality": "Åby"}, "country": "DK", "lat": 57.1720008, "lon": 9.7476726, "source": "golden"}
{"raw": "5240 Bullerup, Ryleholmen 12", "components": {"house_number": "12", "street": "Ryleholmen", "postcode": "5240", "locality": "Bullerup"}, "country": "DK", "lat": 55.4280632, "lon": 10.4581078, "source": "golden"}
{"raw": "Brudelysvej 78, 4600 Åshøje", "components": {"house_number": "78", "street": "Brudelysvej", "postcode": "4600", "locality": "Åshøje"}, "country": "DK", "lat": 55.4445343, "lon": 12.1446257, "source": "golden"}
{"raw": "Krogen 8C, 4632 Bjæverskov", "components": {"house_number": "8C", "street": "Krogen", "postcode": "4632", "locality": "Bjæverskov"}, "country": "DK", "lat": 55.4583549, "lon": 12.0211023, "source": "golden"}
{"raw": "Engdraget 4B, 3390 Karlsminde", "components": {"house_number": "4B", "street": "Engdraget", "postcode": "3390", "locality": "Karlsminde"}, "country": "DK", "lat": 55.9469615, "lon": 11.8825379, "source": "golden"}
{"raw": "8600 Funderholme, Lysbrolysningen 10", "components": {"house_number": "10", "street": "Lysbrolysningen", "postcode": "8600", "locality": "Funderholme"}, "country": "DK", "lat": 56.1558609, "lon": 9.5001376, "source": "golden"}
{"raw": "P. Knudsens Gade 100, 2450 København SV", "components": {"house_number": "100", "street": "P. Knudsens Gade", "postcode": "2450", "locality": "København SV"}, "country": "DK", "lat": 55.6511748, "lon": 12.5298273, "source": "golden"}
{"raw": "Hostrupskov, 6200, Varnæsvej 9B", "components": {"house_number": "9B", "street": "Varnæsvej", "postcode": "6200", "locality": "Hostrupskov"}, "country": "DK", "lat": 55.0197345, "lon": 9.445227, "source": "golden"}
{"raw": "1814 Frederiksberg, Carit Etlars Vej 10", "components": {"house_number": "10", "street": "Carit Etlars Vej", "postcode": "1814", "locality": "Frederiksberg"}, "country": "DK", "lat": 55.6726811, "lon": 12.5410687, "source": "golden"}
{"raw": "4850 Stubbekøbing, Søndergade 1B", "components": {"house_number": "1B", "street": "Søndergade", "postcode": "4850", "locality": "Stubbekøbing"}, "country": "DK", "lat": 54.8896774, "lon": 12.0426885, "source": "golden"}
{"raw": "4700 Vridsløse, Maglebjerget 4", "components": {"house_number": "4", "street": "Maglebjerget", "postcode": "4700", "locality": "Vridsløse"}, "country": "DK", "lat": 55.2605802, "lon": 11.7792984, "source": "golden"}
{"raw": "Nyhavn, 1306, Kronprinsessegade 55", "components": {"house_number": "55", "street": "Kronprinsessegade", "postcode": "1306", "locality": "Nyhavn"}, "country": "DK", "lat": 55.6885041, "lon": 12.5854906, "source": "golden"}
{"raw": "2300 Sundbyerne, Frankrigsgade 88", "components": {"house_number": "88", "street": "Frankrigsgade", "postcode": "2300", "locality": "Sundbyerne"}, "country": "DK", "lat": 55.6636149, "lon": 12.61183, "source": "golden"}
{"raw": "Frederikshavn, 9900, Hangaardsvej 1", "components": {"house_number": "1", "street": "Hangaardsvej", "postcode": "9900", "locality": "Frederikshavn"}, "country": "DK", "lat": 57.4386521, "lon": 10.5348681, "source": "golden"}
{"raw": "7182 Balle, Bruuns Ager 49", "components": {"house_number": "49", "street": "Bruuns Ager", "postcode": "7182", "locality": "Balle"}, "country": "DK", "lat": 55.705562, "lon": 9.3750153, "source": "golden"}
{"raw": "9280 Klattrup, Hedevej 13B", "components": {"house_number": "13B", "street": "Hedevej", "postcode": "9280", "locality": "Klattrup"}, "country": "DK", "lat": 56.9442987, "lon": 10.2451865, "source": "golden"}
{"raw": "Frederiksberg, 2000, Porcelænshaven 2F", "components": {"house_number": "2F", "street": "Porcelænshaven", "postcode": "2000", "locality": "Frederiksberg"}, "country": "DK", "lat": 55.6792477, "lon": 12.5226944, "source": "golden"}
{"raw": "Nyhavn 31C, 1051 Amalienborg", "components": {"house_number": "31C", "street": "Nyhavn", "postcode": "1051", "locality": "Amalienborg"}, "country": "DK", "lat": 55.6804595, "lon": 12.590378, "source": "golden"}
{"raw": "Studiestræde 65, 1554 Copenhagen", "components": {"house_number": "65", "street": "Studiestræde", "postcode": "1554", "locality": "Copenhagen"}, "country": "DK", "lat": 55.6767352, "lon": 12.5649878, "source": "golden"}
{"raw": "Højstrup, 3000, Gefionsvej 35", "components": {"house_number": "35", "street": "Gefionsvej", "postcode": "3000", "locality": "Højstrup"}, "country": "DK", "lat": 56.041658, "lon": 12.58852, "source": "golden"}
{"raw": "3660 Ganløse, Lyngevej 6", "components": {"house_number": "6", "street": "Lyngevej", "postcode": "3660", "locality": "Ganløse"}, "country": "DK", "lat": 55.7941705, "lon": 12.2636072, "source": "golden"}
{"raw": "8920 Neder Hornbæk, Birkestræde 6", "components": {"house_number": "6", "street": "Birkestræde", "postcode": "8920", "locality": "Neder Hornbæk"}, "country": "DK", "lat": 56.46077, "lon": 10.0061468, "source": "golden"}
{"raw": "Frederiksberg, 1826, Alhambravej 15", "components": {"house_number": "15", "street": "Alhambravej", "postcode": "1826", "locality": "Frederiksberg"}, "country": "DK", "lat": 55.6753563, "lon": 12.5444472, "source": "golden"}
{"raw": "1909 Vesterbro, Vodroffs Tværgade 16", "components": {"house_number": "16", "street": "Vodroffs Tværgade", "postcode": "1909", "locality": "Vesterbro"}, "country": "DK", "lat": 55.6765204, "lon": 12.55201, "source": "golden"}
{"raw": "Gammel Holte, 2850, Mariehøjvej 17", "components": {"house_number": "17", "street": "Mariehøjvej", "postcode": "2850", "locality": "Gammel Holte"}, "country": "DK", "lat": 55.8303975, "lon": 12.5260836, "source": "golden"}
{"raw": "Grævlingehøj, 3300, Skovspurvevej 5", "components": {"house_number": "5", "street": "Skovspurvevej", "postcode": "3300", "locality": "Grævlingehøj"}, "country": "DK", "lat": 55.936073, "lon": 12.0428127, "source": "golden"}
{"raw": "Frederiksberg, 1816, Engtoftevej 7", "components": {"house_number": "7", "street": "Engtoftevej", "postcode": "1816", "locality": "Frederiksberg"}, "country": "DK", "lat": 55.67264, "lon": 12.5436338, "source": "golden"}
{"raw": "Enghave, 1736, Bevtoftgade 3", "components": {"house_number": "3", "street": "Bevtoftgade", "postcode": "1736", "locality": "Enghave"}, "country": "DK", "lat": 55.6653294, "lon": 12.5445622, "source": "golden"}
{"raw": "Solhøj 4, 4330 Frikøbing", "components": {"house_number": "4", "street": "Solhøj", "postcode": "4330", "locality": "Frikøbing"}, "country": "DK", "lat": 55.5953036, "lon": 11.8375119, "source": "golden"}
{"raw": "Manøgade 1, 2100 København Ø", "components": {"house_number": "1", "street": "Manøgade", "postcode": "2100", "locality": "København Ø"}, "country": "DK", "lat": 55.7077735, "lon": 12.5682426, "source": "golden"}
{"raw": "2820 Vangede, Nybrovej 33B", "components": {"house_number": "33B", "street": "Nybrovej", "postcode": "2820", "locality": "Vangede"}, "country": "DK", "lat": 55.7543532, "lon": 12.5162639, "source": "golden"}
{"raw": "Kirkeskov Alle 58, 3050 Humlebæk", "components": {"house_number": "58", "street": "Kirkeskov Alle", "postcode": "3050", "locality": "Humlebæk"}, "country": "DK", "lat": 55.9650051, "lon": 12.5284363, "source": "golden"}
{"raw": "Amalienborg, 1051, Nyhavn 31F", "components": {"house_number": "31F", "street": "Nyhavn", "postcode": "1051", "locality": "Amalienborg"}, "country": "DK", "lat": 55.680608, "lon": 12.5913422, "source": "golden"}
{"raw": "Viby, 4130, Grønningen 13B", "components": {"house_number": "13B", "street": "Grønningen", "postcode": "4130", "locality": "Viby"}, "country": "DK", "lat": 55.5476261, "lon": 12.0202891, "source": "golden"}
{"raw": "Ellevej 24, 3300 Åsebro Huse", "components": {"house_number": "24", "street": "Ellevej", "postcode": "3300", "locality": "Åsebro Huse"}, "country": "DK", "lat": 55.9825464, "lon": 12.0159973, "source": "golden"}
{"raw": "3230 Græsted, Græsted Hovedgade 4A", "components": {"house_number": "4A", "street": "Græsted Hovedgade", "postcode": "3230", "locality": "Græsted"}, "country": "DK", "lat": 56.0658635, "lon": 12.2806014, "source": "golden"}
{"raw": "Plateauet 17, 9000 Vejgård", "components": {"house_number": "17", "street": "Plateauet", "postcode": "9000", "locality": "Vejgård"}, "country": "DK", "lat": 57.0336835, "lon": 9.9399608, "source": "golden"}
{"raw": "Christiania, 1428, Andreas Bjørns Gade 2", "components": {"house_number": "2", "street": "Andreas Bjørns Gade", "postcode": "1428", "locality": "Christiania"}, "country": "DK", "lat": 55.6752892, "lon": 12.5973107, "source": "golden"}
{"raw": "2450 København SV, Hf. Frederikshøj 331", "components": {"house_number": "331", "street": "Hf. Frederikshøj", "postcode": "2450", "locality": "København SV"}, "country": "DK", "lat": 55.6457753, "lon": 12.5362341, "source": "golden"}
{"raw": "7800 Skive, Sildestræde 63", "components": {"house_number": "63", "street": "Sildestræde", "postcode": "7800", "locality": "Skive"}, "country": "DK", "lat": 56.5653693, "lon": 9.0511946, "source": "golden"}
{"raw": "Roskilde, 4000, Friggasvej 5", "components": {"house_number": "5", "street": "Friggasvej", "postcode": "4000", "locality": "Roskilde"}, "country": "DK", "lat": 55.650129, "lon": 12.0883209, "source": "golden"}
{"raw": "4460 Særslev, Firhøjvej 5", "components": {"house_number": "5", "street": "Firhøjvej", "postcode": "4460", "locality": "Særslev"}, "country": "DK", "lat": 55.7191153, "lon": 11.3783686, "source": "golden"}
{"raw": "Salamanderparken 188, 8260 Lemming", "components": {"house_number": "188", "street": "Salamanderparken", "postcode": "8260", "locality": "Lemming"}, "country": "DK", "lat": 56.1273013, "lon": 10.1007291, "source": "golden"}
{"raw": "Herlev Torv 26, 2730 Herlev", "components": {"house_number": "26", "street": "Herlev Torv", "postcode": "2730", "locality": "Herlev"}, "country": "DK", "lat": 55.7245142, "lon": 12.4395213, "source": "golden"}
{"raw": "Jebjerg, 8870, Jebjergvej 23", "components": {"house_number": "23", "street": "Jebjergvej", "postcode": "8870", "locality": "Jebjerg"}, "country": "DK", "lat": 56.3939144, "lon": 9.9538328, "source": "golden"}
{"raw": "1965 Nørrebro, Erik Menveds Vej 4", "components": {"house_number": "4", "street": "Erik Menveds Vej", "postcode": "1965", "locality": "Nørrebro"}, "country": "DK", "lat": 55.6834149, "lon": 12.5485031, "source": "golden"}
{"raw": "Kastaniedal 5B, 2730 Hjortespring", "components": {"house_number": "5B", "street": "Kastaniedal", "postcode": "2730", "locality": "Hjortespring"}, "country": "DK", "lat": 55.7273455, "lon": 12.4169945, "source": "golden"}
{"raw": "2820 Gentofte, Skrænten 1", "components": {"house_number": "1", "street": "Skrænten", "postcode": "2820", "locality": "Gentofte"}, "country": "DK", "lat": 55.7499245, "lon": 12.5374096, "source": "golden"}
{"raw": "1123 Nyhavn, Gothersgade 53", "components": {"house_number": "53", "street": "Gothersgade", "postcode": "1123", "locality": "Nyhavn"}, "country": "DK", "lat": 55.6829158, "lon": 12.579399, "source": "golden"}
{"raw": "Spireavej 4, 3650 Ølstykke Stationsby", "components": {"house_number": "4", "street": "Spireavej", "postcode": "3650", "locality": "Ølstykke Stationsby"}, "country": "DK", "lat": 55.7891039, "lon": 12.1473914, "source": "golden"}
{"raw": "6705 Kærsing, Kvaglundparken 121", "components": {"house_number": "121", "street": "Kvaglundparken", "postcode": "6705", "locality": "Kærsing"}, "country": "DK", "lat": 55.4926311, "lon": 8.5004438, "source": "golden"}
{"raw": "Begonievej 10, 4593 Kaldred", "components": {"house_number": "10", "street": "Begonievej", "postcode": "4593", "locality": "Kaldred"}, "country": "DK", "lat": 55.6968958, "lon": 11.2634301, "source": "golden"}
{"raw": "8200 Vestervang, Jens Baggesens Vej 37C", "components": {"house_number": "37C", "street": "Jens Baggesens Vej", "postcode": "8200", "locality": "Vestervang"}, "country": "DK", "lat": 56.1700884, "lon": 10.1916775, "source": "golden"}
{"raw": "Auroravej 20, 2610 Vigerslev", "components": {"house_number": "20", "street": "Auroravej", "postcode": "2610", "locality": "Vigerslev"}, "country": "DK", "lat": 55.6751265, "lon": 12.4727115, "source": "golden"}
{"raw": "Dalsø Park 7A, 3500 Bringe", "components": {"house_number": "7A", "street": "Dalsø Park", "postcode": "3500", "locality": "Bringe"}, "country": "DK", "lat": 55.7817728, "lon": 12.3451812, "source": "golden"}
{"raw": "4320 Osted, Alfarvejen 50B", "components": {"house_number": "50B", "street": "Alfarvejen", "postcode": "4320", "locality": "Osted"}, "country": "DK", "lat": 55.5559814, "lon": 11.9517347, "source": "golden"}
{"raw": "Vesterbro, 1700, Halmtorvet 6", "components": {"house_number": "6", "street": "Halmtorvet", "postcode": "1700", "locality": "Vesterbro"}, "country": "DK", "lat": 55.67114, "lon": 12.5620425, "source": "golden"}
{"raw": "Holing, 7400, Holing Engpark 1D", "components": {"house_number": "1D", "street": "Holing Engpark", "postcode": "7400", "locality": "Holing"}, "country": "DK", "lat": 56.1535339, "lon": 8.9627883, "source": "golden"}
{"raw": "Grønjordskollegiet 4, 2300 København S", "components": {"house_number": "4", "street": "Grønjordskollegiet", "postcode": "2300", "locality": "København S"}, "country": "DK", "lat": 55.6541034, "lon": 12.5921993, "source": "golden"}
{"raw": "4800 Nykøbing Falster, Raadhusstræde 15", "components": {"house_number": "15", "street": "Raadhusstræde", "postcode": "4800", "locality": "Nykøbing Falster"}, "country": "DK", "lat": 54.7660199, "lon": 11.869628, "source": "golden"}
{"raw": "Rubinsteinsvej 47, 2450 København SV", "components": {"house_number": "47", "street": "Rubinsteinsvej", "postcode": "2450", "locality": "København SV"}, "country": "DK", "lat": 55.646611, "lon": 12.5278411, "source": "golden"}
{"raw": "8600 Virklund, Vesterlundvej 227B", "components": {"house_number": "227B", "street": "Vesterlundvej", "postcode": "8600", "locality": "Virklund"}, "country": "DK", "lat": 56.1262824, "lon": 9.5272879, "source": "golden"}
{"raw": "Stavnsholt, 3520, Egebakken 5", "components": {"house_number": "5", "street": "Egebakken", "postcode": "3520", "locality": "Stavnsholt"}, "country": "DK", "lat": 55.8092785, "lon": 12.3953786, "source": "golden"}
{"raw": "1879 Nørrebro, H.C. Ørsteds Vej 49B", "components": {"house_number": "49B", "street": "H.C. Ørsteds Vej", "postcode": "1879", "locality": "Nørrebro"}, "country": "DK", "lat": 55.6824809, "lon": 12.5498041, "source": "golden"}
{"raw": "Ladegårdshuse, 4000, Trekroner Centervej 79B", "components": {"house_number": "79B", "street": "Trekroner Centervej", "postcode": "4000", "locality": "Ladegårdshuse"}, "country": "DK", "lat": 55.6487356, "lon": 12.1341589, "source": "golden"}
{"raw": "Lyngbakken 3, 3540 Lynge", "components": {"house_number": "3", "street": "Lyngbakken", "postcode": "3540", "locality": "Lynge"}, "country": "DK", "lat": 55.8396215, "lon": 12.2715117, "source": "golden"}
{"raw": "7130 Hjarnø By, Hovedvejen 3", "components": {"house_number": "3", "street": "Hovedvejen", "postcode": "7130", "locality": "Hjarnø By"}, "country": "DK", "lat": 55.8270519, "lon": 10.0705953, "source": "golden"}
{"raw": "Kastanjelunden 31, 5792 Sønder Nærå", "components": {"house_number": "31", "street": "Kastanjelunden", "postcode": "5792", "locality": "Sønder Nærå"}, "country": "DK", "lat": 55.3076782, "lon": 10.4776275, "source": "golden"}
{"raw": "Holbergsgade 17, 1057 Amalienborg", "components": {"house_number": "17", "street": "Holbergsgade", "postcode": "1057", "locality": "Amalienborg"}, "country": "DK", "lat": 55.6785341, "lon": 12.5898865, "source": "golden"}
{"raw": "Frederiksværkvej 132A, 3200 Ramløse", "components": {"house_number": "132A", "street": "Frederiksværkvej", "postcode": "3200", "locality": "Ramløse"}, "country": "DK", "lat": 56.016412, "lon": 12.1114407, "source": "golden"}
{"raw": "Højby, 5260, Nr. Lyndelse Vej 2E", "components": {"house_number": "2E", "street": "Nr. Lyndelse Vej", "postcode": "5260", "locality": "Højby"}, "country": "DK", "lat": 55.3297226, "lon": 10.4297674, "source": "golden"}
{"raw": "Klintehaven 10, 2630 Høje Tåstrup", "components": {"house_number": "10", "street": "Klintehaven", "postcode": "2630", "locality": "Høje Tåstrup"}, "country": "DK", "lat": 55.6393533, "lon": 12.269756, "source": "golden"}
{"raw": "Lærkevej 18, 4600 Ølby Lyng", "components": {"house_number": "18", "street": "Lærkevej", "postcode": "4600", "locality": "Ølby Lyng"}, "country": "DK", "lat": 55.472336, "lon": 12.1801535, "source": "golden"}
{"raw": "Frederiksberg 23, 4470 Løgtved Huse", "components": {"house_number": "23", "street": "Frederiksberg", "postcode": "4470", "locality": "Løgtved Huse"}, "country": "DK", "lat": 55.6549809, "lon": 11.2963477, "source": "golden"}
{"raw": "Lyshøjvej 8, 3250 Bregnerød", "components": {"house_number": "8", "street": "Lyshøjvej", "postcode": "3250", "locality": "Bregnerød"}, "country": "DK", "lat": 56.1137817, "lon": 12.3399934, "source": "golden"}
{"raw": "Østergade 35, 1100 Nyhavn", "components": {"house_number": "35", "street": "Østergade", "postcode": "1100", "locality": "Nyhavn"}, "country": "DK", "lat": 55.6793922, "lon": 12.5820143, "source": "golden"}
{"raw": "Frederiksberg, 1750, Vesterfælledvej 33", "components": {"house_number": "33", "street": "Vesterfælledvej", "postcode": "1750", "locality": "Frederiksberg"}, "country": "DK", "lat": 55.6682621, "lon": 12.5403911, "source": "golden"}
{"raw": "Værløse, 3500, Højeloft Vænge 144", "components": {"house_number": "144", "street": "Højeloft Vænge", "postcode": "3500", "locality": "Værløse"}, "country": "DK", "lat": 55.7898031, "lon": 12.3787819, "source": "golden"}
{"raw": "Aalborg Øst, 9220, Sebbersundvej 2H", "components": {"house_number": "2H", "street": "Sebbersundvej", "postcode": "9220", "locality": "Aalborg Øst"}, "country": "DK", "lat": 57.0284683, "lon": 9.9983171, "source": "golden"}
{"raw": "Kirkepladsen 10, 6950 Ringkøbing", "components": {"house_number": "10", "street": "Kirkepladsen", "postcode": "6950", "locality": "Ringkøbing"}, "country": "DK", "lat": 56.0907717, "lon": 8.245055, "source": "golden"}
{"raw": "Hf. Skovly 32A, 8800 Kirkebæk", "components": {"house_number": "32A", "street": "Hf. Skovly", "postcode": "8800", "locality": "Kirkebæk"}, "country": "DK", "lat": 56.4690559, "lon": 9.36693, "source": "golden"}
{"raw": "4140 Nørre Dalby, Toftevej 4", "components": {"house_number": "4", "street": "Toftevej", "postcode": "4140", "locality": "Nørre Dalby"}, "country": "DK", "lat": 55.480791, "lon": 12.0043884, "source": "golden"}
{"raw": "Studiestræde 67, 1554 Copenhagen", "components": {"house_number": "67", "street": "Studiestræde", "postcode": "1554", "locality": "Copenhagen"}, "country": "DK", "lat": 55.6766253, "lon": 12.564706, "source": "golden"}
{"raw": "Dronningmølle, 3120, Rævebakken 13", "components": {"house_number": "13", "street": "Rævebakken", "postcode": "3120", "locality": "Dronningmølle"}, "country": "DK", "lat": 56.0899845, "lon": 12.378565, "source": "golden"}
{"raw": "Nicolajs Have 7, 9430 Nørhalne", "components": {"house_number": "7", "street": "Nicolajs Have", "postcode": "9430", "locality": "Nørhalne"}, "country": "DK", "lat": 57.1477695, "lon": 9.8828614, "source": "golden"}
{"raw": "Amalienborg, 1256, Amaliegade 10", "components": {"house_number": "10", "street": "Amaliegade", "postcode": "1256", "locality": "Amalienborg"}, "country": "DK", "lat": 55.6823833, "lon": 12.5921556, "source": "golden"}
{"raw": "Viskinge, 4470, Forsingevej 2", "components": {"house_number": "2", "street": "Forsingevej", "postcode": "4470", "locality": "Viskinge"}, "country": "DK", "lat": 55.6636606, "lon": 11.2496707, "source": "golden"}
{"raw": "Kalundborgvej 56, 4593 Bregninge", "components": {"house_number": "56", "street": "Kalundborgvej", "postcode": "4593", "locality": "Bregninge"}, "country": "DK", "lat": 55.6856526, "lon": 11.3131554, "source": "golden"}
{"raw": "Valby, 2500, Gammel Jernbanevej 29", "components": {"house_number": "29", "street": "Gammel Jernbanevej", "postcode": "2500", "locality": "Valby"}, "country": "DK", "lat": 55.664234, "lon": 12.5185586, "source": "golden"}
{"raw": "Brudelyset 25, 8800 Øster Teglgård", "components": {"house_number": "25", "street": "Brudelyset", "postcode": "8800", "locality": "Øster Teglgård"}, "country": "DK", "lat": 56.4289078, "lon": 9.4216947, "source": "golden"}
{"raw": "7830 Djeld, Djeldvej 69A", "components": {"house_number": "69A", "street": "Djeldvej", "postcode": "7830", "locality": "Djeld"}, "country": "DK", "lat": 56.426816, "lon": 8.8490313, "source": "golden"}
{"raw": "Frederiksberg, 1955, Dr. Abildgaards Alle 18", "components": {"house_number": "18", "street": "Dr. Abildgaards Alle", "postcode": "1955", "locality": "Frederiksberg"}, "country": "DK", "lat": 55.6827567, "lon": 12.5391852, "source": "golden"}
{"raw": "Ingrid Marievej 56, 2500 Valby", "components": {"house_number": "56", "street": "Ingrid Marievej", "postcode": "2500", "locality": "Valby"}, "country": "DK", "lat": 55.6560902, "lon": 12.5057952, "source": "golden"}
{"raw": "København Ø, 2100, Bryggervangen 65", "components": {"house_number": "65", "street": "Bryggervangen", "postcode": "2100", "locality": "København Ø"}, "country": "DK", "lat": 55.713354, "lon": 12.5670542, "source": "golden"}
{"raw": "Skrillinge, 5500, Mandal Alle 17B", "components": {"house_number": "17B", "street": "Mandal Alle", "postcode": "5500", "locality": "Skrillinge"},