{"raw": "Skolebakken 110, 8186 Tjongsfjorden", "components": {"house_number": "110", "street": "Skolebakken", "postcode": "8186", "locality": "Tjongsfjorden"}, "country": "NO", "lat": 66.6968612, "lon": 13.4176342, "source": "golden"}
{"raw": "Steinberg, 3053, Støkkeveien 4", "components": {"house_number": "4", "street": "Støkkeveien", "postcode": "3053", "locality": "Steinberg"}, "country": "NO", "lat": 59.7615841, "lon": 9.9585557, "source": "golden"}
{"raw": "2414 Elverum, Gerhard Munthes veg 12", "components": {"house_number": "12", "street": "Gerhard Munthes veg", "postcode": "2414", "locality": "Elverum"}, "country": "NO", "lat": 60.8725718, "lon": 11.5689414, "source": "golden"}
{"raw": "Bygdaveien 331, 9450 Hamnvik", "components": {"house_number": "331", "street": "Bygdaveien", "postcode": "9450", "locality": "Hamnvik"}, "country": "NO", "lat": 68.7993478, "lon": 17.1260817, "source": "golden"}
{"raw": "Baugstrandsvegen 580, 5498 Matre", "components": {"house_number": "580", "street": "Baugstrandsvegen", "postcode": "5498", "locality": "Matre"}, "country": "NO", "lat": 59.7601597, "lon": 6.0061771, "source": "golden"}
{"raw": "Flekkefjord, 4405, Frydenlundveien 1F", "components": {"house_number": "1F", "street": "Frydenlundveien", "postcode": "4405", "locality": "Flekkefjord"}, "country": "NO", "lat": 58.2964248, "lon": 6.6691509, "source": "golden"}
{"raw": "Folkestadvegen 310, 6964 Korssund", "components": {"house_number": "310", "street": "Folkestadvegen", "postcode": "6964", "locality": "Korssund"}, "country": "NO", "lat": 61.254012, "lon": 5.028141, "source": "golden"}
{"raw": "Bersagelveien 405, 4311 Hommersåk", "components": {"house_number": "405", "street": "Bersagelveien", "postcode": "4311", "locality": "Hommersåk"}, "country": "NO", "lat": 58.9424367, "lon": 5.8814224, "source": "golden"}
{"raw": "Baugerudvegen 77, 3677 Notodden", "components": {"house_number": "77", "street": "Baugerudvegen", "postcode": "3677", "locality": "Notodden"}, "country": "NO", "lat": 59.5883574, "lon": 9.0850199, "source": "golden"}
{"raw": "Gurskøy, 6080, Leikongvegen 331", "components": {"house_number": "331", "street": "Leikongvegen", "postcode": "6080", "locality": "Gurskøy"}, "country": "NO", "lat": 62.2508305, "lon": 5.7847513, "source": "golden"}
{"raw": "3570 Ål, Tiurvegen 28", "components": {"house_number": "28", "street": "Tiurvegen", "postcode": "3570", "locality": "Ål"}, "country": "NO", "lat": 60.5549973, "lon": 8.4457805, "source": "golden"}
{"raw": "Ål, 3570, Nordbygdvegen 1027", "components": {"house_number": "1027", "street": "Nordbygdvegen", "postcode": "3570", "locality": "Ål"}, "country": "NO", "lat": 60.7028281, "lon": 8.4737146, "source": "golden"}
{"raw": "Skreddervegen 13, 6320 Isfjorden", "components": {"house_number": "13", "street": "Skreddervegen", "postcode": "6320", "locality": "Isfjorden"}, "country": "NO", "lat": 62.580161, "lon": 7.8036737, "source": "golden"}
{"raw": "Gamle Haugsvei 8, 3340 Åmot", "components": {"house_number": "8", "street": "Gamle Haugsvei", "postcode": "3340", "locality": "Åmot"}, "country": "NO", "lat": 59.9016412, "lon": 9.9047225, "source": "golden"}
{"raw": "9925 Svanvik, Svanvikveien 1814", "components": {"house_number": "1814", "street": "Svanvikveien", "postcode": "9925", "locality": "Svanvik"}, "country": "NO", "lat": 69.5363635, "lon": 30.1052369, "source": "golden"}
{"raw": "Vartdal, 6170, Høgebakken 402", "components": {"house_number": "402", "street": "Høgebakken", "postcode": "6170", "locality": "Vartdal"}, "country": "NO", "lat": 62.2986614, "lon": 6.2254698, "source": "golden"}
{"raw": "Haugesund, 5516, Agatvegen 14", "components": {"house_number": "14", "street": "Agatvegen", "postcode": "5516", "locality": "Haugesund"}, "country": "NO", "lat": 59.4441593, "lon": 5.2718656, "source": "golden"}
{"raw": "Notodden, 3675, Borgermester Dalens gate 1", "components": {"house_number": "1", "street": "Borgermester Dalens gate", "postcode": "3675", "locality": "Notodden"}, "country": "NO", "lat": 59.5715343, "lon": 9.2542955, "source": "golden"}
{"raw": "3675 Notodden, Svelgfossvegen 12", "components": {"house_number": "12", "street": "Svelgfossvegen", "postcode": "3675", "locality": "Notodden"}, "country": "NO", "lat": 59.581572, "lon": 9.2593465, "source": "golden"}
{"raw": "4344 Bryne, Bjørnøyvegen 22", "components": {"house_number": "22", "street": "Bjørnøyvegen", "postcode": "4344", "locality": "Bryne"}, "country": "NO", "lat": 58.7273849, "lon": 5.6575081, "source": "golden"}
{"raw": "Skjervøy, 9180, Havnegata 19", "components": {"house_number": "19", "street": "Havnegata", "postcode": "9180", "locality": "Skjervøy"}, "country": "NO", "lat": 70.0353672, "lon": 20.9792556, "source": "golden"}
{"raw": "5707 Evanger, Harabåsen 5", "components": {"house_number": "5", "street": "Harabåsen", "postcode": "5707", "locality": "Evanger"}, "country": "NO", "lat": 60.6516069, "lon": 6.1103341, "source": "golden"}
{"raw": "Dølemo, 4869, Øvre Ramse 322", "components": {"house_number": "322", "street": "Øvre Ramse", "postcode": "4869", "locality": "Dølemo"}, "country": "NO", "lat": 58.7908663, "lon": 8.2090981, "source": "golden"}
{"raw": "6080 Gurskøy, Djupvikvegen 126", "components": {"house_number": "126", "street": "Djupvikvegen", "postcode": "6080", "locality": "Gurskøy"}, "country": "NO", "lat": 62.2642705, "lon": 5.7944825, "source": "golden"}
{"raw": "1816 Skiptvet, Konvallveien 4", "components": {"house_number": "4", "street": "Konvallveien", "postcode": "1816", "locality": "Skiptvet"}, "country": "NO", "lat": 59.4706608, "lon": 11.1585137, "source": "golden"}
{"raw": "Tranby, 3409, Nygårdskogen 101B", "components": {"house_number": "101B", "street": "Nygårdskogen", "postcode": "3409", "locality": "Tranby"}, "country": "NO", "lat": 59.821959, "lon": 10.2831613, "source": "golden"}
{"raw": "Dalbakken 16, 9584 Sør-Tverrfjord", "components": {"house_number": "16", "street": "Dalbakken", "postcode": "9584", "locality": "Sør-Tverrfjord"}, "country": "NO", "lat": 70.220642, "lon": 21.7099013, "source": "golden"}
{"raw": "Releveien 1, 9601 Hammerfest", "components": {"house_number": "1", "street": "Releveien", "postcode": "9601", "locality": "Hammerfest"}, "country": "NO", "lat": 70.6760817, "lon": 23.6699626, "source": "golden"}
{"raw": "Leka, 7994, Madsøyveien 219", "components": {"house_number": "219", "street": "Madsøyveien", "postcode": "7994", "locality": "Leka"}, "country": "NO", "lat": 65.0611448, "lon": 11.6914585, "source": "golden"}
{"raw": "Ørje, 1870, Vikenveien 333", "components": {"house_number": "333", "street": "Vikenveien", "postcode": "1870", "locality": "Ørje"}, "country": "NO", "lat": 59.3771536, "lon": 11.7222939, "source": "golden"}
{"raw": "Moss, 1597, Vålerveien 89", "components": {"house_number": "89", "street": "Vålerveien", "postcode": "1597", "locality": "Moss"}, "country": "NO", "lat": 59.4350168, "lon": 10.687599, "source": "golden"}
{"raw": "Stordal, 6250, Dyrdalsvegen 66", "components": {"house_number": "66", "street": "Dyrdalsvegen", "postcode": "6250", "locality": "Stordal"}, "country": "NO", "lat": 62.4269071, "lon": 7.2328799, "source": "golden"}
{"raw": "2123 Bruvoll, Trautfeltet 8", "components": {"house_number": "8", "street": "Trautfeltet", "postcode": "2123", "locality": "Bruvoll"}, "country": "NO", "lat": 60.4515914, "lon": 11.4558233, "source": "golden"}
{"raw": "2552 Dalsbygda, Gamle Langsvei 40", "components": {"house_number": "40", "street": "Gamle Langsvei", "postcode": "2552", "locality": "Dalsbygda"}, "country": "NO", "lat": 62.5128909, "lon": 11.0209154, "source": "golden"}
{"raw": "Riseveien 331, 4820 Froland", "components": {"house_number": "331", "street": "Riseveien", "postcode": "4820", "locality": "Froland"}, "country": "NO", "lat": 58.4653348, "lon": 8.6351062, "source": "golden"}
{"raw": "9690 Havøysund, Strandgata 256", "components": {"house_number": "256", "street": "Strandgata", "postcode": "9690", "locality": "Havøysund"}, "country": "NO", "lat": 70.9953737, "lon": 24.6364545, "source": "golden"}
{"raw": "Etnedal, 2890, Bakkebygde 351", "components": {"house_number": "351", "street": "Bakkebygde", "postcode": "2890", "locality": "Etnedal"}, "country": "NO", "lat": 61.0275061, "lon": 9.686707, "source": "golden"}
{"raw": "5943 Austrheim, Bergsvikmarka 17", "components": {"house_number": "17", "street": "Bergsvikmarka", "postcode": "5943", "locality": "Austrheim"}, "country": "NO", "lat": 60.7604466, "lon": 4.9007772, "source": "golden"}
{"raw": "1929 Auli, Tårnvegen 13", "components": {"house_number": "13", "street": "Tårnvegen", "postcode": "1929", "locality": "Auli"}, "country": "NO", "lat": 60.0282251, "lon": 11.3610042, "source": "golden"}
{"raw": "2430 Jordet, Fjellverden Øst 222", "components": {"house_number": "222", "street": "Fjellverden Øst", "postcode": "2430", "locality": "Jordet"}, "country": "NO", "lat": 61.4815051, "lon": 11.957327, "source": "golden"}
{"raw": "6060 Hareid, Reina 58", "components": {"house_number": "58", "street": "Reina", "postcode": "6060", "locality": "Hareid"}, "country": "NO", "lat": 62.3781013, "lon": 6.0318394, "source": "golden"}
{"raw": "Borre, 3184, Raveien 223B", "components": {"house_number": "223B", "street": "Raveien", "postcode": "3184", "locality": "Borre"}, "country": "NO", "lat": 59.366465, "lon": 10.4412856, "source": "golden"}
{"raw": "Røsvik, 8220, Færøya 4", "components": {"house_number": "4", "street": "Færøya", "postcode": "8220", "locality": "Røsvik"}, "country": "NO", "lat": 67.4909308, "lon": 15.2702501, "source": "golden"}
{"raw": "8190 Sørfjorden, Sætervikveien 96", "components": {"house_number": "96", "street": "Sætervikveien", "postcode": "8190", "locality": "Sørfjorden"}, "country": "NO", "lat": 66.5216095, "lon": 13.2692751, "source": "golden"}
{"raw": "7770 Flatanger, Kvaløyseterveien 30", "components": {"house_number": "30", "street": "Kvaløyseterveien", "postcode": "7770", "locality": "Flatanger"}, "country": "NO", "lat": 64.45434, "lon": 10.7537379, "source": "golden"}
{"raw": "Rønninggrenda 54, 3760 Neslandsvatn", "components": {"house_number": "54", "street": "Rønninggrenda", "postcode": "3760", "locality": "Neslandsvatn"}, "country": "NO", "lat": 58.9223033, "lon": 9.1485717, "source": "golden"}
{"raw": "Beitostølen, 2953, Bjødnabakkgoto 5", "components": {"house_number": "5", "street": "Bjødnabakkgoto", "postcode": "2953", "locality": "Beitostølen"}, "country": "NO", "lat": 61.2513138, "lon": 8.8936038, "source": "golden"}
{"raw": "Lauvvegen 7, 3801 Bø I Telemark", "components": {"house_number": "7", "street": "Lauvvegen", "postcode": "3801", "locality": "Bø I Telemark"}, "country": "NO", "lat": 59.4064005, "lon": 9.0784516, "source": "golden"}
{"raw": "Sandgata 4A, 8006 Bodø", "components": {"house_number": "4A", "street": "Sandgata", "postcode": "8006", "locality": "Bodø"}, "country": "NO", "lat": 67.2829273, "lon": 14.3766687, "source": "golden"}
{"raw": "Aursbråtenveien 10, 1930 Aurskog", "components": {"house_number": "10", "street": "Aursbråtenveien", "postcode": "1930", "locality": "Aurskog"}, "country": "NO", "lat": 59.9224637, "lon": 11.4336945, "source": "golden"}
{"raw": "Båtsfjord, 9990, Myrvegen 9", "components": {"house_number": "9", "street": "Myrvegen", "postcode": "9990", "locality": "Båtsfjord"}, "country": "NO", "lat": 70.627299, "lon": 29.7132393, "source": "golden"}
{"raw": "Flemma, 6637, Liavegen 10", "components": {"house_number": "10", "street": "Liavegen", "postcode": "6637", "locality": "Flemma"}, "country": "NO", "lat": 62.8888352, "lon": 7.968363, "source": "golden"}
{"raw": "Torvikvegen 27, 6095 Bølandet", "components": {"house_number": "27", "street": "Torvikvegen", "postcode": "6095", "locality": "Bølandet"}, "country": "NO", "lat": 62.332262, "lon": 5.7098731, "source": "golden"}
{"raw": "9595 Sørvær, Kapellveien 3", "components": {"house_number": "3", "street": "Kapellveien", "postcode": "9595", "locality": "Sørvær"}, "country": "NO", "lat": 70.6288963, "lon": 21.9804641, "source": "golden"}
{"raw": "Snarveien 11, 4870 Fevik", "components": {"house_number": "11", "street": "Snarveien", "postcode": "4870", "locality": "Fevik"}, "country": "NO", "lat": 58.3824916, "lon": 8.702022, "source": "golden"}
{"raw": "Gjøvik, 2821, Svolders gate 4", "components": {"house_number": "4", "street": "Svolders gate", "postcode": "2821", "locality": "Gjøvik"}, "country": "NO", "lat": 60.7987523, "lon": 10.6864205, "source": "golden"}
{"raw": "Hidrasund, 4432, Vallåsbakken 26", "components": {"house_number": "26", "street": "Vallåsbakken", "postcode": "4432", "locality": "Hidrasund"}, "country": "NO", "lat": 58.2340037, "lon": 6.5357591, "source": "golden"}
{"raw": "4044 Hafrsfjord, Granneskleiva 9", "components": {"house_number": "9", "street": "Granneskleiva", "postcode": "4044", "locality": "Hafrsfjord"}, "country": "NO", "lat": 58.9358877, "lon": 5.6875136, "source": "golden"}
{"raw": "2695 Grotli, Kjerringhøvegen 20", "components": {"house_number": "20", "street": "Kjerringhøvegen", "postcode": "2695", "locality": "Grotli"}, "country": "NO", "lat": 62.0164411, "lon": 7.6263263, "source": "golden"}
{"raw": "Kviholen 28B, 4365 Nærbø", "components": {"house_number": "28B", "street": "Kviholen", "postcode": "4365", "locality": "Nærbø"}, "country": "NO", "lat": 58.6609655, "lon": 5.6534674, "source": "golden"}
{"raw": "Bjørkheim 26, 5652 Årland", "components": {"house_number": "26", "street": "Bjørkheim", "postcode": "5652", "locality": "Årland"}, "country": "NO", "lat": 60.4012529, "lon": 5.7314719, "source": "golden"}
{"raw": "Engersand Havn 14, 3427 Gullaug", "components": {"house_number": "14", "street": "Engersand Havn", "postcode": "3427", "locality": "Gullaug"}, "country": "NO", "lat": 59.731137, "lon": 10.3040428, "source": "golden"}
{"raw": "Brekstad, 7130, Yrjars gate 1", "components": {"house_number": "1", "street": "Yrjars gate", "postcode": "7130", "locality": "Brekstad"}, "country": "NO", "lat": 63.6873144, "lon": 9.665786, "source": "golden"}
{"raw": "Nedre Pentagonvei 18, 1430 Ås", "components": {"house_number": "18", "street": "Nedre Pentagonvei", "postcode": "1430", "locality": "Ås"}, "country": "NO", "lat": 59.6612253, "lon": 10.7690707, "source": "golden"}
{"raw": "Sogndal, 6856, Klippavegen 21", "components": {"house_number": "21", "street": "Klippavegen", "postcode": "6856", "locality": "Sogndal"}, "country": "NO", "lat": 61.2345768, "lon": 7.1120061, "source": "golden"}
{"raw": "Hamarøy, 8294, Buvågveien 520", "components": {"house_number": "520", "street": "Buvågveien", "postcode": "8294", "locality": "Hamarøy"}, "country": "NO", "lat": 68.1365695, "lon": 15.4602488, "source": "golden"}
{"raw": "Caspar Erlandsens vei 30, 1543 Vestby", "components": {"house_number": "30", "street": "Caspar Erlandsens vei", "postcode": "1543", "locality": "Vestby"}, "country": "NO", "lat": 59.60792, "lon": 10.7462229, "source": "golden"}
{"raw": "Bukkeneset 120, 1870 Ørje", "components": {"house_number": "120", "street": "Bukkeneset", "postcode": "1870", "locality": "Ørje"}, "country": "NO", "lat": 59.3937352, "lon": 11.6597238, "source": "golden"}
{"raw": "9672 Ingøy, Mafjordhamn 1/113", "components": {"house_number": "1/113", "street": "Mafjordhamn", "postcode": "9672", "locality": "Ingøy"}, "country": "NO", "lat": 71.0576874, "lon": 24.0477592, "source": "golden"}
{"raw": "Torhaugen 23, 7630 Åsen", "components": {"house_number": "23", "street": "Torhaugen", "postcode": "7630", "locality": "Åsen"}, "country": "NO", "lat": 63.6093457, "lon": 11.0594533, "source": "golden"}
{"raw": "Sageelvvegen 2, 6995 Kyrkjebø", "components": {"house_number": "2", "street": "Sageelvvegen", "postcode": "6995", "locality": "Kyrkjebø"}, "country": "NO", "lat": 61.1635003, "lon": 5.9005038, "source": "golden"}
{"raw": "6363 Mittet, Dalevegen 133", "components": {"house_number": "133", "street": "Dalevegen", "postcode": "6363", "locality": "Mittet"}, "country": "NO", "lat": 62.6925677, "lon": 7.7141377, "source": "golden"}
{"raw": "2093 Feiring, Svenbyvegen 88", "components": {"house_number": "88", "street": "Svenbyvegen", "postcode": "2093", "locality": "Feiring"}, "country": "NO", "lat": 60.4767279, "lon": 11.1472481, "source": "golden"}
{"raw": "Dravlanvegen 267, 7760 Snåsa", "components": {"house_number": "267", "street": "Dravlanvegen", "postcode": "7760", "locality": "Snåsa"}, "country": "NO", "lat": 64.2754748, "lon": 12.4250274, "source": "golden"}
{"raw": "6230 Sykkylven, Grebstadvegen 26", "components": {"house_number": "26", "street": "Grebstadvegen", "postcode": "6230", "locality": "Sykkylven"}, "country": "NO", "lat": 62.4016827, "lon": 6.5864049, "source": "golden"}
{"raw": "Gjerdrum, 2022, Åmotshagan 24", "components": {"house_number": "24", "street": "Åmotshagan", "postcode": "2022", "locality": "Gjerdrum"}, "country": "NO", "lat": 60.0836124, "lon": 11.0003703, "source": "golden"}
{"raw": "Røst, 8064, Skomværsveien 1", "components": {"house_number": "1", "street": "Skomværsveien", "postcode": "8064", "locality": "Røst"}, "country": "NO", "lat": 67.5225383, "lon": 12.1177915, "source": "golden"}
{"raw": "Anleggsvegen 172, 2647 Sør-Fron", "components": {"house_number": "172", "street": "Anleggsvegen", "postcode": "2647", "locality": "Sør-Fron"}, "country": "NO", "lat": 61.5785004, "lon": 9.8227736, "source": "golden"}
{"raw": "Liaveien 33, 9402 Harstad", "components": {"house_number": "33", "street": "Liaveien", "postcode": "9402", "locality": "Harstad"}, "country": "NO", "lat": 68.8246636, "lon": 16.4444755, "source": "golden"}
{"raw": "Rødberg, 3630, Nuten 175", "components": {"house_number": "175", "street": "Nuten", "postcode": "3630", "locality": "Rødberg"}, "country": "NO", "lat": 60.3920397, "lon": 8.8427097, "source": "golden"}
{"raw": "Borgund, 6888, Lo 15", "components": {"house_number": "15", "street": "Lo", "postcode": "6888", "locality": "Borgund"}, "country": "NO", "lat": 61.0572597, "lon": 7.8162207, "source": "golden"}
{"raw": "Årstadfjellveien 7, 4370 Egersund", "components": {"house_number": "7", "street": "Årstadfjellveien", "postcode": "4370", "locality": "Egersund"}, "country": "NO", "lat": 58.4509047, "lon": 6.0105443, "source": "golden"}
{"raw": "9950 Vardø, Rømoveien 43", "components": {"house_number": "43", "street": "Rømoveien", "postcode": "9950", "locality": "Vardø"}, "country": "NO", "lat": 70.3721238, "lon": 31.1193752, "source": "golden"}
{"raw": "Frøsetåsen 22, 7290 Støren", "components": {"house_number": "22", "street": "Frøsetåsen", "postcode": "7290", "locality": "Støren"}, "country": "NO", "lat": 63.037211, "lon": 10.3027843, "source": "golden"}
{"raw": "8450 Stokmarknes, Yttersida 437", "components": {"house_number": "437", "street": "Yttersida", "postcode": "8450", "locality": "Stokmarknes"}, "country": "NO", "lat": 68.5777957, "lon": 14.7178612, "source": "golden"}
{"raw": "Østre Gausdal, 2651, Slettmoen 2", "components": {"house_number": "2", "street": "Slettmoen", "postcode": "2651", "locality": "Østre Gausdal"}, "country": "NO", "lat": 61.2254469, "lon": 10.2184537, "source": "golden"}
{"raw": "Siljan, 3748, Holtevegen 9", "components": {"house_number": "9", "street": "Holtevegen", "postcode": "3748", "locality": "Siljan"}, "country": "NO", "lat": 59.2785163, "lon": 9.702295, "source": "golden"}
{"raw": "Sandnes, 4319, Bjørnstjerne Bjørnsons gate 8A", "components": {"house_number": "8A", "street": "Bjørnstjerne Bjørnsons gate", "postcode": "4319", "locality": "Sandnes"}, "country": "NO", "lat": 58.8518405, "lon": 5.7243956, "source": "golden"}
{"raw": "6905 Florø, Storåsvegen 1", "components": {"house_number": "1", "street": "Storåsvegen", "postcode": "6905", "locality": "Florø"}, "country": "NO", "lat": 61.5978561, "lon": 5.0163775, "source": "golden"}
{"raw": "Enghavgata 11, 4950 Risør", "components": {"house_number": "11", "street": "Enghavgata", "postcode": "4950", "locality": "Risør"}, "country": "NO", "lat": 58.7184915, "lon": 9.2377915, "source": "golden"}
{"raw": "4730 Vatnestrøm, Vatnestrømveien 120", "components": {"house_number": "120", "street": "Vatnestrømveien", "postcode": "4730", "locality": "Vatnestrøm"}, "country": "NO", "lat": 58.4293646, "lon": 8.079739, "source": "golden"}
{"raw": "2420 Trysil, Hotellvegen 1", "components": {"house_number": "1", "street": "Hotellvegen", "postcode": "2420", "locality": "Trysil"}, "country": "NO", "lat": 61.3077487, "lon": 12.2442972, "source": "golden"}
{"raw": "Steinsoppfaret 59, 4824 Bjorbekk", "components": {"house_number": "59", "street": "Steinsoppfaret", "postcode": "4824", "locality": "Bjorbekk"}, "country": "NO", "lat": 58.44201, "lon": 8.7100959, "source": "golden"}
{"raw": "9389 Husøy I Senja, Oskarbakken 22", "components": {"house_number": "22", "street": "Oskarbakken", "postcode": "9389", "locality": "Husøy I Senja"}, "country": "NO", "lat": 69.5410026, "lon": 17.6649308, "source": "golden"}
{"raw": "7982 Bindalseidet, Holmsveien 1197", "components": {"house_number": "1197", "street": "Holmsveien", "postcode": "7982", "locality": "Bindalseidet"}, "country": "NO", "lat": 65.1262056, "lon": 12.1421193, "source": "golden"}
{"raw": "Gurskedalen 49, 6082 Gursken", "components": {"house_number": "49", "street": "Gurskedalen", "postcode": "6082", "locality": "Gursken"}, "country": "NO", "lat": 62.221827, "lon": 5.7081501, "source": "golden"}
{"raw": "Austbøveien 44, 8854 Austbø", "components": {"house_number": "44", "street": "Austbøveien", "postcode": "8854", "locality": "Austbø"}, "country": "NO", "lat": 65.9313664, "lon": 12.3578186, "source": "golden"}
{"raw": "Skytterbråtveien 33A, 1738 Borgenhaugen", "components": {"house_number": "33A", "street": "Skytterbråtveien", "postcode": "1738", "locality": "Borgenhaugen"}, "country": "NO", "lat": 59.2598524, "lon": 11.1259144, "source": "golden"}
{"raw": "Etne, 5590, Litledalsvegen 260", "components": {"house_number": "260", "street": "Litledalsvegen", "postcode": "5590", "locality": "Etne"}, "country": "NO", "lat": 59.6534302, "lon": 6.0114037, "source": "golden"}
{"raw": "8226 Straumen, Slettliveien 10", "components": {"house_number": "10", "street": "Slettliveien", "postcode": "8226", "locality": "Straumen"}, "country": "NO", "lat": 67.350599, "lon": 15.6039355, "source": "golden"}
{"raw": "Storvannsveien 1, 9690 Havøysund", "components": {"house_number": "1", "street": "Storvannsveien", "postcode": "9690", "locality": "Havøysund"}, "country": "NO", "lat": 70.9972711, "lon": 24.654942, "source": "golden"}
{"raw": "Skibvika 20, 4912 Gjeving", "components": {"house_number": "20", "street": "Skibvika", "postcode": "4912", "locality": "Gjeving"}, "country": "NO", "lat": 58.6379144, "lon": 9.0995619, "source": "golden"}
{"raw": "4950 Risør, Tangengata 22", "components": {"house_number": "22", "street": "Tangengata", "postcode": "4950", "locality": "Risør"}, "country": "NO", "lat": 58.7179587, "lon": 9.2393935, "source": "golden"}
{"raw": "3536 Noresund, Krøderfjordveien 1691", "components": {"house_number": "1691", "street": "Krøderfjordveien", "postcode": "3536", "locality": "Noresund"}, "country": "NO", "lat": 60.1811189, "lon": 9.6240673, "source": "golden"}
{"raw": "Litjsten 17, 7232 Lundamo", "components": {"house_number": "17", "street": "Litjsten", "postcode": "7232", "locality": "Lundamo"}, "country": "NO", "lat": 63.1511156, "lon": 10.297043, "source": "golden"}
{"raw": "Rognan, 8252, Havervatnet 1", "components": {"house_number": "1", "street": "Havervatnet", "postcode": "8252", "locality": "Rognan"}, "country": "NO", "lat": 67.0604646, "lon": 15.267404, "source": "golden"}
{"raw": "Vestbygda, 8412, Lofotvegen 101", "components": {"house_number": "101", "street": "Lofotvegen", "postcode": "8412", "locality": "Vestbygda"}, "country": "NO", "lat": 68.4672588, "lon": 15.4556146, "source": "golden"}
{"raw": "Skarvliveien 25, 2480 Koppang", "components": {"house_number": "25", "street": "Skarvliveien", "postcode": "2480", "locality": "Koppang"}, "country": "NO", "lat": 61.3460749, "lon": 11.0082259, "source": "golden"}
{"raw": "Flemma, 6637, Solbakken 7", "components": {"house_number": "7", "street": "Solbakken", "postcode": "6637", "locality": "Flemma"}, "country": "NO", "lat": 62.9358824, "lon": 8.068147, "source": "golden"}
{"raw": "Sørreisa, 9310, Hestodden 42", "components": {"house_number": "42", "street": "Hestodden", "postcode": "9310", "locality": "Sørreisa"}, "country": "NO", "lat": 69.0931349, "lon": 18.3230817, "source": "golden"}
{"raw": "Spillum, 7820, Digernesvegen 19B", "components": {"house_number": "19B", "street": "Digernesvegen", "postcode": "7820", "locality": "Spillum"}, "country": "NO", "lat": 64.4420944, "lon": 11.5034736, "source": "golden"}
{"raw": "Legene 19, 6084 Larsnes", "components": {"house_number": "19", "street": "Legene", "postcode": "6084", "locality": "Larsnes"}, "country": "NO", "lat": 62.2165059, "lon": 5.570244, "source": "golden"}
{"raw": "Rantiveien 3A, 9700 Lakselv", "components": {"house_number": "3A", "street": "Rantiveien", "postcode": "9700", "locality": "Lakselv"}, "country": "NO", "lat": 70.0625727, "lon": 24.9436814, "source": "golden"}
{"raw": "Roan, 7180, Eianshaugen 17", "components": {"house_number": "17", "street": "Eianshaugen", "postcode": "7180", "locality": "Roan"}, "country": "NO", "lat": 64.1924388, "lon": 10.1974728, "source": "golden"}
{"raw": "5550 Sveio, Gjermundshaugen 17", "components": {"house_number": "17", "street": "Gjermundshaugen", "postcode": "5550", "locality": "Sveio"}, "country": "NO", "lat": 59.5417071, "lon": 5.3415623, "source": "golden"}
{"raw": "Nordberg solside 155, 2690 Skjåk", "components": {"house_number": "155", "street": "Nordberg solside", "postcode": "2690", "locality": "Skjåk"}, "country": "NO", "lat": 61.8976782, "lon": 8.229351, "source": "golden"}
{"raw": "7580 Selbu, Storrvegen 33", "components": {"house_number": "33", "street": "Storrvegen", "postcode": "7580", "locality": "Selbu"}, "country": "NO", "lat": 63.1482521, "lon": 10.8773996, "source": "golden"}
{"raw": "6030 Langevåg, Fyllingvegen 61B", "components": {"house_number": "61B", "street": "Fyllingvegen", "postcode": "6030", "locality": "Langevåg"}, "country": "NO", "lat": 62.4429878, "lon": 6.1946046, "source": "golden"}
{"raw": "Larsstøveien 2, 8742 Selvær", "components": {"house_number": "2", "street": "Larsstøveien", "postcode": "8742", "locality": "Selvær"}, "country": "NO", "lat": 66.5856697, "lon": 12.2286744, "source": "golden"}
{"raw": "Tollådalsveien 1188, 8114 Tollå", "components": {"house_number": "1188", "street": "Tollådalsveien", "postcode": "8114", "locality": "Tollå"}, "country": "NO", "lat": 66.8797916, "lon": 14.9394992, "source": "golden"}
{"raw": "4985 Vegårshei, Nesstøveien 62", "components": {"house_number": "62", "street": "Nesstøveien", "postcode": "4985", "locality": "Vegårshei"}, "country": "NO", "lat": 58.7860235, "lon": 8.8332247, "source": "golden"}
{"raw": "2415 Heradsbygd, Solørvegen 946", "components": {"house_number": "946", "street": "Solørvegen", "postcode": "2415", "locality": "Heradsbygd"}, "country": "NO", "lat": 60.818414, "lon": 11.6493936, "source": "golden"}
{"raw": "1870 Ørje, Kongsbakkveien 152", "components": {"house_number": "152", "street": "Kongsbakkveien", "postcode": "1870", "locality": "Ørje"}, "country": "NO", "lat": 59.5859469, "lon": 11.5441818, "source": "golden"}
{"raw": "Lars Skrefsruds gate 8, 2615 Lillehammer", "components": {"house_number": "8", "street": "Lars Skrefsruds gate", "postcode": "2615", "locality": "Lillehammer"}, "country": "NO", "lat": 61.1188106, "lon": 10.466019, "source": "golden"}
{"raw": "Elvenes 100, 9350 Sjøvegan", "components": {"house_number": "100", "street": "Elvenes", "postcode": "9350", "locality": "Sjøvegan"}, "country": "NO", "lat": 68.8708839, "lon": 17.9886705, "source": "golden"}
{"raw": "2322 Ridabu, Øvre 22", "components": {"house_number": "22", "street": "Øvre", "postcode": "2322", "locality": "Ridabu"}, "country": "NO", "lat": 60.8066836, "lon": 11.1209128, "source": "golden"}
{"raw": "2500 Tynset, Ringveien 39", "components": {"house_number": "39", "street": "Ringveien", "postcode": "2500", "locality": "Tynset"}, "country": "NO", "lat": 62.2727619, "lon": 10.7744853, "source": "golden"}
{"raw": "Vegårshei, 4985, Løvikveien 24", "components": {"house_number": "24", "street": "Løvikveien", "postcode": "4985", "locality": "Vegårshei"}, "country": "NO", "lat": 58.7990263, "lon": 8.8004731, "source": "golden"}
{"raw": "Rennebu, 7393, Ånegga 126", "components": {"house_number": "126", "street": "Ånegga", "postcode": "7393", "locality": "Rennebu"}, "country": "NO", "lat": 62.832854, "lon": 9.6736387, "source": "golden"}
{"raw": "3060 Svelvik, Herman Nygårds vei 16", "components": {"house_number": "16", "street": "Herman Nygårds vei", "postcode": "3060", "locality": "Svelvik"}, "country": "NO", "lat": 59.6866955, "lon": 10.3454712, "source": "golden"}
{"raw": "1870 Ørje, Sletta 78", "components": {"house_number": "78", "street": "Sletta", "postcode": "1870", "locality": "Ørje"}, "country": "NO", "lat": 59.4856941, "lon": 11.6840056, "source": "golden"}
{"raw": "Voss, 5706, Kolvesvegen 143", "components": {"house_number": "143", "street": "Kolvesvegen", "postcode": "5706", "locality": "Voss"}, "country": "NO", "lat": 60.6818295, "lon": 6.6081203, "source": "golden"}
{"raw": "Rendalen, 2484, Finstad Østside 16", "components": {"house_number": "16", "street": "Finstad Østside", "postcode": "2484", "locality": "Rendalen"}, "country": "NO", "lat": 62.1058329, "lon": 11.0475859, "source": "golden"}
{"raw": "6894 Vangsnes, Bygdavegen 221", "components": {"house_number": "221", "street": "Bygdavegen", "postcode": "6894", "locality": "Vangsnes"}, "country": "NO", "lat": 61.1737001, "lon": 6.6387013, "source": "golden"}
{"raw": "Breiveheii 24, 4755 Hovden I Setesdal", "components": {"house_number": "24", "street": "Breiveheii", "postcode": "4755", "locality": "Hovden I Setesdal"}, "country": "NO", "lat": 59.5970503, "lon": 7.2241239, "source": "golden"}
{"raw": "Storhaugtunet 10, 5419 Fitjar", "components": {"house_number": "10", "street": "Storhaugtunet", "postcode": "5419", "locality": "Fitjar"}, "country": "NO", "lat": 59.9264057, "lon": 5.3227642, "source": "golden"}
{"raw": "8392 Sørvågen, Musdalen 6", "components": {"house_number": "6", "street": "Musdalen", "postcode": "8392", "locality": "Sørvågen"}, "country": "NO", "lat": 67.8817033, "lon": 12.9766677, "source": "golden"}
{"raw": "Halden, 1771, Rødsbakken 5", "components": {"house_number": "5", "street": "Rødsbakken", "postcode": "1771", "locality": "Halden"}, "country": "NO", "lat": 59.1216944, "lon": 11.3722035, "source": "golden"}
{"raw": "Årland, 5652, Mosatjørna 14", "components": {"house_number": "14", "street": "Mosatjørna", "postcode": "5652", "locality": "Årland"}, "country": "NO", "lat": 60.3931993, "lon": 5.6499028, "source": "golden"}
{"raw": "9334 Øverbygd, Kongsliveien 1067", "components": {"house_number": "1067", "street": "Kongsliveien", "postcode": "9334", "locality": "Øverbygd"}, "country": "NO", "lat": 68.9962932, "lon": 19.6713097, "source": "golden"}
{"raw": "Overhalla, 7863, Himovatnet 3", "components": {"house_number": "3", "street": "Himovatnet", "postcode": "7863", "locality": "Overhalla"}, "country": "NO", "lat": 64.5616498, "lon": 11.9505424, "source": "golden"}
{"raw": "Nedre Vangsgrendvegen 11, 7670 Inderøy", "components": {"house_number": "11", "street": "Nedre Vangsgrendvegen", "postcode": "7670", "locality": "Inderøy"}, "country": "NO", "lat": 63.8496498, "lon": 11.0922005, "source": "golden"}
{"raw": "8685 Trofors, Strandlivegen 30", "components": {"house_number": "30", "street": "Strandlivegen", "postcode": "8685", "locality": "Trofors"}, "country": "NO", "lat": 65.3791986, "lon": 13.6114066, "source": "golden"}
{"raw": "Lomen, 2967, Johmsvegen 86", "components": {"house_number": "86", "street": "Johmsvegen", "postcode": "2967", "locality": "Lomen"}, "country": "NO", "lat": 61.1023211, "lon": 8.9257615, "source": "golden"}
{"raw": "Laukrokveien 469, 4595 Tingvatn", "components": {"house_number": "469", "street": "Laukrokveien", "postcode": "4595", "locality": "Tingvatn"}, "country": "NO", "lat": 58.406955, "lon": 7.1870255, "source": "golden"}
{"raw": "Nordstranda 135, 6143 Fiskå", "components": {"house_number": "135", "street": "Nordstranda", "postcode": "6143", "locality": "Fiskå"}, "country": "NO", "lat": 62.1029268, "lon": 5.4943595, "source": "golden"}
{"raw": "Ytrøyvegen 88, 6927 Ytrøygrend", "components": {"house_number": "88", "street": "Ytrøyvegen", "postcode": "6927", "locality": "Ytrøygrend"}, "country": "NO", "lat": 61.0791414, "lon": 4.6835765, "source": "golden"}
{"raw": "8860 Tjøtta, Torvskarvegen 9", "components": {"house_number": "9", "street": "Torvskarvegen", "postcode": "8860", "locality": "Tjøtta"}, "country": "NO", "lat": 65.8224004, "lon": 12.4163242, "source": "golden"}
{"raw": "2760 Brandbu, Rækstadmoen 6", "components": {"house_number": "6", "street": "Rækstadmoen", "postcode": "2760", "locality": "Brandbu"}, "country": "NO", "lat": 60.3901163, "lon": 10.4499061, "source": "golden"}
{"raw": "Porsgrunn, 3924, Hesteskoen 10", "components": {"house_number": "10", "street": "Hesteskoen", "postcode": "3924", "locality": "Porsgrunn"}, "country": "NO", "lat": 59.1210847, "lon": 9.658639, "source": "golden"}
{"raw": "2450 Rena, Gamle Desetveien 4", "components": {"house_number": "4", "street": "Gamle Desetveien", "postcode": "2450", "locality": "Rena"}, "country": "NO", "lat": 61.2958294, "lon": 11.4624799, "source": "golden"}
{"raw": "Røbuknappen hytteområde 27, 2428 Søre Osen", "components": {"house_number": "27", "street": "Røbuknappen hytteområde", "postcode": "2428", "locality": "Søre Osen"}, "country": "NO", "lat": 61.1656805, "lon": 11.9278297, "source": "golden"}
{"raw": "Brøstadbotn, 9311, Brøstadveien 568", "components": {"house_number": "568", "street": "Brøstadveien", "postcode": "9311", "locality": "Brøstadbotn"}, "country": "NO", "lat": 69.0537034, "lon": 17.6192707, "source": "golden"}
{"raw": "Toppelbuktveien 197, 9162 Sørstraumen", "components": {"house_number": "197", "street": "Toppelbuktveien", "postcode": "9162", "locality": "Sørstraumen"}, "country": "NO", "lat": 69.7363847, "lon": 22.0048006, "source": "golden"}
{"raw": "Reinli, 2933, Stavadalsvegen 150", "components": {"house_number": "150", "street": "Stavadalsvegen", "postcode": "2933", "locality": "Reinli"}, "country": "NO", "lat": 60.8316165, "lon": 9.4333497, "source": "golden"}
{"raw": "4208 Saudasjøen, Sellandsvegen 86", "components": {"house_number": "86", "street": "Sellandsvegen", "postcode": "4208", "locality": "Saudasjøen"}, "country": "NO", "lat": 59.5148239, "lon": 6.1925546, "source": "golden"}
{"raw": "Hamnevegen 34, 5200 Os", "components": {"house_number": "34", "street": "Hamnevegen", "postcode": "5200", "locality": "Os"}, "country": "NO", "lat": 60.1842373, "lon": 5.4741758, "source": "golden"}
{"raw": "Åsenveien 726, 7884 Sørli", "components": {"house_number": "726", "street": "Åsenveien", "postcode": "7884", "locality": "Sørli"}, "country": "NO", "lat": 64.334312, "lon": 13.6110596, "source": "golden"}
{"raw": "7863 Overhalla, Vestervatnet 15", "components": {"house_number": "15", "street": "Vestervatnet", "postcode": "7863", "locality": "Overhalla"}, "country": "NO", "lat": 64.5553877, "lon": 11.9016827, "source": "golden"}
{"raw": "Etne, 5590, Haukelivegen 1133", "components": {"house_number": "1133", "street": "Haukelivegen", "postcode": "5590", "locality": "Etne"}, "country": "NO", "lat": 59.6965891, "lon": 6.0367823, "source": "golden"}
{"raw": "2260 Kirkenær, Snorres veg 14", "components": {"house_number": "14", "street": "Snorres veg", "postcode": "2260", "locality": "Kirkenær"}, "country": "NO", "lat": 60.4621357, "lon": 12.0602447, "source": "golden"}
{"raw": "Vestnes, 6390, Buktavegen 45", "components": {"house_number": "45", "street": "Buktavegen", "postcode": "6390", "locality": "Vestnes"}, "country": "NO", "lat": 62.634994, "lon": 7.0766415, "source": "golden"}
{"raw": "2480 Koppang, Skarvliveien 11", "components": {"house_number": "11", "street": "Skarvliveien", "postcode": "2480", "locality": "Koppang"}, "country": "NO", "lat": 61.3476857, "lon": 11.0092228, "source": "golden"}
{"raw": "4842 Arendal, Songe terrasse 45", "components": {"house_number": "45", "street": "Songe terrasse", "postcode": "4842", "locality": "Arendal"}, "country": "NO", "lat": 58.4762272, "lon": 8.8020655, "source": "golden"}
{"raw": "Duken, 3133, Masløveien 20", "components": {"house_number": "20", "street": "Masløveien", "postcode": "3133", "locality": "Duken"}, "country": "NO", "lat": 59.219048, "lon": 10.4512453, "source": "golden"}
{"raw": "Selnesveien 46, 8735 Stokkvågen", "components": {"house_number": "46", "street": "Selnesveien", "postcode": "8735", "locality": "Stokkvågen"}, "country": "NO", "lat": 66.3282985, "lon": 13.0219139, "source": "golden"}
{"raw": "Haverneset 6, 7580 Selbu", "components": {"house_number": "6", "street": "Haverneset", "postcode": "7580", "locality": "Selbu"}, "country": "NO", "lat": 63.2314544, "lon": 11.0318462, "source": "golden"}
{"raw": "Risøyhamn, 8484, Nupveien 470", "components": {"house_number": "470", "street": "Nupveien", "postcode": "8484", "locality": "Risøyhamn"}, "country": "NO", "lat": 69.0242485, "lon": 15.6852108, "source": "golden"}
{"raw": "6740 Selje, Seljevegen 3011", "components": {"house_number": "3011", "street": "Seljevegen", "postcode": "6740", "locality": "Selje"}, "country": "NO", "lat": 62.0174299, "lon": 5.3984908, "source": "golden"}
{"raw": "Ostangvegen 4, 5783 Eidfjord", "components": {"house_number": "4", "street": "Ostangvegen", "postcode": "5783", "locality": "Eidfjord"}, "country": "NO", "lat": 60.4676148, "lon": 7.0702638, "source": "golden"}
{"raw": "Øvre Nordstranda 357, 6823 Sandane", "components": {"house_number": "357", "street": "Øvre Nordstranda", "postcode": "6823", "locality": "Sandane"}, "country": "NO", "lat": 61.809716, "lon": 6.1519392, "source": "golden"}
{"raw": "Gamle Oddaveg 3, 5770 Tyssedal", "components": {"house_number": "3", "street": "Gamle Oddaveg", "postcode": "5770", "locality": "Tyssedal"}, "country": "NO", "lat": 60.1160574, "lon": 6.5566762, "source": "golden"}
{"raw": "Mandal, 4514, Ytre Sandgate 24A", "components": {"house_number": "24A", "street": "Ytre Sandgate", "postcode": "4514", "locality": "Mandal"}, "country": "NO", "lat": 58.0256996, "lon": 7.4506896, "source": "golden"}
{"raw": "6200 Stranda, Movegen 57", "components": {"house_number": "57", "street": "Movegen", "postcode": "6200", "locality": "Stranda"}, "country": "NO", "lat": 62.3108568, "lon": 6.9368201, "source": "golden"}
{"raw": "6510 Kristiansund N, Trappegata 8", "components": {"house_number": "8", "street": "Trappegata", "postcode": "6510", "locality": "Kristiansund N"}, "country": "NO", "lat": 63.1156497, "lon": 7.7270468, "source": "golden"}
{"raw": "Magnor, 2240, Leirsjøvegen 322", "components": {"house_number": "322", "street": "Leirsjøvegen", "postcode": "2240", "locality": "Magnor"}, "country": "NO", "lat": 59.9200677, "lon": 12.1680447, "source": "golden"}
{"raw": "2540 Tolga, Klettan 89", "components": {"house_number": "89", "street": "Klettan", "postcode": "2540", "locality": "Tolga"}, "country": "NO", "lat": 62.4504769, "lon": 11.0344947, "source": "golden"}
{"raw": "Fyresdal, 3870, Birtedalsvegen 2515", "components": {"house_number": "2515", "street": "Birtedalsvegen", "postcode": "3870", "locality": "Fyresdal"}, "country": "NO", "lat": 59.0574068, "lon": 7.9765534, "source": "golden"}
{"raw": "Gratangen, 9470, Moanveien 331", "components": {"house_number": "331", "street": "Moanveien", "postcode": "9470", "locality": "Gratangen"}, "country": "NO", "lat": 68.666749, "lon": 17.7309011, "source": "golden"}
{"raw": "5750 Odda, Jordalsvegen 12", "components": {"house_number": "12", "street": "Jordalsvegen", "postcode": "5750", "locality": "Odda"}, "country": "NO", "lat": 60.0550785, "lon": 6.5509029, "source": "golden"}
{"raw": "Kongsberg, 3615, Skrimveien 18", "components": {"house_number": "18", "street": "Skrimveien", "postcode": "3615", "locality": "Kongsberg"}, "country": "NO", "lat": 59.6290235, "lon": 9.6427792, "source": "golden"}
{"raw": "Frydenlund 4, 3414 Lierstranda", "components": {"house_number": "4", "street": "Frydenlund", "postcode": "3414", "locality": "Lierstranda"}, "country": "NO", "lat": 59.7527643, "lon": 10.2551272, "source": "golden"}
{"raw": "Langevåg, 6030, Fyllingvegen 71B", "components": {"house_number": "71B", "street": "Fyllingvegen", "postcode": "6030", "locality": "Langevåg"}, "country": "NO", "lat": 62.4433811, "lon": 6.1959078, "source": "golden"}
{"raw": "Adelsbyvegen 164, 2235 Matrand", "components": {"house_number": "164", "street": "Adelsbyvegen", "postcode": "2235", "locality": "Matrand"}, "country": "NO", "lat": 60.0394312, "lon": 12.1446878, "source": "golden"}
{"raw": "3660 Rjukan, Sam Eydes gate 323A", "components": {"house_number": "323A", "street": "Sam Eydes gate", "postcode": "3660", "locality": "Rjukan"}, "country": "NO", "lat": 59.8816873, "lon": 8.6529081, "source": "golden"}
{"raw": "3540 Nesbyen, Blingsmovegen 79", "components": {"house_number": "79", "street": "Blingsmovegen", "postcode": "3540", "locality": "Nesbyen"}, "country": "NO", "lat": 60.5668335, "lon": 9.1308447, "source": "golden"}
{"raw": "Eivindvik, 5966, Dingevegen 72", "components": {"house_number": "72", "street": "Dingevegen", "postcode": "5966", "locality": "Eivindvik"}, "country": "NO", "lat": 61.0687603, "lon": 5.1785059, "source": "golden"}
{"raw": "Alta, 9514, Prestegårdsveien 21", "components": {"house_number": "21", "street": "Prestegårdsveien", "postcode": "9514", "locality": "Alta"}, "country": "NO", "lat": 69.9629698, "lon": 23.2601173, "source": "golden"}
{"raw": "Bjerkesmoen 196, 2266 Arneberg", "components": {"house_number": "196", "street": "Bjerkesmoen", "postcode": "2266", "locality": "Arneberg"}, "country": "NO", "lat": 60.6053567, "lon": 12.0587403, "source": "golden"}
{"raw": "Askim, 1809, Museumsveien 28B", "components": {"house_number": "28B", "street": "Museumsveien", "postcode": "1809", "locality": "Askim"}, "country": "NO", "lat": 59.5888337, "lon": 11.1801147, "source": "golden"}
{"raw": "6030 Langevåg, Åregjerdet 26", "components": {"house_number": "26", "street": "Åregjerdet", "postcode": "6030", "locality": "Langevåg"}, "country": "NO", "lat": 62.4447684, "lon": 6.2130701, "source": "golden"}
{"raw": "Villavegen 5, 8700 Nesna", "components": {"house_number": "5", "street": "Villavegen", "postcode": "8700", "locality": "Nesna"}, "country": "NO", "lat": 66.1973915, "lon": 13.0161198, "source": "golden"}
{"raw": "Finnsnes, 9307, Trollvikbukta 4", "components": {"house_number": "4", "street": "Trollvikbukta", "postcode": "9307", "locality": "Finnsnes"}, "country": "NO", "lat": 69.2675599, "lon": 17.9950487, "source": "golden"}
{"raw": "Storgata 5, 1890 Rakkestad", "components": {"house_number": "5", "street": "Storgata", "postcode": "1890", "locality": "Rakkestad"}, "country": "NO", "lat": 59.4275367, "lon": 11.3412474, "source": "golden"}
{"raw": "Hestvika, 7247, Børøysundveien 46", "components": {"house_number": "46", "street": "Børøysundveien", "postcode": "7247", "locality": "Hestvika"}, "country": "NO", "lat": 63.5699863, "lon": 9.1899829, "source": "golden"}
{"raw": "7099 Flatåsen, Nedre Flatåsveg 21C", "components": {"house_number": "21C", "street": "Nedre Flatåsveg", "postcode": "7099", "locality": "Flatåsen"}, "country": "NO", "lat": 63.3727479, "lon": 10.3511826, "source": "golden"}
{"raw": "2690 Skjåk, Skjåk solside 370", "components": {"house_number": "370", "street": "Skjåk solside", "postcode": "2690", "locality": "Skjåk"}, "country": "NO", "lat": 61.8857183, "lon": 8.3854238, "source": "golden"}
{"raw": "Ole Vigs gate 24D, 0366 Oslo", "components": {"house_number": "24D", "street": "Ole Vigs gate", "postcode": "0366", "locality": "Oslo"}, "country": "NO", "lat": 59.9286055, "lon": 10.7191721, "source": "golden"}
{"raw": "Øvre Ulstadveg 14, 2686 Lom", "components": {"house_number": "14", "street": "Øvre Ulstadveg", "postcode": "2686", "locality": "Lom"}, "country": "NO", "lat": 61.835081, "lon": 8.5704133, "source": "golden"}
{"raw": "7375 Røros, Femundsveien 848", "components": {"house_number": "848", "street": "Femundsveien", "postcode": "7375", "locality": "Røros"}, "country": "NO", "lat": 62.5226156, "lon": 11.5018405, "source": "golden"}
{"raw": "Klubbavikjo 21, 5451 Valen", "components": {"house_number": "21", "street": "Klubbavikjo", "postcode": "5451", "locality": "Valen"}, "country": "NO", "lat": 59.832763, "lon": 5.7703026, "source": "golden"}
{"raw": "2007 Kjeller, Åråsveien 65A", "components": {"house_number": "65A", "street": "Åråsveien", "postcode": "2007", "locality": "Kjeller"}, "country": "NO", "lat": 59.9648571, "lon": 11.0619437, "source": "golden"}
{"raw": "Saulandsvegen 396, 3692 Sauland", "components": {"house_number": "396", "street": "Saulandsvegen", "postcode": "3692", "locality": "Sauland"}, "country": "NO", "lat": 59.6124774, "lon": 8.9504684, "source": "golden"}
{"raw": "Baksidevegen 1196, 2647 Sør-Fron", "components": {"house_number": "1196", "street": "Baksidevegen", "postcode": "2647", "locality": "Sør-Fron"}, "country": "NO", "lat": 61.5624452, "lon": 9.8625752, "source": "golden"}
{"raw": "Hitra, 7240, Fillvågveien 47", "components": {"house_number": "47", "street": "Fillvågveien", "postcode": "7240", "locality": "Hitra"}, "country": "NO", "lat": 63.608196, "lon": 8.9807, "source": "golden"}
{"raw": "5981 Masfjordnes, Andvikvegen 504", "components": {"house_number": "504", "street": "Andvikvegen", "postcode": "5981", "locality": "Masfjordnes"}, "country": "NO", "lat": 60.8185404, "lon": 5.3659963, "source": "golden"}
{"raw": "Bergsgrende 549, 2662 Dovre", "components": {"house_number": "549", "street": "Bergsgrende", "postcode": "2662", "locality": "Dovre"}, "country": "NO", "lat": 61.998235, "lon": 9.2850718, "source": "golden"}
{"raw": "Snarveien 6, 8480 Andenes", "components": {"house_number": "6", "street": "Snarveien", "postcode": "8480", "locality": "Andenes"}, "country": "NO", "lat": 69.3149855, "lon": 16.1216547, "source": "golden"}
{"raw": "5419 Fitjar, Hogstevegen 76", "components": {"house_number": "76", "street": "Hogstevegen", "postcode": "5419", "locality": "Fitjar"}, "country": "NO", "lat": 59.8710797, "lon": 5.3327438, "source": "golden"}
{"raw": "5725 Vaksdal, Stavenesvegen 81", "components": {"house_number": "81", "street": "Stavenesvegen", "postcode": "5725", "locality": "Vaksdal"}, "country": "NO", "lat": 60.4573976, "lon": 5.676019, "source": "golden"}
{"raw": "8255 Røkland, Høgmoen 2", "components": {"house_number": "2", "street": "Høgmoen", "postcode": "8255", "locality": "Røkland"}, "country": "NO", "lat": 67.0007979, "lon": 15.3252208, "source": "golden"}
{"raw": "9310 Sørreisa, Øyjordveien 6", "components": {"house_number": "6", "street": "Øyjordveien", "postcode": "9310", "locality": "Sørreisa"}, "country": "NO", "lat": 69.1515273, "lon": 18.1670366, "source": "golden"}
{"raw": "1448 Drøbak, Dyrløkkebakken 17", "components": {"house_number": "17", "street": "Dyrløkkebakken", "postcode": "1448", "locality": "Drøbak"}, "country": "NO", "lat": 59.6709512, "lon": 10.6522147, "source": "golden"}
{"raw": "3144 Veierland, Kjølholmåsen 1", "components": {"house_number": "1", "street": "Kjølholmåsen", "postcode": "3144", "locality": "Veierland"}, "country": "NO", "lat": 59.1623681, "lon": 10.3569828, "source": "golden"}
{"raw": "Ramberg, 8380, Skjelfjordveien 15", "components": {"house_number": "15", "street": "Skjelfjordveien", "postcode": "8380", "locality": "Ramberg"}, "country": "NO", "lat": 68.0637841, "lon": 13.2378272, "source": "golden"}
{"raw": "6050 Valderøya, Lykkebrauta 9", "components": {"house_number": "9", "street": "Lykkebrauta", "postcode": "6050", "locality": "Valderøya"}, "country": "NO", "lat": 62.4980066, "lon": 6.1215358, "source": "golden"}
{"raw": "Gongstøhaugen 24, 7994 Leka", "components": {"house_number": "24", "street": "Gongstøhaugen", "postcode": "7994", "locality": "Leka"}, "country": "NO", "lat": 65.0784555, "lon": 11.6989652, "source": "golden"}
{"raw": "Høylandet, 7877, Skrøyvdalsvegen 1265", "components": {"house_number": "1265", "street": "Skrøyvdalsvegen", "postcode": "7877", "locality": "Høylandet"}, "country": "NO", "lat": 64.6971736, "lon": 12.2191608, "source": "golden"}
{"raw": "Kvitsøy, 4180, Nordbø 16/28", "components": {"house_number": "16/28", "street": "Nordbø", "postcode": "4180", "locality": "Kvitsøy"}, "country": "NO", "lat": 59.0730079, "lon": 5.4219605, "source": "golden"}
{"raw": "9470 Gratangen, Moanveien 225", "components": {"house_number": "225", "street": "Moanveien", "postcode": "9470", "locality": "Gratangen"}, "country": "NO", "lat": 68.6630091, "lon": 17.7445433, "source": "golden"}
{"raw": "3370 Vikersund, Mårveien 9A", "components": {"house_number": "9A", "street": "Mårveien", "postcode": "3370", "locality": "Vikersund"}, "country": "NO", "lat": 59.9686815, "lon": 9.9951956, "source": "golden"}
{"raw": "6120 Folkestad, Straume 7", "components": {"house_number": "7", "street": "Straume", "postcode": "6120", "locality": "Folkestad"}, "country": "NO", "lat": 62.0668346, "lon": 6.065801, "source": "golden"}
{"raw": "9552 Øksfjorden, Gammelveien 115", "components": {"house_number": "115", "street": "Gammelveien", "postcode": "9552", "locality": "Øksfjorden"}, "country": "NO", "lat": 70.1045737, "lon": 22.5219972, "source": "golden"}
{"raw": "Gratangen, 9470, Kystkulturveien 726", "components": {"house_number": "726", "street": "Kystkulturveien", "postcode": "9470", "locality": "Gratangen"}, "country": "NO", "lat": 68.6849872, "lon": 17.5837717, "source": "golden"}
{"raw": "Fjørtoft, 6294, Fjørtoftvegen 14", "components": {"house_number": "14", "street": "Fjørtoftvegen", "postcode": "6294", "locality": "Fjørtoft"}, "country": "NO", "lat": 62.7072382, "lon": 6.4079466, "source": "golden"}
{"raw": "3788 Stabbestad, Støleveien 8", "components": {"house_number": "8", "street": "Støleveien", "postcode": "3788", "locality": "Stabbestad"}, "country": "NO", "lat": 58.8166013, "lon": 9.3611489, "source": "golden"}
{"raw": "9144 Samuelsberg, Samuelsbergveien 23", "components": {"house_number": "23", "street": "Samuelsbergveien", "postcode": "9144", "locality": "Samuelsberg"}, "country": "NO", "lat": 69.5477499, "lon": 20.5300691, "source": "golden"}
{"raw": "6065 Ulsteinvik, Anholen 8", "components": {"house_number": "8", "street": "Anholen", "postcode": "6065", "locality": "Ulsteinvik"}, "country": "NO", "lat": 62.34426, "lon": 5.8639545, "source": "golden"}
{"raw": "Tydal, 7590, Nygardsvollvegen 74", "components": {"house_number": "74", "street": "Nygardsvollvegen", "postcode": "7590", "locality": "Tydal"}, "country": "NO", "lat": 62.9363941, "lon": 11.8861413, "source": "golden"}
{"raw": "Aurland, 5745, Ryggjatun 9", "components": {"house_number": "9", "street": "Ryggjatun", "postcode": "5745", "locality": "Aurland"}, "country": "NO", "lat": 60.9063483, "lon": 7.1899195, "source": "golden"}
{"raw": "5743 Flåm, Brekkevegen 24", "components": {"house_number": "24", "street": "Brekkevegen", "postcode": "5743", "locality": "Flåm"}, "country": "NO", "lat": 60.8549767, "lon": 7.1053135, "source": "golden"}
{"raw": "8976 Vevelstad, Osodden 7", "components": {"house_number": "7", "street": "Osodden", "postcode": "8976", "locality": "Vevelstad"}, "country": "NO", "lat": 65.6977771, "lon": 12.4339883, "source": "golden"}
{"raw": "4550 Farsund, Markeveien 28", "components": {"house_number": "28", "street": "Markeveien", "postcode": "4550", "locality": "Farsund"}, "country": "NO", "lat": 58.0913567, "lon": 6.7965532, "source": "golden"}
{"raw": "8158 Bolga, Sjøveien 7", "components": {"house_number": "7", "street": "Sjøveien", "postcode": "8158", "locality": "Bolga"}, "country": "NO", "lat": 66.8043348, "lon": 13.2361581, "source": "golden"}
{"raw": "Søndre Sølendalsveien 3004, 2484 Rendalen", "components": {"house_number": "3004", "street": "Søndre Sølendalsveien", "postcode": "2484", "locality": "Rendalen"}, "country": "NO", "lat": 61.9695036, "lon": 11.5260514, "source": "golden"}
{"raw": "Strandgata 18, 3750 Drangedal", "components": {"house_number": "18", "street": "Strandgata", "postcode": "3750", "locality": "Drangedal"}, "country": "NO", "lat": 59.0972676, "lon": 9.0663901, "source": "golden"}
{"raw": "Sauda, 4200, Åbødalen 5", "components": {"house_number": "5", "street": "Åbødalen", "postcode": "4200", "locality": "Sauda"}, "country": "NO", "lat": 59.65969, "lon": 6.3603374, "source": "golden"}
{"raw": "Birtedalsvegen 893, 3870 Fyresdal", "components": {"house_number": "893", "street": "Birtedalsvegen", "postcode": "3870", "locality": "Fyresdal"}, "country": "NO", "lat": 59.1452141, "lon": 8.0422653, "source": "golden"}
{"raw": "5680 Tysnes, Peralivegen 10", "components": {"house_number": "10", "street": "Peralivegen", "postcode": "5680", "locality": "Tysnes"}, "country": "NO", "lat": 60.0493462, "lon": 5.5187657, "source": "golden"}
{"raw": "Semsveien 116B, 3140 Nøtterøy", "components": {"house_number": "116B", "street": "Semsveien", "postcode": "3140", "locality": "Nøtterøy"}, "country": "NO", "lat": 59.2123443, "lon": 10.4337422, "source": "golden"}
{"raw": "Nabben 2B, 2166 Oppaker", "components": {"house_number": "2B", "street": "Nabben", "postcode": "2166", "locality": "Oppaker"}, "country": "NO", "lat": 60.1703024, "lon": 11.544455, "source": "golden"}
{"raw": "Overhalla, 7863, Sørsivegen 3548", "components": {"house_number": "3548", "street": "Sørsivegen", "postcode": "7863", "locality": "Overhalla"}, "country": "NO", "lat": 64.4622911, "lon": 12.0958318, "source": "golden"}
{"raw": "Nordfjordeid, 6770, Sjøgata 4B", "components": {"house_number": "4B", "street": "Sjøgata", "postcode": "6770", "locality": "Nordfjordeid"}, "country": "NO", "lat": 61.9068087, "lon": 5.9886132, "source": "golden"}
{"raw": "Hamar, 2318, Børstadalleen 5A", "components": {"house_number": "5A", "street": "Børstadalleen", "postcode": "2318", "locality": "Hamar"}, "country": "NO", "lat": 60.8034638, "lon": 11.0850752, "source": "golden"}
{"raw": "Storgata 10B, 3210 Sandefjord", "components": {"house_number": "10B", "street": "Storgata", "postcode": "3210", "locality": "Sandefjord"}, "country": "NO", "lat": 59.1317116, "lon": 10.2253217, "source": "golden"}
{"raw": "Innhavet, 8260, Finnøyveien 1955", "components": {"house_number": "1955", "street": "Finnøyveien", "postcode": "8260", "locality": "Innhavet"}, "country": "NO", "lat": 67.9931611, "lon": 15.6009338, "source": "golden"}
{"raw": "Rådyrvegen 2B, 2014 Blystadlia", "components": {"house_number": "2B", "street": "Rådyrvegen", "postcode": "2014", "locality": "Blystadlia"}, "country": "NO", "lat": 59.9342982, "lon": 11.0363626, "source": "golden"}
{"raw": "Solhellinga 13B, 2315 Hamar", "components": {"house_number": "13B", "street": "Solhellinga", "postcode": "2315", "locality": "Hamar"}, "country": "NO", "lat": 60.8081676, "lon": 11.0407984, "source": "golden"}
{"raw": "3864 Rauland, Turistbakken 1", "components": {"house_number": "1", "street": "Turistbakken", "postcode": "3864", "locality": "Rauland"}, "country": "NO", "lat": 59.7382061, "lon": 8.1347877, "source": "golden"}
{"raw": "Kråvikvegen 32, 5310 Hauglandshella", "components": {"house_number": "32", "street": "Kråvikvegen", "postcode": "5310", "locality": "Hauglandshella"}, "country": "NO", "lat": 60.4406696, "lon": 5.1675896, "source": "golden"}
{"raw": "Lundveien 3086, 4460 Moi", "components": {"house_number": "3086", "street": "Lundveien", "postcode": "4460", "locality": "Moi"}, "country": "NO", "lat": 58.4426831, "lon": 6.6124334, "source": "golden"}
{"raw": "8904 Brønnøysund, Strandveien 37B", "components": {"house_number": "37B", "street": "Strandveien", "postcode": "8904", "locality": "Brønnøysund"}, "country": "NO", "lat": 65.4698259, "lon": 12.2028566, "source": "golden"}
{"raw": "Geilo, 3580, Lienvegen 29", "components": {"house_number": "29", "street": "Lienvegen", "postcode": "3580", "locality": "Geilo"}, "country": "NO", "lat": 60.5340121, "lon": 8.2143133, "source": "golden"}
{"raw": "4715 Øvrebø, Berge 4", "components": {"house_number": "4", "street": "Berge", "postcode": "4715", "locality": "Øvrebø"}, "country": "NO", "lat": 58.2561246, "lon": 7.8320474, "source": "golden"}
{"raw": "Dividalsveien 1257, 9334 Øverbygd", "components": {"house_number": "1257", "street": "Dividalsveien", "postcode": "9334", "locality": "Øverbygd"}, "country": "NO", "lat": 68.9203951, "lon": 19.5220668, "source": "golden"}
{"raw": "Fyrvegen 102, 5547 Utsira", "components": {"house_number": "102", "street": "Fyrvegen", "postcode": "5547", "locality": "Utsira"}, "country": "NO", "lat": 59.3065049, "lon": 4.8725445, "source": "golden"}
{"raw": "3350 Prestfoss, Hiåsskogveien 645", "components": {"house_number": "645", "street": "Hiåsskogveien", "postcode": "3350", "locality": "Prestfoss"}, "country": "NO", "lat": 60.0032401, "lon": 9.5245121, "source": "golden"}
{"raw": "Grinder, 2264, Åsvegen 210", "components": {"house_number": "210", "street": "Åsvegen", "postcode": "2264", "locality": "Grinder"}, "country": "NO", "lat": 60.4169252, "lon": 12.0935338, "source": "golden"}
{"raw": "Holte skog 12B, 3748 Siljan", "components": {"house_number": "12B", "street": "Holte skog", "postcode": "3748", "locality": "Siljan"}, "country": "NO", "lat": 59.2732077, "lon": 9.7049812, "source": "golden"}
{"raw": "Øvre jorde 5, 2985 Tyinkrysset", "components": {"house_number": "5", "street": "Øvre jorde", "postcode": "2985", "locality": "Tyinkrysset"}, "country": "NO", "lat": 61.1803386, "lon": 8.1566621, "source": "golden"}
{"raw": "Rakkestad, 1894, Budalsveien 482", "components": {"house_number": "482", "street": "Budalsveien", "postcode": "1894", "locality": "Rakkestad"}, "country": "NO", "lat": 59.4219732, "lon": 11.5063507, "source": "golden"}
{"raw": "Øyenveien 6, 1825 Tomter", "components": {"house_number": "6", "street": "Øyenveien", "postcode": "1825", "locality": "Tomter"}, "country": "NO", "lat": 59.6630848, "lon": 10.9951449, "source": "golden"}
{"raw": "Roa, 2740, Vollavegen 253", "components": {"house_number": "253", "street": "Vollavegen", "postcode": "2740", "locality": "Roa"}, "country": "NO", "lat": 60.2577451, "lon": 10.5717463, "source": "golden"}
{"raw": "Hvindenvegen 11, 2750 Gran", "components": {"house_number": "11", "street": "Hvindenvegen", "postcode": "2750", "locality": "Gran"}, "country": "NO", "lat": 60.3561508, "lon": 10.4368692, "source": "golden"}
{"raw": "4072 Randaberg, Tinnveien 7", "components": {"house_number": "7", "street": "Tinnveien", "postcode": "4072", "locality": "Randaberg"}, "country": "NO", "lat": 59.0103591, "lon": 5.641443, "source": "golden"}
{"raw": "Stranda, 6200, Antonusvegen 15", "components": {"house_number": "15", "street": "Antonusvegen", "postcode": "6200", "locality": "Stranda"}, "country": "NO", "lat": 62.3116563, "lon": 6.9440535, "source": "golden"}
{"raw": "2821 Gjøvik, Skolegata 6C", "components": {"house_number": "6C", "street": "Skolegata", "postcode": "2821", "locality": "Gjøvik"}, "country": "NO", "lat": 60.7960088, "lon": 10.686074, "source": "golden"}
{"raw": "Engeløyveien 500, 8289 Engeløya", "components": {"house_number": "500", "street": "Engeløyveien", "postcode": "8289", "locality": "Engeløya"}, "country": "NO", "lat": 67.9736389, "lon": 15.1049643, "source": "golden"}
{"raw": "3766 Sannidal, Kloppkjærveien 18A", "components": {"house_number": "18A", "street": "Kloppkjærveien", "postcode": "3766", "locality": "Sannidal"}, "country": "NO", "lat": 58.8946417, "lon": 9.2875184, "source": "golden"}
{"raw": "7580 Selbu, Bellvegen 3B", "components": {"house_number": "3B", "street": "Bellvegen", "postcode": "7580", "locality": "Selbu"}, "country": "NO", "lat": 63.224766, "lon": 11.0353229, "source": "golden"}
{"raw": "Osnesvegen 319, 5590 Etne", "components": {"house_number": "319", "street": "Osnesvegen", "postcode": "5590", "locality": "Etne"}, "country": "NO", "lat": 59.6516147, "lon": 5.9113955, "source": "golden"}
{"raw": "Strådalsvegen 299, 7660 Vuku", "components": {"house_number": "299", "street": "Strådalsvegen", "postcode": "7660", "locality": "Vuku"}, "country": "NO", "lat": 63.7985122, "lon": 12.4478994, "source": "golden"}
{"raw": "Dyrvik, 7270, Nordfrøyveien 965", "components": {"house_number": "965", "street": "Nordfrøyveien", "postcode": "7270", "locality": "Dyrvik"}, "country": "NO", "lat": 63.7716416, "lon": 8.8161867, "source": "golden"}
{"raw": "Hovden I Setesdal, 4755, Solsetertoppen 4", "components": {"house_number": "4", "street": "Solsetertoppen", "postcode": "4755", "locality": "Hovden I Setesdal"}, "country": "NO", "lat": 59.5647561, "lon": 7.3789586, "source": "golden"}
{"raw": "8820 Dønna, Dønnaveien 1179", "components": {"house_number": "1179", "street": "Dønnaveien", "postcode": "8820", "locality": "Dønna"}, "country": "NO", "lat": 66.215056, "lon": 12.6055405, "source": "golden"}
{"raw": "5647 Baldersheim, Selsvollvegen 70", "components": {"house_number": "70", "street": "Selsvollvegen", "postcode": "5647", "locality": "Baldersheim"}, "country": "NO", "lat": 60.1571852, "lon": 5.740391, "source": "golden"}
{"raw": "3721 Skien, Luksefjellvegen 357", "components": {"house_number": "357", "street": "Luksefjellvegen", "postcode": "3721", "locality": "Skien"}, "country": "NO", "lat": 59.2515716, "lon": 9.5798127, "source": "golden"}
{"raw": "4910 Lyngør, Østre Løktene 13", "components": {"house_number": "13", "street": "Østre Løktene", "postcode": "4910", "locality": "Lyngør"}, "country": "NO", "lat": 58.6228019, "lon": 9.0828694, "source": "golden"}
{"raw": "Elvarheimgata 6B, 2414 Elverum", "components": {"house_number": "6B", "street": "Elvarheimgata", "postcode": "2414", "locality": "Elverum"}, "country": "NO", "lat": 60.8803797, "lon": 11.5613126, "source": "golden"}
{"raw": "6863 Leikanger, Eggjavegen 40", "components": {"house_number": "40", "street": "Eggjavegen", "postcode": "6863", "locality": "Leikanger"}, "country": "NO", "lat": 61.1883327, "lon": 6.7737113, "source": "golden"}
{"raw": "Øvre Årdal, 6884, Ekrevegen 3A", "components": {"house_number": "3A", "street": "Ekrevegen", "postcode": "6884", "locality": "Øvre Årdal"}, "country": "NO", "lat": 61.3235427, "lon": 7.8304788, "source": "golden"}
{"raw": "Brekkestø, 4780, Brekkestø 37", "components": {"house_number": "37", "street": "Brekkestø", "postcode": "4780", "locality": "Brekkestø"}, "country": "NO", "lat": 58.1949721, "lon": 8.3474408, "source": "golden"}
{"raw": "6657 Rindal, Romundstadbygdvegen 479", "components": {"house_number": "479", "street": "Romundstadbygdvegen", "postcode": "6657", "locality": "Rindal"}, "country": "NO", "lat": 63.0297323, "lon": 9.2924906, "source": "golden"}
{"raw": "Lyngdal, 4580, Gamle Kirkevei 40", "components": {"house_number": "40", "street": "Gamle Kirkevei", "postcode": "4580", "locality": "Lyngdal"}, "country": "NO", "lat": 58.1457261, "lon": 7.0795053, "source": "golden"}
{"raw": "Kaffeveien 46, 9311 Brøstadbotn", "components": {"house_number": "46", "street": "Kaffeveien", "postcode": "9311", "locality": "Brøstadbotn"}, "country": "NO", "lat": 69.1157785, "lon": 17.7593739, "source": "golden"}
{"raw": "Langhågen 13, 8920 Sømna", "components": {"house_number": "13", "street": "Langhågen", "postcode": "8920", "locality": "Sømna"}, "country": "NO", "lat": 65.2229576, "lon": 12.0310444, "source": "golden"}
{"raw": "Ånstad, 9454, Andørjaveien 67", "components": {"house_number": "67", "street": "Andørjaveien", "postcode": "9454", "locality": "Ånstad"}, "country": "NO", "lat": 68.8015164, "lon": 17.2078347, "source": "golden"}
{"raw": "Solhaugveien 21, 7393 Rennebu", "components": {"house_number": "21", "street": "Solhaugveien", "postcode": "7393", "locality": "Rennebu"}, "country": "NO", "lat": 62.7724843, "lon": 9.5825195, "source": "golden"}
{"raw": "Hybelsneset 19, 5412 Stord", "components": {"house_number": "19", "street": "Hybelsneset", "postcode": "5412", "locality": "Stord"}, "country": "NO", "lat": 59.7594079, "lon": 5.4768103, "source": "golden"}
{"raw": "Kalvåg, 6729, Nesjevegen 74", "components": {"house_number": "74", "street": "Nesjevegen", "postcode": "6729", "locality": "Kalvåg"}, "country": "NO", "lat": 61.8052966, "lon": 4.8546297, "source": "golden"}
{"raw": "3614 Kongsberg, Fanterusta 7", "components": {"house_number": "7", "street": "Fanterusta", "postcode": "3614", "locality": "Kongsberg"}, "country": "NO", "lat": 59.7374497, "lon": 9.4286468, "source": "golden"}
{"raw": "Lodavegen 456, 5561 Bokn", "components": {"house_number": "456", "street": "Lodavegen", "postcode": "5561", "locality": "Bokn"}, "country": "NO", "lat": 59.181999, "lon": 5.416896, "source": "golden"}
{"raw": "6670 Øydegard, Nålsundvegen 245", "components": {"house_number": "245", "street": "Nålsundvegen", "postcode": "6670", "locality": "Øydegard"}, "country": "NO", "lat": 63.0417004, "lon": 7.9849549, "source": "golden"}
{"raw": "Ulvik, 5730, Maritastykket 9", "components": {"house_number": "9", "street": "Maritastykket", "postcode": "5730", "locality": "Ulvik"}, "country": "NO", "lat": 60.5672268, "lon": 6.9155998, "source": "golden"}
{"raw": "Inderøy, 7670, Vesterlivegen 23", "components": {"house_number": "23", "street": "Vesterlivegen", "postcode": "7670", "locality": "Inderøy"}, "country": "NO", "lat": 63.9240349, "lon": 11.2136152, "source": "golden"}
{"raw": "Hurdal, 2090, Vestsidevegen 156", "components": {"house_number": "156", "street": "Vestsidevegen", "postcode": "2090", "locality": "Hurdal"}, "country": "NO", "lat": 60.3804895, "lon": 11.0273872, "source": "golden"}
{"raw": "Jernbaneveien 6, 4616 Kristiansand S", "components": {"house_number": "6", "street": "Jernbaneveien", "postcode": "4616", "locality": "Kristiansand S"}, "country": "NO", "lat": 58.1477985, "lon": 7.9768462, "source": "golden"}
{"raw": "Modalen, 5729, Balane 16", "components": {"house_number": "16", "street": "Balane", "postcode": "5729", "locality": "Modalen"}, "country": "NO", "lat": 60.8597259, "lon": 5.9775882, "source": "golden"}
{"raw": "Stord, 5412, Meatjønnsvegen 105", "components": {"house_number": "105", "street": "Meatjønnsvegen", "postcode": "5412", "locality": "Stord"}, "country": "NO", "lat": 59.7622329, "lon": 5.4374385, "source": "golden"}
{"raw": "3962 Stathelle, Hafrakersløyfa 16", "components": {"house_number": "16", "street": "Hafrakersløyfa", "postcode": "3962", "locality": "Stathelle"}, "country": "NO", "lat": 59.0437616, "lon": 9.6479276, "source": "golden"}
{"raw": "8230 Sulitjelma, Balvassveien 32", "components": {"house_number": "32", "street": "Balvassveien", "postcode": "8230", "locality": "Sulitjelma"}, "country": "NO", "lat": 67.0810138, "lon": 16.0052126, "source": "golden"}
{"raw": "Nesnastranda, 8704, Movegen 163", "components": {"house_number": "163", "street": "Movegen", "postcode": "8704", "locality": "Nesnastranda"}, "country": "NO", "lat": 66.245345, "lon": 13.1393221, "source": "golden"}
{"raw": "Bjønntjønn fjellgrend 102, 3855 Treungen", "components": {"house_number": "102", "street": "Bjønntjønn fjellgrend", "postcode": "3855", "locality": "Treungen"}, "country": "NO", "lat": 59.0327326, "lon": 8.6389902, "source": "golden"}
{"raw": "7018 Trondheim, Nedre Ila 3", "components": {"house_number": "3", "street": "Nedre Ila", "postcode": "7018", "locality": "Trondheim"}, "country": "NO", "lat": 63.4310824, "lon": 10.3730896, "source": "golden"}
{"raw": "Risøyhamn, 8484, Bjørnskinnveien 525", "components": {"house_number": "525", "street": "Bjørnskinnveien", "postcode": "8484", "locality": "Risøyhamn"}, "country": "NO", "lat": 68.9994096, "lon": 15.6357344, "source": "golden"}
{"raw": "Breivika 2, 9388 Fjordgard", "components": {"house_number": "2", "street": "Breivika", "postcode": "9388", "locality": "Fjordgard"}, "country": "NO", "lat": 69.5706432, "lon": 17.5567926, "source": "golden"}
{"raw": "8616 Mo I Rana, Engevollen 7D", "components": {"house_number": "7D", "street": "Engevollen", "postcode": "8616", "locality": "Mo I Rana"}, "country": "NO", "lat": 66.3403629, "lon": 14.1198238, "source": "golden"}
{"raw": "5783 Eidfjord, Skulevegen 4", "components": {"house_number": "4", "street": "Skulevegen", "postcode": "5783", "locality": "Eidfjord"}, "country": "NO", "lat": 60.4638737, "lon": 7.072474, "source": "golden"}
{"raw": "4737 Hornnes, Sveindalsvegen 1315", "components": {"house_number": "1315", "street": "Sveindalsvegen", "postcode": "4737", "locality": "Hornnes"}, "country": "NO", "lat": 58.5075532, "lon": 7.5538845, "source": "golden"}
{"raw": "Bykle, 4754, Nordbygdevegen 9", "components": {"house_number": "9", "street": "Nordbygdevegen", "postcode": "4754", "locality": "Bykle"}, "country": "NO", "lat": 59.3432674, "lon": 7.2934152, "source": "golden"}
{"raw": "Geitvikveien 47, 8640 Hemnesberget", "components": {"house_number": "47", "street": "Geitvikveien", "postcode": "8640", "locality": "Hemnesberget"}, "country": "NO", "lat": 66.2395067, "lon": 13.6903205, "source": "golden"}
{"raw": "9180 Skjervøy, Strandveien 90A", "components": {"house_number": "90A", "street": "Strandveien", "postcode": "9180", "locality": "Skjervøy"}, "country": "NO", "lat": 70.0303852, "lon": 20.9695318, "source": "golden"}
{"raw": "Sandeveien 65A, 4485 Feda", "components": {"house_number": "65A", "street": "Sandeveien", "postcode": "4485", "locality": "Feda"}, "country": "NO", "lat": 58.2656445, "lon": 6.8163788, "source": "golden"}
{"raw": "Langøysundvegen 644, 6674 Kvisvik", "components": {"house_number": "644", "street": "Langøysundvegen", "postcode": "6674", "locality": "Kvisvik"}, "country": "NO", "lat": 63.1043065, "lon": 8.0504529, "source": "golden"}
{"raw": "Tøreggveien 203, 2460 Osen", "components": {"house_number": "203", "street": "Tøreggveien", "postcode": "2460", "locality": "Osen"}, "country": "NO", "lat": 61.3966272, "lon": 11.7727652, "source": "golden"}
{"raw": "Svartverksstubben 5, 1482 Nittedal", "components": {"house_number": "5", "street": "Svartverksstubben", "postcode": "1482", "locality": "Nittedal"}, "country": "NO", "lat": 60.0493125, "lon": 10.8610142, "source": "golden"}
{"raw": "Bleikvasslia, 8647, Villmarksveien 3428", "components": {"house_number": "3428", "street": "Villmarksveien", "postcode": "8647", "locality": "Bleikvasslia"}, "country": "NO", "lat": 65.8189629, "lon": 13.9030881, "source": "golden"}
{"raw": "3853 Vrådal, Lyngvegen 7", "components": {"house_number": "7", "street": "Lyngvegen", "postcode": "3853", "locality": "Vrådal"}, "country": "NO", "lat": 59.3105522, "lon": 8.4440006, "source": "golden"}
{"raw": "2270 Flisa, Kaffegata 6", "components": {"house_number": "6", "street": "Kaffegata", "postcode": "2270", "locality": "Flisa"}, "country": "NO", "lat": 60.612604, "lon": 12.011639, "source": "golden"}
{"raw": "2211 Kongsvinger, Jernbanegata 13", "components": {"house_number": "13", "street": "Jernbanegata", "postcode": "2211", "locality": "Kongsvinger"}, "country": "NO", "lat": 60.1862821, "lon": 12.0033516, "source": "golden"}
{"raw": "Matredal, 5984, Indre Haugsdal 728", "components": {"house_number": "728", "street": "Indre Haugsdal", "postcode": "5984", "locality": "Matredal"}, "country": "NO", "lat": 60.8459363, "lon": 5.5147603, "source": "golden"}
{"raw": "Lygnaveien 888, 4595 Tingvatn", "components": {"house_number": "888", "street": "Lygnaveien", "postcode": "4595", "locality": "Tingvatn"}, "country": "NO", "lat": 58.3671532, "lon": 7.2206283, "source": "golden"}
{"raw": "Sætre, 3475, Fransåsveien 21", "components": {"house_number": "21", "street": "Fransåsveien", "postcode": "3475", "locality": "Sætre"}, "country": "NO", "lat": 59.6807933, "lon": 10.523187, "source": "golden"}
{"raw": "Spillum, 7820, Spillumsvatnet 3", "components": {"house_number": "3", "street": "Spillumsvatnet", "postcode": "7820", "locality": "Spillum"}, "country": "NO", "lat": 64.4289998, "lon": 11.5719027, "source": "golden"}
{"raw": "Bergen, 5055, Løbergsveien 69C", "components": {"house_number": "69C", "street": "Løbergsveien", "postcode": "5055", "locality": "Bergen"}, "country": "NO", "lat": 60.3691419, "lon": 5.3380868, "source": "golden"}
{"raw": "Vadsø, 9801, Tanavegen 4", "components": {"house_number": "4", "street": "Tanavegen", "postcode": "9801", "locality": "Vadsø"}, "country": "NO", "lat": 70.0796532, "lon": 29.7139364, "source": "golden"}
{"raw": "Åmot, 3340, Gustadveien 13B", "components": {"house_number": "13B", "street": "Gustadveien", "postcode": "3340", "locality": "Åmot"}, "country": "NO", "lat": 59.9072994, "lon": 9.9480555, "source": "golden"}
{"raw": "9740 Lebesby, Teistveien 78", "components": {"house_number": "78", "street": "Teistveien", "postcode": "9740", "locality": "Lebesby"}, "country": "NO", "lat": 70.5744279, "lon": 27.0071943, "source": "golden"}
{"raw": "Belsjø terrasse 9B, 1443 Drøbak", "components": {"house_number": "9B", "street": "Belsjø terrasse", "postcode": "1443", "locality": "Drøbak"}, "country": "NO", "lat": 59.6712518, "lon": 10.6451679, "source": "golden"}
{"raw": "Hamar, 2316, Kvitbekkgata 52", "components": {"house_number": "52", "street": "Kvitbekkgata", "postcode": "2316", "locality": "Hamar"}, "country": "NO", "lat": 60.800241, "lon": 11.0337396, "source": "golden"}
{"raw": "Kautokeino, 9520, Suohpatluohkká 5", "components": {"house_number": "5", "street": "Suohpatluohkká", "postcode": "9520", "locality": "Kautokeino"}, "country": "NO", "lat": 68.9867711, "lon": 23.053097, "source": "golden"}
{"raw": "Torød, 3135, Torødveien 16A", "components": {"house_number": "16A", "street": "Torødveien", "postcode": "3135", "locality": "Torød"}, "country": "NO", "lat": 59.1818392, "lon": 10.4453799, "source": "golden"}
{"raw": "8920 Sømna, Breisandveien 7", "components": {"house_number": "7", "street": "Breisandveien", "postcode": "8920", "locality": "Sømna"}, "country": "NO", "lat": 65.2315482, "lon": 12.0946939, "source": "golden"}
{"raw": "Rindabakkane 64, 6857 Sogndal", "components": {"house_number": "64", "street": "Rindabakkane", "postcode": "6857", "locality": "Sogndal"}, "country": "NO", "lat": 61.2926257, "lon": 6.9682196, "source": "golden"}
{"raw": "Narvik, 8514, Dronningens gate 67", "components": {"house_number": "67", "street": "Dronningens gate", "postcode": "8514", "locality": "Narvik"}, "country": "NO", "lat": 68.4398477, "lon": 17.4330632, "source": "golden"}
{"raw": "Strandgata 134, 6060 Hareid", "components": {"house_number": "134", "street": "Strandgata", "postcode": "6060", "locality": "Hareid"}, "country": "NO", "lat": 62.3743857, "lon": 6.0303518, "source": "golden"}
{"raw": "5384 Torangsvåg, Risvikvegen 43", "components": {"house_number": "43", "street": "Risvikvegen", "postcode": "5384", "locality": "Torangsvåg"}, "country": "NO", "lat": 60.116022, "lon": 5.1604507, "source": "golden"}
{"raw": "Kjørsvikbugen, 6699, Hemnevegen 675", "components": {"house_number": "675", "street": "Hemnevegen", "postcode": "6699", "locality": "Kjørsvikbugen"}, "country": "NO", "lat": 63.4115719, "lon": 8.7211142, "source": "golden"}
{"raw": "Alta, 9512, Ulveveien 11", "components": {"house_number": "11", "street": "Ulveveien", "postcode": "9512", "locality": "Alta"}, "country": "NO", "lat": 69.9486943, "lon": 23.2038702, "source": "golden"}
{"raw": "6060 Hareid, Plassane 112", "components": {"house_number": "112", "street": "Plassane", "postcode": "6060", "locality": "Hareid"}, "country": "NO", "lat": 62.3638264, "lon": 6.0521113, "source": "golden"}
{"raw": "Dverberg, 8485, Saura 28/84", "components": {"house_number": "28/84", "street": "Saura", "postcode": "8485", "locality": "Dverberg"}, "country": "NO", "lat": 69.1473326, "lon": 16.054834, "source": "golden"}
{"raw": "Arvaslia 1, 7884 Sørli", "components": {"house_number": "1", "street": "Arvaslia", "postcode": "7884", "locality": "Sørli"}, "country": "NO", "lat": 64.0300638, "lon": 13.8357121, "source": "golden"}
{"raw": "Jevnaker, 3520, Granvegen 22", "components": {"house_number": "22", "street": "Granvegen", "postcode": "3520", "locality": "Jevnaker"}, "country": "NO", "lat": 60.2338376, "lon": 10.3640659, "source": "golden"}
{"raw": "7896 Brekkvasselv, Inga Linds vei 2", "components": {"house_number": "2", "street": "Inga Linds vei", "postcode": "7896", "locality": "Brekkvasselv"}, "country": "NO", "lat": 64.8475912, "lon": 13.0188967, "source": "golden"}
{"raw": "Elsnesveien 12, 9046 Oteren", "components": {"house_number": "12", "street": "Elsnesveien", "postcode": "9046", "locality": "Oteren"}, "country": "NO", "lat": 69.3384815, "lon": 20.0510057, "source": "golden"}
{"raw": "8064 Røst, Klippenveien 4", "components": {"house_number": "4", "street": "Klippenveien", "postcode": "8064", "locality": "Røst"}, "country": "NO", "lat": 67.5153494, "lon": 12.1098212, "source": "golden"}
{"raw": "Rådyrvegen 8, 2860 Hov", "components": {"house_number": "8", "street": "Rådyrvegen", "postcode": "2860", "locality": "Hov"}, "country": "NO", "lat": 60.7124403, "lon": 10.3487822, "source": "golden"}
{"raw": "Haugesund, 5533, Svebakken 10", "components": {"house_number": "10", "street": "Svebakken", "postcode": "5533", "locality": "Haugesund"}, "country": "NO", "lat": 59.4135031, "lon": 5.3190966, "source": "golden"}
{"raw": "Strandvegen 2A, 2100 Skarnes", "components": {"house_number": "2A", "street": "Strandvegen", "postcode": "2100", "locality": "Skarnes"}, "country": "NO", "lat": 60.2559729, "lon": 11.6811707, "source": "golden"}
{"raw": "3632 Uvdal, Jønndalsvegen 503", "components": {"house_number": "503", "street": "Jønndalsvegen", "postcode": "3632", "locality": "Uvdal"}, "country": "NO", "lat": 60.3139929, "lon": 8.3834153, "source": "golden"}
{"raw": "Haldorbue 2, 2940 Heggenes", "components": {"house_number": "2", "street": "Haldorbue", "postcode": "2940", "locality": "Heggenes"}, "country": "NO", "lat": 61.2604789, "lon": 9.3704601, "source": "golden"}
{"raw": "8450 Stokmarknes, Yttersida 271", "components": {"house_number": "271", "street": "Yttersida", "postcode": "8450", "locality": "Stokmarknes"}, "country": "NO", "lat": 68.5771713, "lon": 14.7562194, "source": "golden"}
{"raw": "Krossmyra 18, 4365 Nærbø", "components": {"house_number": "18", "street": "Krossmyra", "postcode": "4365", "locality": "Nærbø"}, "country": "NO", "lat": 58.6725901, "lon": 5.6417671, "source": "golden"}
{"raw": "4980 Gjerstad, Aplandsveien 61", "components": {"house_number": "61", "street": "Aplandsveien", "postcode": "4980", "locality": "Gjerstad"}, "country": "NO", "lat": 58.8831899, "lon": 9.0412165, "source": "golden"}
{"raw": "Rindal, 6657, Tørsåsen 260", "components": {"house_number": "260", "street": "Tørsåsen", "postcode": "6657", "locality": "Rindal"}, "country": "NO", "lat": 63.0693331, "lon": 9.1369426, "source": "golden"}
{"raw": "Samuelsberg, 9144, Samuelsbergveien 68", "components": {"house_number": "68", "street": "Samuelsbergveien", "postcode": "9144", "locality": "Samuelsberg"}, "country": "NO", "lat": 69.5517593, "lon": 20.5341181, "source": "golden"}
{"raw": "Løvsangerveien 11, 1448 Drøbak", "components": {"house_number": "11", "street": "Løvsangerveien", "postcode": "1448", "locality": "Drøbak"}, "country": "NO", "lat": 59.6667428, "lon": 10.657522, "source": "golden"}
{"raw": "Råvegen 111, 7877 Høylandet", "components": {"house_number": "111", "street": "Råvegen", "postcode": "7877", "locality": "Høylandet"}, "country": "NO", "lat": 64.6435061, "lon": 12.3448405, "source": "golden"}
{"raw": "Foldfjorden, 6694, Mjosundvegen 1818", "components": {"house_number": "1818", "street": "Mjosundvegen", "postcode": "6694", "locality": "Foldfjorden"}, "country": "NO", "lat": 63.1646225, "lon": 8.45262, "source": "golden"}
{"raw": "Sklinnteigvegen 21, 7870 Grong", "components": {"house_number": "21", "street": "Sklinnteigvegen", "postcode": "7870", "locality": "Grong"}, "country": "NO", "lat": 64.4686468, "lon": 12.2173804, "source": "golden"}
{"raw": "Sykkylven, 6230, Kyrkjevegen 191", "components": {"house_number": "191", "street": "Kyrkjevegen", "postcode": "6230", "locality": "Sykkylven"}, "country": "NO", "lat": 62.3773247, "lon": 6.5754056, "source": "golden"}
{"raw": "5977 Ånneland, Sandevegen 513", "components": {"house_number": "513", "street": "Sandevegen", "postcode": "5977", "locality": "Ånneland"}, "country": "NO", "lat": 60.8507337, "lon": 5.0136162, "source": "golden"}
{"raw": "Kvanndalen 131, 5729 Modalen", "components": {"house_number": "131", "street": "Kvanndalen", "postcode": "5729", "locality": "Modalen"}, "country": "NO", "lat": 60.9002443, "lon": 6.0316602, "source": "golden"}
{"raw": "2436 Våler I Solør, Svennebysætervegen 1129", "components": {"house_number": "1129", "street": "Svennebysætervegen", "postcode": "2436", "locality": "Våler I Solør"}, "country": "NO", "lat": 60.6272375, "lon": 11.6775603, "source": "golden"}
{"raw": "Sørstraumen, 9162, Karvikveien 79", "components": {"house_number": "79", "street": "Karvikveien", "postcode": "9162", "locality": "Sørstraumen"}, "country": "NO", "lat": 69.8464327, "lon": 21.8288648, "source": "golden"}
{"raw": "4820 Froland, Herselveien 97", "components": {"house_number": "97", "street": "Herselveien", "postcode": "4820", "locality": "Froland"}, "country": "NO", "lat": 58.568857, "lon": 8.7219625, "source": "golden"}
{"raw": "Ålgård, 4330, Bærlandsnuten 8", "components": {"house_number": "8", "street": "Bærlandsnuten", "postcode": "4330", "locality": "Ålgård"}, "country": "NO", "lat": 58.7656396, "lon": 5.8406682, "source": "golden"}
{"raw": "8130 Sandhornøy, Sandhornøyveien 26", "components": {"house_number": "26", "street": "Sandhornøyveien", "postcode": "8130", "locality": "Sandhornøy"}, "country": "NO", "lat": 67.0773737, "lon": 14.2115961, "source": "golden"}
{"raw": "Fjellheimsvegen 27, 5650 Tysse", "components": {"house_number": "27", "street": "Fjellheimsvegen", "postcode": "5650", "locality": "Tysse"}, "country": "NO", "lat": 60.3802632, "lon": 5.7655187, "source": "golden"}
{"raw": "6154 Ørsta, Øvremarka 15", "components": {"house_number": "15", "street": "Øvremarka", "postcode": "6154", "locality": "Ørsta"}, "country": "NO", "lat": 62.1946689, "lon": 6.1555281, "source": "golden"}
{"raw": "Grandaunvegen 312, 7863 Overhalla", "components": {"house_number": "312", "street": "Grandaunvegen", "postcode": "7863", "locality": "Overhalla"}, "country": "NO", "lat": 64.4517144, "lon": 11.9661682, "source": "golden"}
{"raw": "Mánnevárnjárga 74, 9734 Karasjok", "components": {"house_number": "74", "street": "Mánnevárnjárga", "postcode": "9734", "locality": "Karasjok"}, "country": "NO", "lat": 69.4561302, "lon": 25.5837262, "source": "golden"}
{"raw": "Hasvik, 9590, Hasfjordveien 62", "components": {"house_number": "62", "street": "Hasfjordveien", "postcode": "9590", "locality": "Hasvik"}, "country": "NO", "lat": 70.5197645, "lon": 22.2529332, "source": "golden"}
{"raw": "Ol-Jensaveien 13B, 7530 Meråker", "components": {"house_number": "13B", "street": "Ol-Jensaveien", "postcode": "7530", "locality": "Meråker"}, "country": "NO", "lat": 63.4140707, "lon": 11.7452445, "source": "golden"}
{"raw": "Trysil, 2420, Snarvegen 32", "components": {"house_number": "32", "street": "Snarvegen", "postcode": "2420", "locality": "Trysil"}, "country": "NO", "lat": 61.3052724, "lon": 12.2455377, "source": "golden"}
{"raw": "5646 Nordtveitgrend, Abotnes 63", "components": {"house_number": "63", "street": "Abotnes", "postcode": "5646", "locality": "Nordtveitgrend"}, "country": "NO", "lat": 60.0600198, "lon": 5.785451, "source": "golden"}
{"raw": "2642 Kvam, Nysetervegen 99", "components": {"house_number": "99", "street": "Nysetervegen", "postcode": "2642", "locality": "Kvam"}, "country": "NO", "lat": 61.7498099, "lon": 9.7474226, "source": "golden"}
{"raw": "Råholt, 2070, Nedre Grindaveg 104", "components": {"house_number": "104", "street": "Nedre Grindaveg", "postcode": "2070", "locality": "Råholt"}, "country": "NO", "lat": 60.2853075, "lon": 11.1617108, "source": "golden"}
{"raw": "2834 Raufoss, Øverbyvegen 20", "components": {"house_number": "20", "street": "Øverbyvegen", "postcode": "2834", "locality": "Raufoss"}, "country": "NO", "lat": 60.7310307, "lon": 10.6210124, "source": "golden"}
{"raw": "Skjåk, 2690, Skjåk solside 716", "components": {"house_number": "716", "street": "Skjåk solside", "postcode": "2690", "locality": "Skjåk"}, "country": "NO", "lat": 61.8857542, "lon": 8.4513207, "source": "golden"}
{"raw": "Vestre Ekeberg 24, 3157 Barkåker", "components": {"house_number": "24", "street": "Vestre Ekeberg", "postcode": "3157", "locality": "Barkåker"}, "country": "NO", "lat": 59.3224651, "lon": 10.3799125, "source": "golden"}
{"raw": "Grimstad, 4879, Langestrand 72", "components": {"house_number": "72", "street": "Langestrand", "postcode": "4879", "locality": "Grimstad"}, "country": "NO", "lat": 58.3167537, "lon": 8.5717584, "source": "golden"}
{"raw": "3880 Dalen, Hallbjønnsekken 72", "components": {"house_number": "72", "street": "Hallbjønnsekken", "postcode": "3880", "locality": "Dalen"}, "country": "NO", "lat": 59.3585334, "lon": 7.7409632, "source": "golden"}
{"raw": "Haugesund, 5529, Salhusvegen 69C", "components": {"house_number": "69C", "street": "Salhusvegen", "postcode": "5529", "locality": "Haugesund"}, "country": "NO", "lat": 59.4005157, "lon": 5.285885, "source": "golden"}
{"raw": "Totlandsvegen 37, 5440 Mosterhamn", "components": {"house_number": "37", "street": "Totlandsvegen", "postcode": "5440", "locality": "Mosterhamn"}, "country": "NO", "lat": 59.6944475, "lon": 5.34295, "source": "golden"}
{"raw": "Strandgata 95B, 8480 Andenes", "components": {"house_number": "95B", "street": "Strandgata", "postcode": "8480", "locality": "Andenes"}, "country": "NO", "lat": 69.3119389, "lon": 16.1044502, "source": "golden"}
{"raw": "2165 Hvam, Enhjørningen 16", "components": {"house_number": "16", "street": "Enhjørningen", "postcode": "2165", "locality": "Hvam"}, "country": "NO", "lat": 60.1153507, "lon": 11.333023, "source": "golden"}
{"raw": "Tornes I Romsdal, 6443, Åsvegen 410", "components": {"house_number": "410", "street": "Åsvegen", "postcode": "6443", "locality": "Tornes I Romsdal"}, "country": "NO", "lat": 62.8593399, "lon": 7.0672024, "source": "golden"}
{"raw": "4886 Grimstad, Frivoll terrasse 27", "components": {"house_number": "27", "street": "Frivoll terrasse", "postcode": "4886", "locality": "Grimstad"}, "country": "NO", "lat": 58.3488781, "lon": 8.5498943, "source": "golden"}
{"raw": "8695 Hattfjelldal, Krutvatnet 29", "components": {"house_number": "29", "street": "Krutvatnet", "postcode": "8695", "locality": "Hattfjelldal"}, "country": "NO", "lat": 65.6996587, "lon": 14.4529831, "source": "golden"}
{"raw": "Heggenes, 2940, Murkhøvd 70R", "components": {"house_number": "70R", "street": "Murkhøvd", "postcode": "2940", "locality": "Heggenes"}, "country": "NO", "lat": 61.197441, "lon": 9.1396072, "source": "golden"}
{"raw": "5360 Kolltveit, Ekrhovdtunet 2", "components": {"house_number": "2", "street": "Ekrhovdtunet", "postcode": "5360", "locality": "Kolltveit"}, "country": "NO", "lat": 60.3269027, "lon": 5.1291045, "source": "golden"}
{"raw": "2632 Venabygd, Venabygdsvegen 962", "components": {"house_number": "962", "street": "Venabygdsvegen", "postcode": "2632", "locality": "Venabygd"}, "country": "NO", "lat": 61.6076946, "lon": 10.0177012, "source": "golden"}
{"raw": "Bardu, 9360, Østerdalsveien 618", "components": {"house_number": "618", "street": "Østerdalsveien", "postcode": "9360", "locality": "Bardu"}, "country": "NO", "lat": 68.8030987, "lon": 18.5398737, "source": "golden"}
{"raw": "Høyheimsvik, 6875, Høyheimsvegen 19", "components": {"house_number": "19", "street": "Høyheimsvegen", "postcode": "6875", "locality": "Høyheimsvik"}, "country": "NO", "lat": 61.4019795, "lon": 7.3957782, "source": "golden"}
{"raw": "Haltdalen, 7383, Bringenvegen 1003", "components": {"house_number": "1003", "street": "Bringenvegen", "postcode": "7383", "locality": "Haltdalen"}, "country": "NO", "lat": 63.010896, "lon": 11.1116685, "source": "golden"}
{"raw": "Russevågveien 550, 9303 Silsand", "components": {"house_number": "550", "street": "Russevågveien", "postcode": "9303", "locality": "Silsand"}, "country": "NO", "lat": 69.2011478, "lon": 17.9323563, "source": "golden"}
{"raw": "Narvik, 8514, Kongens gate 8A", "components": {"house_number": "8A", "street": "Kongens gate", "postcode": "8514", "locality": "Narvik"}, "country": "NO", "lat": 68.4336103, "lon": 17.4256363, "source": "golden"}
{"raw": "Infanterileiren 404, 9360 Bardu", "components": {"house_number": "404", "street": "Infanterileiren", "postcode": "9360", "locality": "Bardu"}, "country": "NO", "lat": 68.8600885, "lon": 18.3775337, "source": "golden"}
{"raw": "Engsveien 89, 1816 Skiptvet", "components": {"house_number": "89", "street": "Engsveien", "postcode": "1816", "locality": "Skiptvet"}, "country": "NO", "lat": 59.4816046, "lon": 11.2051788, "source": "golden"}
{"raw": "Hamnvik, 9450, Borgveien 28", "components": {"house_number": "28", "street": "Borgveien", "postcode": "9450", "locality": "Hamnvik"}, "country": "NO", "lat": 68.7788363, "lon": 17.1634016, "source": "golden"}
{"raw": "Langøy 63, 4550 Farsund", "components": {"house_number": "63", "street": "Langøy", "postcode": "4550", "locality": "Farsund"}, "country": "NO", "lat": 58.0760921, "lon": 6.8587506, "source": "golden"}
{"raw": "Stadsbygd, 7105, Kjerkmyran 59", "components": {"house_number": "59", "street": "Kjerkmyran", "postcode": "7105", "locality": "Stadsbygd"}, "country": "NO", "lat": 63.541879, "lon": 10.0171035, "source": "golden"}
{"raw": "2850 Lena, Gilegutua 27", "components": {"house_number": "27", "street": "Gilegutua", "postcode": "2850", "locality": "Lena"}, "country": "NO", "lat": 60.683031, "lon": 10.8562967, "source": "golden"}
{"raw": "Kirkenes, 9900, Pasvikveien 6", "components": {"house_number": "6", "street": "Pasvikveien", "postcode": "9900", "locality": "Kirkenes"}, "country": "NO", "lat": 69.7250462, "lon": 30.0481966, "source": "golden"}
{"raw": "Longyearbyen, 9170, Vei 620 549", "components": {"house_number": "549", "street": "Vei 620", "postcode": "9170", "locality": "Longyearbyen"}, "country": "NO", "lat": 78.2415506, "lon": 15.3514399, "source": "golden"}
{"raw": "Gabriels vei 49, 1783 Halden", "components": {"house_number": "49", "street": "Gabriels vei", "postcode": "1783", "locality": "Halden"}, "country": "NO", "lat": 59.1329393, "lon": 11.3477715, "source": "golden"}
{"raw": "Bø I Telemark, 3803, Roevegen 4", "components": {"house_number": "4", "street": "Roevegen", "postcode": "3803", "locality": "Bø I Telemark"}, "country": "NO", "lat": 59.3992473, "lon": 9.0527949, "source": "golden"}
{"raw": "7273 Norddyrøy, Dragsnesveien 178", "components": {"house_number": "178", "street": "Dragsnesveien", "postcode": "7273", "locality": "Norddyrøy"}, "country": "NO", "lat": 63.7892969, "lon": 8.7468549, "source": "golden"}
{"raw": "Valderøya, 6050, Skjongvika 29", "components": {"house_number": "29", "street": "Skjongvika", "postcode": "6050", "locality": "Valderøya"}, "country": "NO", "lat": 62.5033572, "lon": 6.1018585, "source": "golden"}
{"raw": "Bekkelivegen 3, 2890 Etnedal", "components": {"house_number": "3", "street": "Bekkelivegen", "postcode": "2890", "locality": "Etnedal"}, "country": "NO", "lat": 60.8259961, "lon": 9.7715798, "source": "golden"}
{"raw": "Villmarksveien 1890, 8694 Hattfjelldal", "components": {"house_number": "1890", "street": "Villmarksveien", "postcode": "8694", "locality": "Hattfjelldal"}, "country": "NO", "lat": 65.7181971, "lon": 13.945183, "source": "golden"}
{"raw": "Etnedal, 2890, Holmetjednvegen 11", "components": {"house_number": "11", "street": "Holmetjednvegen", "postcode": "2890", "locality": "Etnedal"}, "country": "NO", "lat": 60.9444816, "lon": 9.6653883, "source": "golden"}
{"raw": "Melhus, 7224, Åsvegen 572", "components": {"house_number": "572", "street": "Åsvegen", "postcode": "7224", "locality": "Melhus"}, "country": "NO", "lat": 63.313517, "lon": 10.354077, "source": "golden"}
{"raw": "Skarnes, 2100, Storsjøvegen 114", "components": {"house_number": "114", "street": "Storsjøvegen", "postcode": "2100", "locality": "Skarnes"}, "country": "NO", "lat": 60.2567587, "lon": 11.75333, "source": "golden"}
{"raw": "Flagget 26E, 5302 Strusshamn", "components": {"house_number": "26E", "street": "Flagget", "postcode": "5302", "locality": "Strusshamn"}, "country": "NO", "lat": 60.4057225, "lon": 5.1848619, "source": "golden"}
{"raw": "6050 Valderøya, Valderhaugbakkane 33", "components": {"house_number": "33", "street": "Valderhaugbakkane", "postcode": "6050", "locality": "Valderøya"}, "country": "NO", "lat": 62.5087356, "lon": 6.1317648, "source": "golden"}
{"raw": "Pulservikgata 68, 1680 Skjærhalden", "components": {"house_number": "68", "street": "Pulservikgata", "postcode": "1680", "locality": "Skjærhalden"}, "country": "NO", "lat": 59.0791642, "lon": 10.9896905, "source": "golden"}
{"raw": "Trossøya 1, 6570 Smøla", "components": {"house_number": "1", "street": "Trossøya", "postcode": "6570", "locality": "Smøla"}, "country": "NO", "lat": 63.4183075, "lon": 7.8110392, "source": "golden"}
{"raw": "7260 Sistranda, Tyttbærstien 15A", "components": {"house_number": "15A", "street": "Tyttbærstien", "postcode": "7260", "locality": "Sistranda"}, "country": "NO", "lat": 63.7251416, "lon": 8.8247186, "source": "golden"}
{"raw": "8064 Røst, Hammarsveien 4", "components": {"house_number": "4", "street": "Hammarsveien", "postcode": "8064", "locality": "Røst"}, "country": "NO", "lat": 67.5153164, "lon": 12.114565, "source": "golden"}
{"raw": "Fedje, 5947, Vidnappsvegen 39", "components": {"house_number": "39", "street": "Vidnappsvegen", "postcode": "5947", "locality": "Fedje"}, "country": "NO", "lat": 60.7820173, "lon": 4.6957798, "source": "golden"}
{"raw": "Sømna, 8920, Vestabergveien 5", "components": {"house_number": "5", "street": "Vestabergveien", "postcode": "8920", "locality": "Sømna"}, "country": "NO", "lat": 65.370421, "lon": 12.2002067, "source": "golden"}
{"raw": "Manger, 5936, Radøyvegen 1673D", "components": {"house_number": "1673D", "street": "Radøyvegen", "postcode": "5936", "locality": "Manger"}, "country": "NO", "lat": 60.6408987, "lon": 5.0458748, "source": "golden"}
{"raw": "Risdal, 4834, Svolbergheia 14", "components": {"house_number": "14", "street": "Svolbergheia", "postcode": "4834", "locality": "Risdal"}, "country": "NO", "lat": 58.687952, "lon": 8.1519278, "source": "golden"}
{"raw": "2770 Jaren, Sniklebakken 9", "components": {"house_number": "9", "street": "Sniklebakken", "postcode": "2770", "locality": "Jaren"}, "country": "NO", "lat": 60.4414899, "lon": 10.6474474, "source": "golden"}
{"raw": "Kvistadvegen 32, 6165 Sæbø", "components": {"house_number": "32", "street": "Kvistadvegen", "postcode": "6165", "locality": "Sæbø"}, "country": "NO", "lat": 62.189202, "lon": 6.4124076, "source": "golden"}
{"raw": "Sør-Fron, 2647, Nysetervegen 265", "components": {"house_number": "265", "street": "Nysetervegen", "postcode": "2647", "locality": "Sør-Fron"}, "country": "NO", "lat": 61.479142, "lon": 9.9371675, "source": "golden"}
{"raw": "Svanvikvegen 40, 6490 Eide", "components": {"house_number": "40", "street": "Svanvikvegen", "postcode": "6490", "locality": "Eide"}, "country": "NO", "lat": 62.8996042, "lon": 7.4403246, "source": "golden"}
{"raw": "Øvrebø, 4715, Slettebrotan 34", "components": {"house_number": "34", "street": "Slettebrotan", "postcode": "4715", "locality": "Øvrebø"}, "country": "NO", "lat": 58.266772, "lon": 7.8294468, "source": "golden"}
{"raw": "3890 Vinje, Lybergvegen 88", "components": {"house_number": "88", "street": "Lybergvegen", "postcode": "3890", "locality": "Vinje"}, "country": "NO", "lat": 59.6076075, "lon": 8.2432872, "source": "golden"}
{"raw": "8475 Straumsjøen, Husvågen 39", "components": {"house_number": "39", "street": "Husvågen", "postcode": "8475", "locality": "Straumsjøen"}, "country": "NO", "lat": 68.7280004, "lon": 14.5437002, "source": "golden"}
{"raw": "Sjøvegan, 9350, Lavangsnesveien 2016", "components": {"house_number": "2016", "street": "Lavangsnesveien", "postcode": "9350", "locality": "Sjøvegan"}, "country": "NO", "lat": 68.8340731, "lon": 17.4772229, "source": "golden"}
{"raw": "Onarheim, 5694, Solheimsdalen 239", "components": {"house_number": "239", "street": "Solheimsdalen", "postcode": "5694", "locality": "Onarheim"}, "country": "NO", "lat": 59.9801104, "lon": 5.6086945, "source": "golden"}
{"raw": "8683 Trofors, Valmuevegen 4", "components": {"house_number": "4", "street": "Valmuevegen", "postcode": "8683", "locality": "Trofors"}, "country": "NO", "lat": 65.5356237, "lon": 13.416763, "source": "golden"}
{"raw": "Brekke, 5961, Risnefjordvegen 159", "components": {"house_number": "159", "street": "Risnefjordvegen", "postcode": "5961", "locality": "Brekke"}, "country": "NO", "lat": 61.0168747, "lon": 5.4981793, "source": "golden"}
{"raw": "7882 Nordli, Rømmervassveien 119", "components": {"house_number": "119", "street": "Rømmervassveien", "postcode": "7882", "locality": "Nordli"}, "country": "NO", "lat": 64.5372198, "lon": 13.6739054, "source": "golden"}
{"raw": "Havøysund, 9690, Søndregata 10A", "components": {"house_number": "10A", "street": "Søndregata", "postcode": "9690", "locality": "Havøysund"}, "country": "NO", "lat": 70.9972554, "lon": 24.6566749, "source": "golden"}
{"raw": "Pungåsveien 38, 4985 Vegårshei", "components": {"house_number": "38", "street": "Pungåsveien", "postcode": "4985", "locality": "Vegårshei"}, "country": "NO", "lat": 58.7633946, "lon": 8.8669223, "source": "golden"}
{"raw": "Klokkerlia 30A, 3531 Krokkleiva", "components": {"house_number": "30A", "street": "Klokkerlia", "postcode": "3531", "locality": "Krokkleiva"}, "country": "NO", "lat": 60.050466, "lon": 10.2869732, "source": "golden"}
{"raw": "Kragerø, 3772, Åtangveien 11", "components": {"house_number": "11", "street": "Åtangveien", "postcode": "3772", "locality": "Kragerø"}, "country": "NO", "lat": 58.874664, "lon": 9.3543137, "source": "golden"}
{"raw": "7980 Terråk, Sørfjordveien 782", "components": {"house_number": "782", "street": "Sørfjordveien", "postcode": "7980", "locality": "Terråk"}, "country": "NO", "lat": 65.0565287, "lon": 12.2443982, "source": "golden"}
{"raw": "9790 Kjøllefjord, Johan Salmillas vei 37", "components": {"house_number": "37", "street": "Johan Salmillas vei", "postcode": "9790", "locality": "Kjøllefjord"}, "country": "NO", "lat": 70.9445594, "lon": 27.3482895, "source": "golden"}
{"raw": "Berlandsveien 26A, 4330 Ålgård", "components": {"house_number": "26A", "street": "Berlandsveien", "postcode": "4330", "locality": "Ålgård"}, "country": "NO", "lat": 58.7637931, "lon": 5.8480274, "source": "golden"}
{"raw": "2960 Røn, Åsheimsvegen 16", "components": {"house_number": "16", "street": "Åsheimsvegen", "postcode": "2960", "locality": "Røn"}, "country": "NO", "lat": 61.0538105, "lon": 8.9818474, "source": "golden"}
{"raw": "Løkkervegen 487, 2120 Sagstua", "components": {"house_number": "487", "street": "Løkkervegen", "postcode": "2120", "locality": "Sagstua"}, "country": "NO", "lat": 60.4114861, "lon": 11.4862465, "source": "golden"}
{"raw": "9055 Meistervik, Aursfjordveien 621", "components": {"house_number": "621", "street": "Aursfjordveien", "postcode": "9055", "locality": "Meistervik"}, "country": "NO", "lat": 69.3041227, "lon": 18.8885912, "source": "golden"}
{"raw": "Molde, 6415, Olsmedbakken 6E", "components": {"house_number": "6E", "street": "Olsmedbakken", "postcode": "6415", "locality": "Molde"}, "country": "NO", "lat": 62.7378944, "lon": 7.1676598, "source": "golden"}
{"raw": "6076 Moltustranda, Nygjerdevegen 15", "components": {"house_number": "15", "street": "Nygjerdevegen", "postcode": "6076", "locality": "Moltustranda"},