{"raw": "8281 Šedem, Šedem 32", "components": {"house_number": "32", "street": "Šedem", "postcode": "8281", "locality": "Šedem"}, "country": "SI", "lat": 46.0381694, "lon": 15.450142, "source": "golden"}
{"raw": "Prešernova ulica 10B, 6250 Ilirska Bistrica", "components": {"house_number": "10B", "street": "Prešernova ulica", "postcode": "6250", "locality": "Ilirska Bistrica"}, "country": "SI", "lat": 45.5648742, "lon": 14.2456355, "source": "golden"}
{"raw": "1000 Ljubljana, Vrhovci, cesta VI 1", "components": {"house_number": "1", "street": "Vrhovci, cesta VI", "postcode": "1000", "locality": "Ljubljana"}, "country": "SI", "lat": 46.0433612, "lon": 14.4567478, "source": "golden"}
{"raw": "1290 Spodnja Slivnica, Spodnja Slivnica 72", "components": {"house_number": "72", "street": "Spodnja Slivnica", "postcode": "1290", "locality": "Spodnja Slivnica"}, "country": "SI", "lat": 45.9300659, "lon": 14.657254, "source": "golden"}
{"raw": "6000 Koper / Capodistria, Dolga reber / Costa Lunga 37", "components": {"house_number": "37", "street": "Dolga reber / Costa Lunga", "postcode": "6000", "locality": "Koper / Capodistria"}, "country": "SI", "lat": 45.5438513, "lon": 13.6992096, "source": "golden"}
{"raw": "Muratova ulica 14, 2380 Slovenj Gradec", "components": {"house_number": "14", "street": "Muratova ulica", "postcode": "2380", "locality": "Slovenj Gradec"}, "country": "SI", "lat": 46.5057168, "lon": 15.0747522, "source": "golden"}
{"raw": "5000 Pristava, Kostanjeviška cesta 30", "components": {"house_number": "30", "street": "Kostanjeviška cesta", "postcode": "5000", "locality": "Pristava"}, "country": "SI", "lat": 45.947094, "lon": 13.6353255, "source": "golden"}
{"raw": "Fošt, 2316, Fošt 17", "components": {"house_number": "17", "street": "Fošt", "postcode": "2316", "locality": "Fošt"}, "country": "SI", "lat": 46.3997328, "lon": 15.4922242, "source": "golden"}
{"raw": "Brezovica, 8220, Brezovica 49", "components": {"house_number": "49", "street": "Brezovica", "postcode": "8220", "locality": "Brezovica"}, "country": "SI", "lat": 45.875595, "lon": 15.2396657, "source": "golden"}
{"raw": "4209 Šutna, Šutna 95", "components": {"house_number": "95", "street": "Šutna", "postcode": "4209", "locality": "Šutna"}, "country": "SI", "lat": 46.1998538, "lon": 14.3280307, "source": "golden"}
{"raw": "1410 Zagorje ob Savi, Na bregu 22", "components": {"house_number": "22", "street": "Na bregu", "postcode": "1410", "locality": "Zagorje ob Savi"}, "country": "SI", "lat": 46.1377755, "lon": 14.9856853, "source": "golden"}
{"raw": "Zagrad, 8275, Zagrad 6", "components": {"house_number": "6", "street": "Zagrad", "postcode": "8275", "locality": "Zagrad"}, "country": "SI", "lat": 45.9292655, "lon": 15.2568527, "source": "golden"}
{"raw": "Medvedjek 22, 8213 Medvedjek", "components": {"house_number": "22", "street": "Medvedjek", "postcode": "8213", "locality": "Medvedjek"}, "country": "SI", "lat": 45.9311231, "lon": 14.9136059, "source": "golden"}
{"raw": "4265 Stara Fužina, Stara Fužina 57", "components": {"house_number": "57", "street": "Stara Fužina", "postcode": "4265", "locality": "Stara Fužina"}, "country": "SI", "lat": 46.2876464, "lon": 13.8937873, "source": "golden"}
{"raw": "Avsa, 5222, Avsa 17", "components": {"house_number": "17", "street": "Avsa", "postcode": "5222", "locality": "Avsa"}, "country": "SI", "lat": 46.1995711, "lon": 13.5896965, "source": "golden"}
{"raw": "1420 Trbovlje, Keršičev hrib 16", "components": {"house_number": "16", "street": "Keršičev hrib", "postcode": "1420", "locality": "Trbovlje"}, "country": "SI", "lat": 46.1678346, "lon": 15.0505173, "source": "golden"}
{"raw": "Orešje nad Sevnico 27, 8290 Orešje nad Sevnico", "components": {"house_number": "27", "street": "Orešje nad Sevnico", "postcode": "8290", "locality": "Orešje nad Sevnico"}, "country": "SI", "lat": 46.0608528, "lon": 15.3124185, "source": "golden"}
{"raw": "1000 Ljubljana, Kančeva ulica 12", "components": {"house_number": "12", "street": "Kančeva ulica", "postcode": "1000", "locality": "Ljubljana"}, "country": "SI", "lat": 46.0355618, "lon": 14.4704924, "source": "golden"}
{"raw": "1000 Ljubljana, Štepanjska cesta 11", "components": {"house_number": "11", "street": "Štepanjska cesta", "postcode": "1000", "locality": "Ljubljana"}, "country": "SI", "lat": 46.049917, "lon": 14.5422548, "source": "golden"}
{"raw": "Vespazianova ulica 3, 2250 Ptuj", "components": {"house_number": "3", "street": "Vespazianova ulica", "postcode": "2250", "locality": "Ptuj"}, "country": "SI", "lat": 46.4172461, "lon": 15.8573047, "source": "golden"}
{"raw": "Zgornja Velka, 2213, Zgornja Velka 94", "components": {"house_number": "94", "street": "Zgornja Velka", "postcode": "2213", "locality": "Zgornja Velka"}, "country": "SI", "lat": 46.6814317, "lon": 15.7588325, "source": "golden"}
{"raw": "6273 Boršt, Boršt 48A", "components": {"house_number": "48A", "street": "Boršt", "postcode": "6273", "locality": "Boršt"}, "country": "SI", "lat": 45.4856501, "lon": 13.7986825, "source": "golden"}
{"raw": "3201 Slatina v Rožni dolini, Slatina v Rožni dolini 9L", "components": {"house_number": "9L", "street": "Slatina v Rožni dolini", "postcode": "3201", "locality": "Slatina v Rožni dolini"}, "country": "SI", "lat": 46.2795112, "lon": 15.248389, "source": "golden"}
{"raw": "Šmartno v Tuhinju, 1219, Šmartno v Tuhinju 17", "components": {"house_number": "17", "street": "Šmartno v Tuhinju", "postcode": "1219", "locality": "Šmartno v Tuhinju"}, "country": "SI", "lat": 46.2152224, "lon": 14.7341056, "source": "golden"}
{"raw": "Opatje selo, 5291, Opatje selo 2S", "components": {"house_number": "2S", "street": "Opatje selo", "postcode": "5291", "locality": "Opatje selo"}, "country": "SI", "lat": 45.85697, "lon": 13.5820297, "source": "golden"}
{"raw": "Trbinc 16A, 8233 Trbinc", "components": {"house_number": "16A", "street": "Trbinc", "postcode": "8233", "locality": "Trbinc"}, "country": "SI", "lat": 45.9489951, "lon": 15.0526399, "source": "golden"}
{"raw": "Uršna sela, 8323, Makute 6", "components": {"house_number": "6", "street": "Makute", "postcode": "8323", "locality": "Uršna sela"}, "country": "SI", "lat": 45.7234634, "lon": 15.1135656, "source": "golden"}
{"raw": "Ljubljana, 1000, Bistriška ulica 5", "components": {"house_number": "5", "street": "Bistriška ulica", "postcode": "1000", "locality": "Ljubljana"}, "country": "SI", "lat": 46.0268001, "lon": 14.5050642, "source": "golden"}
{"raw": "Oplotnica, 2317, Fošt 3", "components": {"house_number": "3", "street": "Fošt", "postcode": "2317", "locality": "Oplotnica"}, "country": "SI", "lat": 46.390694, "lon": 15.4430326, "source": "golden"}
{"raw": "9250 Zbigovci, Zbigovci 3A", "components": {"house_number": "3A", "street": "Zbigovci", "postcode": "9250", "locality": "Zbigovci"}, "country": "SI", "lat": 46.6518059, "lon": 15.9801829, "source": "golden"}
{"raw": "1431 Dol pri Hrastniku, Planinska cesta 11", "components": {"house_number": "11", "street": "Planinska cesta", "postcode": "1431", "locality": "Dol pri Hrastniku"}, "country": "SI", "lat": 46.1395342, "lon": 15.1168512, "source": "golden"}
{"raw": "Lučine, 4224, Lučine 38", "components": {"house_number": "38", "street": "Lučine", "postcode": "4224", "locality": "Lučine"}, "country": "SI", "lat": 46.0584533, "lon": 14.197468, "source": "golden"}
{"raw": "Zabiče 8, 6250 Zabiče", "components": {"house_number": "8", "street": "Zabiče", "postcode": "6250", "locality": "Zabiče"}, "country": "SI", "lat": 45.5150988, "lon": 14.3438828, "source": "golden"}
{"raw": "Izlake, 1411, Spodnji Prhovec 3", "components": {"house_number": "3", "street": "Spodnji Prhovec", "postcode": "1411", "locality": "Izlake"}, "country": "SI", "lat": 46.1621037, "lon": 14.9190849, "source": "golden"}
{"raw": "Šenčur, 4208, Mlakarjeva ulica 43", "components": {"house_number": "43", "street": "Mlakarjeva ulica", "postcode": "4208", "locality": "Šenčur"}, "country": "SI", "lat": 46.2407337, "lon": 14.4139958, "source": "golden"}
{"raw": "Lončarovci, 9206, Lončarovci 22C", "components": {"house_number": "22C", "street": "Lončarovci", "postcode": "9206", "locality": "Lončarovci"}, "country": "SI", "lat": 46.7663015, "lon": 16.2705984, "source": "golden"}
{"raw": "Lendavska cesta 13D, 9240 Ljutomer", "components": {"house_number": "13D", "street": "Lendavska cesta", "postcode": "9240", "locality": "Ljutomer"}, "country": "SI", "lat": 46.514356, "lon": 16.2100697, "source": "golden"}
{"raw": "Cesta 1. maja 116, 4270 Jesenice", "components": {"house_number": "116", "street": "Cesta 1. maja", "postcode": "4270", "locality": "Jesenice"}, "country": "SI", "lat": 46.4278657, "lon": 14.068325, "source": "golden"}
{"raw": "Ljubljana, 1000, Maleševa ulica 30", "components": {"house_number": "30", "street": "Maleševa ulica", "postcode": "1000", "locality": "Ljubljana"}, "country": "SI", "lat": 46.066486, "lon": 14.4723296, "source": "golden"}
{"raw": "Brezovica pri Ljubljani, 1351, Poštna ulica 25", "components": {"house_number": "25", "street": "Poštna ulica", "postcode": "1351", "locality": "Brezovica pri Ljubljani"}, "country": "SI", "lat": 46.0230813, "lon": 14.4149694, "source": "golden"}
{"raw": "Sežana, 6210, Partizanska cesta 23", "components": {"house_number": "23", "street": "Partizanska cesta", "postcode": "6210", "locality": "Sežana"}, "country": "SI", "lat": 45.7080638, "lon": 13.8712561, "source": "golden"}
{"raw": "Vrbica 30A, 6250 Vrbica", "components": {"house_number": "30A", "street": "Vrbica", "postcode": "6250", "locality": "Vrbica"}, "country": "SI", "lat": 45.5460764, "lon": 14.2876613, "source": "golden"}
{"raw": "4000 Kokrica, Kuratova ulica 40", "components": {"house_number": "40", "street": "Kuratova ulica", "postcode": "4000", "locality": "Kokrica"}, "country": "SI", "lat": 46.2628228, "lon": 14.3572146, "source": "golden"}
{"raw": "Industrijska cesta 3, 6230 Postojna", "components": {"house_number": "3", "street": "Industrijska cesta", "postcode": "6230", "locality": "Postojna"}, "country": "SI", "lat": 45.7670594, "lon": 14.1962188, "source": "golden"}
{"raw": "Ciril Metodova ulica 50, 9000 Murska Sobota", "components": {"house_number": "50", "street": "Ciril Metodova ulica", "postcode": "9000", "locality": "Murska Sobota"}, "country": "SI", "lat": 46.6634267, "lon": 16.1523262, "source": "golden"}
{"raw": "Belca, 4281, Belca 34", "components": {"house_number": "34", "street": "Belca", "postcode": "4281", "locality": "Belca"}, "country": "SI", "lat": 46.4745981, "lon": 13.899446, "source": "golden"}
{"raw": "Orlek, 6210, Orlek 39", "components": {"house_number": "39", "street": "Orlek", "postcode": "6210", "locality": "Orlek"}, "country": "SI", "lat": 45.6883853, "lon": 13.8416349, "source": "golden"}
{"raw": "Ljubljana, 1211, Seunigova ulica 5", "components": {"house_number": "5", "street": "Seunigova ulica", "postcode": "1211", "locality": "Ljubljana"}, "country": "SI", "lat": 46.120564, "lon": 14.4575939, "source": "golden"}
{"raw": "Gradišče VI 4, 1291 Gradišče", "components": {"house_number": "4", "street": "Gradišče VI", "postcode": "1291", "locality": "Gradišče"}, "country": "SI", "lat": 45.9264626, "lon": 14.582919, "source": "golden"}
{"raw": "2285 Veliki Okič, Veliki Okič 25", "components": {"house_number": "25", "street": "Veliki Okič", "postcode": "2285", "locality": "Veliki Okič"}, "country": "SI", "lat": 46.3227948, "lon": 15.9645505, "source": "golden"}
{"raw": "Spodnje Hoče, 2311, Mlinska ulica 56", "components": {"house_number": "56", "street": "Mlinska ulica", "postcode": "2311", "locality": "Spodnje Hoče"}, "country": "SI", "lat": 46.4982576, "lon": 15.6364347, "source": "golden"}
{"raw": "Lepa pot 10, 1354 Horjul", "components": {"house_number": "10", "street": "Lepa pot", "postcode": "1354", "locality": "Horjul"}, "country": "SI", "lat": 46.0250133, "lon": 14.2964144, "source": "golden"}
{"raw": "Petanjci 102, 9251 Petanjci", "components": {"house_number": "102", "street": "Petanjci", "postcode": "9251", "locality": "Petanjci"}, "country": "SI", "lat": 46.6511117, "lon": 16.0522621, "source": "golden"}
{"raw": "Ajdovščina, 5270, Cesta IV. Prekomorske 37", "components": {"house_number": "37", "street": "Cesta IV. Prekomorske", "postcode": "5270", "locality": "Ajdovščina"}, "country": "SI", "lat": 45.8894301, "lon": 13.9076087, "source": "golden"}
{"raw": "1431 Brdce, Brdce 3B", "components": {"house_number": "3B", "street": "Brdce", "postcode": "1431", "locality": "Brdce"}, "country": "SI", "lat": 46.1446198, "lon": 15.1462846, "source": "golden"}
{"raw": "Slap, 5271, Slap 17", "components": {"house_number": "17", "street": "Slap", "postcode": "5271", "locality": "Slap"}, "country": "SI", "lat": 45.842421, "lon": 13.9290378, "source": "golden"}
{"raw": "Cankarjeva ulica 12, 2310 Slovenska Bistrica", "components": {"house_number": "12", "street": "Cankarjeva ulica", "postcode": "2310", "locality": "Slovenska Bistrica"}, "country": "SI", "lat": 46.3876322, "lon": 15.5641971, "source": "golden"}
{"raw": "1000 Ljubljana, Medenska cesta 24H", "components": {"house_number": "24H", "street": "Medenska cesta", "postcode": "1000", "locality": "Ljubljana"}, "country": "SI", "lat": 46.1070613, "lon": 14.4581273, "source": "golden"}
{"raw": "Radlje ob Dravi, 2360, Partizanska ulica 22", "components": {"house_number": "22", "street": "Partizanska ulica", "postcode": "2360", "locality": "Radlje ob Dravi"}, "country": "SI", "lat": 46.6150452, "lon": 15.2256868, "source": "golden"}
{"raw": "Lahomno, 3270, Lahomno 2C", "components": {"house_number": "2C", "street": "Lahomno", "postcode": "3270", "locality": "Lahomno"}, "country": "SI", "lat": 46.143627, "lon": 15.2473889, "source": "golden"}
{"raw": "Žikarce 22B, 2242 Žikarce", "components": {"house_number": "22B", "street": "Žikarce", "postcode": "2242", "locality": "Žikarce"}, "country": "SI", "lat": 46.5237521, "lon": 15.7950198, "source": "golden"}
{"raw": "Okroglo 18, 4202 Okroglo", "components": {"house_number": "18", "street": "Okroglo", "postcode": "4202", "locality": "Okroglo"}, "country": "SI", "lat": 46.2591239, "lon": 14.3257893, "source": "golden"}
{"raw": "4220 Škofja Loka, Cankarjev trg 11", "components": {"house_number": "11", "street": "Cankarjev trg", "postcode": "4220", "locality": "Škofja Loka"}, "country": "SI", "lat": 46.1658989, "lon": 14.3071295, "source": "golden"}
{"raw": "8270 Spodnji Stari Grad, Spodnji Stari Grad 59", "components": {"house_number": "59", "street": "Spodnji Stari Grad", "postcode": "8270", "locality": "Spodnji Stari Grad"}, "country": "SI", "lat": 45.9450024, "lon": 15.5309792, "source": "golden"}
{"raw": "Cerkno, 5282, Mostaniška cesta 56", "components": {"house_number": "56", "street": "Mostaniška cesta", "postcode": "5282", "locality": "Cerkno"}, "country": "SI", "lat": 46.1373971, "lon": 13.9877362, "source": "golden"}
{"raw": "8270 Dolenja vas pri Krškem, Dolenja vas pri Krškem 120", "components": {"house_number": "120", "street": "Dolenja vas pri Krškem", "postcode": "8270", "locality": "Dolenja vas pri Krškem"}, "country": "SI", "lat": 45.9479668, "lon": 15.5491558, "source": "golden"}
{"raw": "Kal-Koritnica 47, 5230 Kal-Koritnica", "components": {"house_number": "47", "street": "Kal-Koritnica", "postcode": "5230", "locality": "Kal-Koritnica"}, "country": "SI", "lat": 46.3364898, "lon": 13.5829195, "source": "golden"}
{"raw": "Apače 108, 2324 Apače", "components": {"house_number": "108", "street": "Apače", "postcode": "2324", "locality": "Apače"}, "country": "SI", "lat": 46.3785077, "lon": 15.8010729, "source": "golden"}
{"raw": "Klenik 3, 1252 Klenik", "components": {"house_number": "3", "street": "Klenik", "postcode": "1252", "locality": "Klenik"}, "country": "SI", "lat": 46.1209191, "lon": 14.8457819, "source": "golden"}
{"raw": "2201 Kozjak nad Pesnico, Kozjak nad Pesnico 46", "components": {"house_number": "46", "street": "Kozjak nad Pesnico", "postcode": "2201", "locality": "Kozjak nad Pesnico"}, "country": "SI", "lat": 46.6187074, "lon": 15.6281563, "source": "golden"}
{"raw": "Prapretno pri Hrastniku - del, 1430, Prapretno pri Hrastniku - del 4", "components": {"house_number": "4", "street": "Prapretno pri Hrastniku - del", "postcode": "1430", "locality": "Prapretno pri Hrastniku - del"}, "country": "SI", "lat": 46.1355794, "lon": 15.0809539, "source": "golden"}
{"raw": "Nova pot 55, 1351 Vnanje Gorice", "components": {"house_number": "55", "street": "Nova pot", "postcode": "1351", "locality": "Vnanje Gorice"}, "country": "SI", "lat": 46.0101774, "lon": 14.4200124, "source": "golden"}
{"raw": "Zadobje, 4224, Zadobje 2", "components": {"house_number": "2", "street": "Zadobje", "postcode": "4224", "locality": "Zadobje"}, "country": "SI", "lat": 46.0738154, "lon": 14.1915571, "source": "golden"}
{"raw": "1410 Rove, Rove 6A", "components": {"house_number": "6A", "street": "Rove", "postcode": "1410", "locality": "Rove"}, "country": "SI", "lat": 46.1558152, "lon": 14.9849297, "source": "golden"}
{"raw": "Drnovo 17B, 8273 Drnovo", "components": {"house_number": "17B", "street": "Drnovo", "postcode": "8273", "locality": "Drnovo"}, "country": "SI", "lat": 45.9167245, "lon": 15.481774, "source": "golden"}
{"raw": "6000 Bonini, Bonini 17", "components": {"house_number": "17", "street": "Bonini", "postcode": "6000", "locality": "Bonini"}, "country": "SI", "lat": 45.5290863, "lon": 13.7868247, "source": "golden"}
{"raw": "Prisoje 17, 2391 Prevalje", "components": {"house_number": "17", "street": "Prisoje", "postcode": "2391", "locality": "Prevalje"}, "country": "SI", "lat": 46.5478424, "lon": 14.9159055, "source": "golden"}
{"raw": "Križevci, 9206, Križevci 149", "components": {"house_number": "149", "street": "Križevci", "postcode": "9206", "locality": "Križevci"}, "country": "SI", "lat": 46.7809588, "lon": 16.2325842, "source": "golden"}
{"raw": "Prevalje, 2391, Stare sledi 18", "components": {"house_number": "18", "street": "Stare sledi", "postcode": "2391", "locality": "Prevalje"}, "country": "SI", "lat": 46.5427668, "lon": 14.9139576, "source": "golden"}
{"raw": "Slovenska ulica 40, 2212 Šentilj v Slov. goricah", "components": {"house_number": "40", "street": "Slovenska ulica", "postcode": "2212", "locality": "Šentilj v Slov. goricah"}, "country": "SI", "lat": 46.6861468, "lon": 15.6458413, "source": "golden"}
{"raw": "Zagorje ob Savi, 1410, Levstikova ulica 7A", "components": {"house_number": "7A", "street": "Levstikova ulica", "postcode": "1410", "locality": "Zagorje ob Savi"}, "country": "SI", "lat": 46.1376143, "lon": 14.994564, "source": "golden"}
{"raw": "Stranska pot 5, 4270 Koroška Bela", "components": {"house_number": "5", "street": "Stranska pot", "postcode": "4270", "locality": "Koroška Bela"}, "country": "SI", "lat": 46.4286798, "lon": 14.1026226, "source": "golden"}
{"raw": "Brode 9, 3305 Brode", "components": {"house_number": "9", "street": "Brode", "postcode": "3305", "locality": "Brode"}, "country": "SI", "lat": 46.2432742, "lon": 14.9661935, "source": "golden"}
{"raw": "6320 Strunjan / Strugnano, Strunjan / Strugnano 52C", "components": {"house_number": "52C", "street": "Strunjan / Strugnano", "postcode": "6320", "locality": "Strunjan / Strugnano"}, "country": "SI", "lat": 45.5223993, "lon": 13.6069097, "source": "golden"}
{"raw": "Bukovci 84K, 2281 Bukovci", "components": {"house_number": "84K", "street": "Bukovci", "postcode": "2281", "locality": "Bukovci"}, "country": "SI", "lat": 46.3866492, "lon": 15.9654147, "source": "golden"}
{"raw": "Vurmat - del 19, 2361 Vurmat - del", "components": {"house_number": "19", "street": "Vurmat - del", "postcode": "2361", "locality": "Vurmat - del"}, "country": "SI", "lat": 46.5742654, "lon": 15.4120792, "source": "golden"}
{"raw": "Zgornja Pohanca, 8272, Zgornja Pohanca 12", "components": {"house_number": "12", "street": "Zgornja Pohanca", "postcode": "8272", "locality": "Zgornja Pohanca"}, "country": "SI", "lat": 45.9809952, "lon": 15.558878, "source": "golden"}
{"raw": "Šentjur, 3230, Cesta na Brdo 18", "components": {"house_number": "18", "street": "Cesta na Brdo", "postcode": "3230", "locality": "Šentjur"}, "country": "SI", "lat": 46.2062524, "lon": 15.3803817, "source": "golden"}
{"raw": "3230 Lokarje, Lokarje 2C", "components": {"house_number": "2C", "street": "Lokarje", "postcode": "3230", "locality": "Lokarje"}, "country": "SI", "lat": 46.2331215, "lon": 15.3874907, "source": "golden"}
{"raw": "Ulica padlih borcev 8, 6258 Prestranek", "components": {"house_number": "8", "street": "Ulica padlih borcev", "postcode": "6258", "locality": "Prestranek"}, "country": "SI", "lat": 45.7294073, "lon": 14.1829345, "source": "golden"}
{"raw": "Mlinše 35C, 1411 Mlinše", "components": {"house_number": "35C", "street": "Mlinše", "postcode": "1411", "locality": "Mlinše"}, "country": "SI", "lat": 46.1467054, "lon": 14.8834054, "source": "golden"}
{"raw": "Breg 24, 2392 Breg", "components": {"house_number": "24", "street": "Breg", "postcode": "2392", "locality": "Breg"}, "country": "SI", "lat": 46.5044867, "lon": 14.8682061, "source": "golden"}
{"raw": "Ižakovci 87, 9231 Ižakovci", "components": {"house_number": "87", "street": "Ižakovci", "postcode": "9231", "locality": "Ižakovci"}, "country": "SI", "lat": 46.5859886, "lon": 16.2160606, "source": "golden"}
{"raw": "Podlipovica, 1411, Podlipovica 18", "components": {"house_number": "18", "street": "Podlipovica", "postcode": "1411", "locality": "Podlipovica"}, "country": "SI", "lat": 46.1641241, "lon": 14.9135915, "source": "golden"}
{"raw": "Hmeljčič, 8216, Hmeljčič 155", "components": {"house_number": "155", "street": "Hmeljčič", "postcode": "8216", "locality": "Hmeljčič"}, "country": "SI", "lat": 45.8752427, "lon": 15.1288944, "source": "golden"}
{"raw": "Log, 1223, Log 4", "components": {"house_number": "4", "street": "Log", "postcode": "1223", "locality": "Log"}, "country": "SI", "lat": 46.1876131, "lon": 14.8365921, "source": "golden"}
{"raw": "Podcerkev, 1386, Podcerkev 15", "components": {"house_number": "15", "street": "Podcerkev", "postcode": "1386", "locality": "Podcerkev"}, "country": "SI", "lat": 45.7133514, "lon": 14.4576423, "source": "golden"}
{"raw": "Fokovci 16, 9208 Fokovci", "components": {"house_number": "16", "street": "Fokovci", "postcode": "9208", "locality": "Fokovci"}, "country": "SI", "lat": 46.7366807, "lon": 16.2660945, "source": "golden"}
{"raw": "Pertoča 106, 9262 Pertoča", "components": {"house_number": "106", "street": "Pertoča", "postcode": "9262", "locality": "Pertoča"}, "country": "SI", "lat": 46.7701794, "lon": 16.0237697, "source": "golden"}
{"raw": "Spodnje Škofije 63, 6281 Spodnje Škofije", "components": {"house_number": "63", "street": "Spodnje Škofije", "postcode": "6281", "locality": "Spodnje Škofije"}, "country": "SI", "lat": 45.5700111, "lon": 13.7910814, "source": "golden"}
{"raw": "1380 Cerknica, Zidanškova ulica 3", "components": {"house_number": "3", "street": "Zidanškova ulica", "postcode": "1380", "locality": "Cerknica"}, "country": "SI", "lat": 45.7985331, "lon": 14.3597573, "source": "golden"}
{"raw": "2250 Ptuj, Langusova ulica 6", "components": {"house_number": "6", "street": "Langusova ulica", "postcode": "2250", "locality": "Ptuj"}, "country": "SI", "lat": 46.4304888, "lon": 15.8834322, "source": "golden"}
{"raw": "Rožički Vrh 70, 9244 Rožički Vrh", "components": {"house_number": "70", "street": "Rožički Vrh", "postcode": "9244", "locality": "Rožički Vrh"}, "country": "SI", "lat": 46.5890062, "lon": 16.0415592, "source": "golden"}
{"raw": "5297 Prvačina, Prvačina 128", "components": {"house_number": "128", "street": "Prvačina", "postcode": "5297", "locality": "Prvačina"}, "country": "SI", "lat": 45.888556, "lon": 13.7234753, "source": "golden"}
{"raw": "1281 Jevnica, Jevnica 50", "components": {"house_number": "50", "street": "Jevnica", "postcode": "1281", "locality": "Jevnica"}, "country": "SI", "lat": 46.0829862, "lon": 14.7374439, "source": "golden"}
{"raw": "2284 Pobrežje, Pobrežje 147A", "components": {"house_number": "147A", "street": "Pobrežje", "postcode": "2284", "locality": "Pobrežje"}, "country": "SI", "lat": 46.3754431, "lon": 15.9020945, "source": "golden"}
{"raw": "2277 Središče ob Dravi, Dravska ulica 6", "components": {"house_number": "6", "street": "Dravska ulica", "postcode": "2277", "locality": "Središče ob Dravi"}, "country": "SI", "lat": 46.3918439, "lon": 16.2705789, "source": "golden"}
{"raw": "Ajdovščina, 5270, Na Brajdi 5", "components": {"house_number": "5", "street": "Na Brajdi", "postcode": "5270", "locality": "Ajdovščina"}, "country": "SI", "lat": 45.8904756, "lon": 13.9125104, "source": "golden"}
{"raw": "Pivka, 6257, Kolodvorska cesta 22", "components": {"house_number": "22", "street": "Kolodvorska cesta", "postcode": "6257", "locality": "Pivka"}, "country": "SI", "lat": 45.6812456, "lon": 14.1950866, "source": "golden"}
{"raw": "Slovenska cesta 22, 1234 Mengeš", "components": {"house_number": "22", "street": "Slovenska cesta", "postcode": "1234", "locality": "Mengeš"}, "country": "SI", "lat": 46.1660615, "lon": 14.5713998, "source": "golden"}
{"raw": "Kanižarica 18, 8340 Kanižarica", "components": {"house_number": "18", "street": "Kanižarica", "postcode": "8340", "locality": "Kanižarica"}, "country": "SI", "lat": 45.5618887, "lon": 15.1671437, "source": "golden"}
{"raw": "Bizeljsko, 8259, Okrogi 9", "components": {"house_number": "9", "street": "Okrogi", "postcode": "8259", "locality": "Bizeljsko"}, "country": "SI", "lat": 46.0237926, "lon": 15.6853324, "source": "golden"}
{"raw": "5282 Cerkno, Cvetkova cesta 37", "components": {"house_number": "37", "street": "Cvetkova cesta", "postcode": "5282", "locality": "Cerkno"}, "country": "SI", "lat": 46.1303693, "lon": 13.9927438, "source": "golden"}
{"raw": "2250 Ptuj, Orešje 30", "components": {"house_number": "30", "street": "Orešje", "postcode": "2250", "locality": "Ptuj"}, "country": "SI", "lat": 46.4300093, "lon": 15.8541868, "source": "golden"}
{"raw": "6274 Krkavče, Krkavče 100", "components": {"house_number": "100", "street": "Krkavče", "postcode": "6274", "locality": "Krkavče"}, "country": "SI", "lat": 45.4656671, "lon": 13.7026845, "source": "golden"}
{"raw": "2285 Veliki Okič, Veliki Okič 5", "components": {"house_number": "5", "street": "Veliki Okič", "postcode": "2285", "locality": "Veliki Okič"}, "country": "SI", "lat": 46.3352797, "lon": 15.9585091, "source": "golden"}
{"raw": "Velika Planina 95, 1242 Velika Planina", "components": {"house_number": "95", "street": "Velika Planina", "postcode": "1242", "locality": "Velika Planina"}, "country": "SI", "lat": 46.30311, "lon": 14.6397448, "source": "golden"}
{"raw": "Ulica Ivana Kosovela 23, 5270 Ajdovščina", "components": {"house_number": "23", "street": "Ulica Ivana Kosovela", "postcode": "5270", "locality": "Ajdovščina"}, "country": "SI", "lat": 45.8843845, "lon": 13.9191872, "source": "golden"}
{"raw": "Ažmanova ulica 29, 1000 Ljubljana", "components": {"house_number": "29", "street": "Ažmanova ulica", "postcode": "1000", "locality": "Ljubljana"}, "country": "SI", "lat": 46.045562, "lon": 14.4597756, "source": "golden"}
{"raw": "6230 Šmihel pod Nanosom, Šmihel pod Nanosom 23", "components": {"house_number": "23", "street": "Šmihel pod Nanosom", "postcode": "6230", "locality": "Šmihel pod Nanosom"}, "country": "SI", "lat": 45.7969599, "lon": 14.1204978, "source": "golden"}
{"raw": "9251 Murski Črnci, Murski Črnci 21", "components": {"house_number": "21", "street": "Murski Črnci", "postcode": "9251", "locality": "Murski Črnci"}, "country": "SI", "lat": 46.640013, "lon": 16.112773, "source": "golden"}
{"raw": "4202 Cegelnica, Cegelnica 15", "components": {"house_number": "15", "street": "Cegelnica", "postcode": "4202", "locality": "Cegelnica"}, "country": "SI", "lat": 46.279435, "lon": 14.3204406, "source": "golden"}
{"raw": "Podlanišče, 5282, Podlanišče 1A", "components": {"house_number": "1A", "street": "Podlanišče", "postcode": "5282", "locality": "Podlanišče"}, "country": "SI", "lat": 46.1103664, "lon": 14.0132115, "source": "golden"}
{"raw": "Spodnja cesta 5, 3250 Rogaška Slatina", "components": {"house_number": "5", "street": "Spodnja cesta", "postcode": "3250", "locality": "Rogaška Slatina"}, "country": "SI", "lat": 46.2427651, "lon": 15.6270939, "source": "golden"}
{"raw": "Podlesje 6, 1330 Podlesje", "components": {"house_number": "6", "street": "Podlesje", "postcode": "1330", "locality": "Podlesje"}, "country": "SI", "lat": 45.5076146, "lon": 14.9841438, "source": "golden"}
{"raw": "Javnik 58, 2363 Javnik", "components": {"house_number": "58", "street": "Javnik", "postcode": "2363", "locality": "Javnik"}, "country": "SI", "lat": 46.592617, "lon": 15.341575, "source": "golden"}
{"raw": "1433 Obrežje, Obrežje 61", "components": {"house_number": "61", "street": "Obrežje", "postcode": "1433", "locality": "Obrežje"}, "country": "SI", "lat": 46.0689634, "lon": 15.1871528, "source": "golden"}
{"raw": "6254 Jelšane, Jelšane 15C", "components": {"house_number": "15C", "street": "Jelšane", "postcode": "6254", "locality": "Jelšane"}, "country": "SI", "lat": 45.4966042, "lon": 14.2763731, "source": "golden"}
{"raw": "Bizeljsko, 8259, Pot na Žalce 11", "components": {"house_number": "11", "street": "Pot na Žalce", "postcode": "8259", "locality": "Bizeljsko"}, "country": "SI", "lat": 46.0181574, "lon": 15.6947165, "source": "golden"}
{"raw": "Trbovlje, 1420, Vreskovo 77", "components": {"house_number": "77", "street": "Vreskovo", "postcode": "1420", "locality": "Trbovlje"}, "country": "SI", "lat": 46.152861, "lon": 15.0546594, "source": "golden"}
{"raw": "Brežice, 8250, Ob potoku 12", "components": {"house_number": "12", "street": "Ob potoku", "postcode": "8250", "locality": "Brežice"}, "country": "SI", "lat": 45.9090341, "lon": 15.607677, "source": "golden"}
{"raw": "Tolminska cesta 30, 5281 Spodnja Idrija", "components": {"house_number": "30", "street": "Tolminska cesta", "postcode": "5281", "locality": "Spodnja Idrija"}, "country": "SI", "lat": 46.0497798, "lon": 14.0293197, "source": "golden"}
{"raw": "3313 Breg pri Polzeli, Savinjska cesta 65", "components": {"house_number": "65", "street": "Savinjska cesta", "postcode": "3313", "locality": "Breg pri Polzeli"}, "country": "SI", "lat": 46.2653469, "lon": 15.0821826, "source": "golden"}
{"raw": "1431 Dol pri Hrastniku, Partizanska cesta 82", "components": {"house_number": "82", "street": "Partizanska cesta", "postcode": "1431", "locality": "Dol pri Hrastniku"}, "country": "SI", "lat": 46.1538554, "lon": 15.1104342, "source": "golden"}
{"raw": "Vilharjeva ulica 24, 6257 Pivka", "components": {"house_number": "24", "street": "Vilharjeva ulica", "postcode": "6257", "locality": "Pivka"}, "country": "SI", "lat": 45.6863886, "lon": 14.1958088, "source": "golden"}
{"raw": "Čežarji, 6276, Oljarska pot 9", "components": {"house_number": "9", "street": "Oljarska pot", "postcode": "6276", "locality": "Čežarji"}, "country": "SI", "lat": 45.5363524, "lon": 13.8051705, "source": "golden"}
{"raw": "Mala Loka 2A, 8212 Mala Loka", "components": {"house_number": "2A", "street": "Mala Loka", "postcode": "8212", "locality": "Mala Loka"}, "country": "SI", "lat": 45.9420381, "lon": 14.9663126, "source": "golden"}
{"raw": "6000 Koper / Capodistria, Titov trg / Piazza Tito 1", "components": {"house_number": "1", "street": "Titov trg / Piazza Tito", "postcode": "6000", "locality": "Koper / Capodistria"}, "country": "SI", "lat": 45.5484505, "lon": 13.7296864, "source": "golden"}
{"raw": "Iška vas, 1292, Iška vas 71", "components": {"house_number": "71", "street": "Iška vas", "postcode": "1292", "locality": "Iška vas"}, "country": "SI", "lat": 45.9393832, "lon": 14.5103047, "source": "golden"}
{"raw": "Maribor, 2000, Glinškova ulica 8A", "components": {"house_number": "8A", "street": "Glinškova ulica", "postcode": "2000", "locality": "Maribor"}, "country": "SI", "lat": 46.5276274, "lon": 15.6780208, "source": "golden"}
{"raw": "8310 Mihovica, Mihovica 28", "components": {"house_number": "28", "street": "Mihovica", "postcode": "8310", "locality": "Mihovica"}, "country": "SI", "lat": 45.8619661, "lon": 15.3351281, "source": "golden"}
{"raw": "Rihtarovci 16A, 9252 Rihtarovci", "components": {"house_number": "16A", "street": "Rihtarovci", "postcode": "9252", "locality": "Rihtarovci"}, "country": "SI", "lat": 46.6309601, "lon": 16.0541047, "source": "golden"}
{"raw": "Grad, 9264, Grad 194B", "components": {"house_number": "194B", "street": "Grad", "postcode": "9264", "locality": "Grad"}, "country": "SI", "lat": 46.7980848, "lon": 16.0967833, "source": "golden"}
{"raw": "Krška vas 88A, 8262 Krška vas", "components": {"house_number": "88A", "street": "Krška vas", "postcode": "8262", "locality": "Krška vas"}, "country": "SI", "lat": 45.8959236, "lon": 15.5729852, "source": "golden"}
{"raw": "Vučja vas, 9242, Vučja vas 24", "components": {"house_number": "24", "street": "Vučja vas", "postcode": "9242", "locality": "Vučja vas"}, "country": "SI", "lat": 46.5980581, "lon": 16.0953767, "source": "golden"}
{"raw": "9262 Ocinje, Ocinje 41", "components": {"house_number": "41", "street": "Ocinje", "postcode": "9262", "locality": "Ocinje"}, "country": "SI", "lat": 46.8285767, "lon": 16.0094502, "source": "golden"}
{"raw": "Sv. Duh, 4220, Sv. Duh 183", "components": {"house_number": "183", "street": "Sv. Duh", "postcode": "4220", "locality": "Sv. Duh"}, "country": "SI", "lat": 46.1856054, "lon": 14.3240331, "source": "golden"}
{"raw": "Dovje 102, 4281 Dovje", "components": {"house_number": "102", "street": "Dovje", "postcode": "4281", "locality": "Dovje"}, "country": "SI", "lat": 46.4684414, "lon": 13.9449746, "source": "golden"}
{"raw": "Maribor, 2000, Filipičeva ulica 14", "components": {"house_number": "14", "street": "Filipičeva ulica", "postcode": "2000", "locality": "Maribor"}, "country": "SI", "lat": 46.5554581, "lon": 15.6136409, "source": "golden"}
{"raw": "Stara ulica 1A, 2390 Ravne na Koroškem", "components": {"house_number": "1A", "street": "Stara ulica", "postcode": "2390", "locality": "Ravne na Koroškem"}, "country": "SI", "lat": 46.545502, "lon": 14.9657717, "source": "golden"}
{"raw": "Orehovica 35, 1411 Orehovica", "components": {"house_number": "35", "street": "Orehovica", "postcode": "1411", "locality": "Orehovica"}, "country": "SI", "lat": 46.1728056, "lon": 14.9122958, "source": "golden"}
{"raw": "Kranj, 4000, Ulica Mirka Vadnova 7", "components": {"house_number": "7", "street": "Ulica Mirka Vadnova", "postcode": "4000", "locality": "Kranj"}, "country": "SI", "lat": 46.2447861, "lon": 14.3722995, "source": "golden"}
{"raw": "Trg Slavka Osterca 19, 9241 Veržej", "components": {"house_number": "19", "street": "Trg Slavka Osterca", "postcode": "9241", "locality": "Veržej"}, "country": "SI", "lat": 46.5820113, "lon": 16.1624737, "source": "golden"}
{"raw": "Kajuhova cesta 10, 3320 Velenje", "components": {"house_number": "10", "street": "Kajuhova cesta", "postcode": "3320", "locality": "Velenje"}, "country": "SI", "lat": 46.3646851, "lon": 15.1130416, "source": "golden"}
{"raw": "Podbočje 71, 8312 Podbočje", "components": {"house_number": "71", "street": "Podbočje", "postcode": "8312", "locality": "Podbočje"}, "country": "SI", "lat": 45.8683332, "lon": 15.4646502, "source": "golden"}
{"raw": "Kožljek 7, 1382 Kožljek", "components": {"house_number": "7", "street": "Kožljek", "postcode": "1382", "locality": "Kožljek"}, "country": "SI", "lat": 45.8451272, "lon": 14.3798355, "source": "golden"}
{"raw": "2000 Maribor, Jenkova ulica 23", "components": {"house_number": "23", "street": "Jenkova ulica", "postcode": "2000", "locality": "Maribor"}, "country": "SI", "lat": 46.5497788, "lon": 15.6240614, "source": "golden"}
{"raw": "Žlebe 39A, 1215 Žlebe", "components": {"house_number": "39A", "street": "Žlebe", "postcode": "1215", "locality": "Žlebe"}, "country": "SI", "lat": 46.1133679, "lon": 14.3935094, "source": "golden"}
{"raw": "Ajdovščina, 5270, Gradišče 5", "components": {"house_number": "5", "street": "Gradišče", "postcode": "5270", "locality": "Ajdovščina"}, "country": "SI", "lat": 45.8963778, "lon": 13.8965059, "source": "golden"}
{"raw": "Bilje, 5292, Bilje 124G", "components": {"house_number": "124G", "street": "Bilje", "postcode": "5292", "locality": "Bilje"}, "country": "SI", "lat": 45.8957933, "lon": 13.6486189, "source": "golden"}
{"raw": "Gotovlje, 3310, Gotovlje 81C", "components": {"house_number": "81C", "street": "Gotovlje", "postcode": "3310", "locality": "Gotovlje"}, "country": "SI", "lat": 46.2601903, "lon": 15.153298, "source": "golden"}
{"raw": "Dobec 20, 1382 Dobec", "components": {"house_number": "20", "street": "Dobec", "postcode": "1382", "locality": "Dobec"}, "country": "SI", "lat": 45.8502115, "lon": 14.3603234, "source": "golden"}
{"raw": "Strehovci, 9223, Strehovci 42", "components": {"house_number": "42", "street": "Strehovci", "postcode": "9223", "locality": "Strehovci"}, "country": "SI", "lat": 46.6595904, "lon": 16.3184691, "source": "golden"}
{"raw": "2364 Zgornji Janževski Vrh, Zgornji Janževski Vrh 12", "components": {"house_number": "12", "street": "Zgornji Janževski Vrh", "postcode": "2364", "locality": "Zgornji Janževski Vrh"}, "country": "SI", "lat": 46.5544981, "lon": 15.2892609, "source": "golden"}
{"raw": "Pameče 142, 2380 Pameče", "components": {"house_number": "142", "street": "Pameče", "postcode": "2380", "locality": "Pameče"}, "country": "SI", "lat": 46.5276093, "lon": 15.0831769, "source": "golden"}
{"raw": "1410 Zagorje ob Savi, Podvine 53", "components": {"house_number": "53", "street": "Podvine", "postcode": "1410", "locality": "Zagorje ob Savi"}, "country": "SI", "lat": 46.1405922, "lon": 14.9911467, "source": "golden"}
{"raw": "Brje pri Komnu 46, 6223 Brje pri Komnu", "components": {"house_number": "46", "street": "Brje pri Komnu", "postcode": "6223", "locality": "Brje pri Komnu"}, "country": "SI", "lat": 45.7758956, "lon": 13.709345, "source": "golden"}
{"raw": "Mestinje, 3241, Mestinje 13B", "components": {"house_number": "13B", "street": "Mestinje", "postcode": "3241", "locality": "Mestinje"}, "country": "SI", "lat": 46.236972, "lon": 15.5647256, "source": "golden"}
{"raw": "6210 Sežana, Orleška cesta 10", "components": {"house_number": "10", "street": "Orleška cesta", "postcode": "6210", "locality": "Sežana"}, "country": "SI", "lat": 45.7037918, "lon": 13.8696469, "source": "golden"}
{"raw": "Bereča vas 11B, 8331 Bereča vas", "components": {"house_number": "11B", "street": "Bereča vas", "postcode": "8331", "locality": "Bereča vas"}, "country": "SI", "lat": 45.6902168, "lon": 15.2686981, "source": "golden"}
{"raw": "Jesenje 9, 1281 Jesenje", "components": {"house_number": "9", "street": "Jesenje", "postcode": "1281", "locality": "Jesenje"}, "country": "SI", "lat": 46.102419, "lon": 14.8038222, "source": "golden"}
{"raw": "Semedela / Semedella 54C, 6000 Koper / Capodistria", "components": {"house_number": "54C", "street": "Semedela / Semedella", "postcode": "6000", "locality": "Koper / Capodistria"}, "country": "SI", "lat": 45.5395484, "lon": 13.6990655, "source": "golden"}
{"raw": "Mereče, 6250, Mereče 19", "components": {"house_number": "19", "street": "Mereče", "postcode": "6250", "locality": "Mereče"}, "country": "SI", "lat": 45.6040063, "lon": 14.2133829, "source": "golden"}
{"raw": "Knežak, 6253, Knežak 41C", "components": {"house_number": "41C", "street": "Knežak", "postcode": "6253", "locality": "Knežak"}, "country": "SI", "lat": 45.6244421, "lon": 14.2400792, "source": "golden"}
{"raw": "2331 Stražgonjca, Stražgonjca 17", "components": {"house_number": "17", "street": "Stražgonjca", "postcode": "2331", "locality": "Stražgonjca"}, "country": "SI", "lat": 46.4067047, "lon": 15.6906848, "source": "golden"}
{"raw": "Čepovan, 5253, Čepovan 105", "components": {"house_number": "105", "street": "Čepovan", "postcode": "5253", "locality": "Čepovan"}, "country": "SI", "lat": 46.0558656, "lon": 13.7986538, "source": "golden"}
{"raw": "Račica 55B, 1434 Račica", "components": {"house_number": "55B", "street": "Račica", "postcode": "1434", "locality": "Račica"}, "country": "SI", "lat": 46.0554536, "lon": 15.2335802, "source": "golden"}
{"raw": "3333 Ljubno ob Savinji, Foršt 44", "components": {"house_number": "44", "street": "Foršt", "postcode": "3333", "locality": "Ljubno ob Savinji"}, "country": "SI", "lat": 46.3454007, "lon": 14.8326019, "source": "golden"}
{"raw": "Tabor 62, 3304 Tabor", "components": {"house_number": "62", "street": "Tabor", "postcode": "3304", "locality": "Tabor"}, "country": "SI", "lat": 46.2272902, "lon": 15.0145713, "source": "golden"}
{"raw": "2366 Muta, Sušnikova ulica 12", "components": {"house_number": "12", "street": "Sušnikova ulica", "postcode": "2366", "locality": "Muta"}, "country": "SI", "lat": 46.6079747, "lon": 15.1547984, "source": "golden"}
{"raw": "Sedlašek 85, 2286 Sedlašek", "components": {"house_number": "85", "street": "Sedlašek", "postcode": "2286", "locality": "Sedlašek"}, "country": "SI", "lat": 46.3028871, "lon": 15.8793653, "source": "golden"}
{"raw": "Lovrenc na Pohorju, 2344, Cesta vstaje 38", "components": {"house_number": "38", "street": "Cesta vstaje", "postcode": "2344", "locality": "Lovrenc na Pohorju"}, "country": "SI", "lat": 46.5342755, "lon": 15.3833827, "source": "golden"}
{"raw": "Ilirska Bistrica, 6250, Rozmanova ulica 40", "components": {"house_number": "40", "street": "Rozmanova ulica", "postcode": "6250", "locality": "Ilirska Bistrica"}, "country": "SI", "lat": 45.5585314, "lon": 14.2526502, "source": "golden"}
{"raw": "Jagodje / Jagodje 46D, 6310 Jagodje / Jagodje", "components": {"house_number": "46D", "street": "Jagodje / Jagodje", "postcode": "6310", "locality": "Jagodje / Jagodje"}, "country": "SI", "lat": 45.522355, "lon": 13.6435984, "source": "golden"}
{"raw": "Trbovlje, 1420, Nasipi 7", "components": {"house_number": "7", "street": "Nasipi", "postcode": "1420", "locality": "Trbovlje"}, "country": "SI", "lat": 46.1413514, "lon": 15.0368505, "source": "golden"}
{"raw": "Legen 118A, 2383 Legen", "components": {"house_number": "118A", "street": "Legen", "postcode": "2383", "locality": "Legen"}, "country": "SI", "lat": 46.5046515, "lon": 15.1122369, "source": "golden"}
{"raw": "5230 Bovec, Mala vas 112", "components": {"house_number": "112", "street": "Mala vas", "postcode": "5230", "locality": "Bovec"}, "country": "SI", "lat": 46.3381134, "lon": 13.5573519, "source": "golden"}
{"raw": "4220 Škofja Loka, Pod Plevno 98", "components": {"house_number": "98", "street": "Pod Plevno", "postcode": "4220", "locality": "Škofja Loka"}, "country": "SI", "lat": 46.1676479, "lon": 14.3196948, "source": "golden"}
{"raw": "2204 Dravski Dvor, Lovska ulica 6", "components": {"house_number": "6", "street": "Lovska ulica", "postcode": "2204", "locality": "Dravski Dvor"}, "country": "SI", "lat": 46.4653684, "lon": 15.7150322, "source": "golden"}
{"raw": "1385 Fara, Fara 6B", "components": {"house_number": "6B", "street": "Fara", "postcode": "1385", "locality": "Fara"}, "country": "SI", "lat": 45.7650029, "lon": 14.5142112, "source": "golden"}
{"raw": "Škocjan / San Canziano 79A, 6000 Škocjan / San Canziano", "components": {"house_number": "79A", "street": "Škocjan / San Canziano", "postcode": "6000", "locality": "Škocjan / San Canziano"}, "country": "SI", "lat": 45.5347293, "lon": 13.775116, "source": "golden"}
{"raw": "Velike Grahovše 9, 3270 Velike Grahovše", "components": {"house_number": "9", "street": "Velike Grahovše", "postcode": "3270", "locality": "Velike Grahovše"}, "country": "SI", "lat": 46.1305719, "lon": 15.3293253, "source": "golden"}
{"raw": "Vadarci 34A, 9265 Vadarci", "components": {"house_number": "34A", "street": "Vadarci", "postcode": "9265", "locality": "Vadarci"}, "country": "SI", "lat": 46.7458305, "lon": 16.0771514, "source": "golden"}
{"raw": "Glavna ulica / Fő utca 73, 9220 Čentiba / Csente", "components": {"house_number": "73", "street": "Glavna ulica / Fő utca", "postcode": "9220", "locality": "Čentiba / Csente"}, "country": "SI", "lat": 46.5516947, "lon": 16.4876303, "source": "golden"}
{"raw": "Zajelše, 1262, Zajelše 6A", "components": {"house_number": "6A", "street": "Zajelše", "postcode": "1262", "locality": "Zajelše"}, "country": "SI", "lat": 46.093923, "lon": 14.6458555, "source": "golden"}
{"raw": "2319 Zgornje Poljčane, Maistrova ulica 13", "components": {"house_number": "13", "street": "Maistrova ulica", "postcode": "2319", "locality": "Zgornje Poljčane"}, "country": "SI", "lat": 46.3006925, "lon": 15.582243, "source": "golden"}
{"raw": "Želimlje, 1291, Želimlje 52", "components": {"house_number": "52", "street": "Želimlje", "postcode": "1291", "locality": "Želimlje"}, "country": "SI", "lat": 45.9246994, "lon": 14.5660938, "source": "golden"}
{"raw": "Podgrad 77, 6244 Podgrad", "components": {"house_number": "77", "street": "Podgrad", "postcode": "6244", "locality": "Podgrad"}, "country": "SI", "lat": 45.5250063, "lon": 14.1452667, "source": "golden"}
{"raw": "5292 Renče, Tureli 42", "components": {"house_number": "42", "street": "Tureli", "postcode": "5292", "locality": "Renče"}, "country": "SI", "lat": 45.8864164, "lon": 13.6723217, "source": "golden"}
{"raw": "2373 Bukovska vas, Bukovska vas 55D", "components": {"house_number": "55D", "street": "Bukovska vas", "postcode": "2373", "locality": "Bukovska vas"}, "country": "SI", "lat": 46.553596, "lon": 15.043584, "source": "golden"}
{"raw": "Griblje, 8332, Griblje 32", "components": {"house_number": "32", "street": "Griblje", "postcode": "8332", "locality": "Griblje"}, "country": "SI", "lat": 45.5713066, "lon": 15.2937034, "source": "golden"}
{"raw": "8340 Črnomelj, Viniška cesta 9", "components": {"house_number": "9", "street": "Viniška cesta", "postcode": "8340", "locality": "Črnomelj"}, "country": "SI", "lat": 45.5676565, "lon": 15.1902466, "source": "golden"}
{"raw": "5230 Bovec, Dvor 35", "components": {"house_number": "35", "street": "Dvor", "postcode": "5230", "locality": "Bovec"}, "country": "SI", "lat": 46.3337201, "lon": 13.54366, "source": "golden"}
{"raw": "Šklendrovec 36, 1410 Šklendrovec", "components": {"house_number": "36", "street": "Šklendrovec", "postcode": "1410", "locality": "Šklendrovec"}, "country": "SI", "lat": 46.1090025, "lon": 14.9971282, "source": "golden"}
{"raw": "Industrijska cesta 14, 5000 Kromberk", "components": {"house_number": "14", "street": "Industrijska cesta", "postcode": "5000", "locality": "Kromberk"}, "country": "SI", "lat": 45.9546673, "lon": 13.6663323, "source": "golden"}
{"raw": "Sebeborci, 9221, Sebeborci 130", "components": {"house_number": "130", "street": "Sebeborci", "postcode": "9221", "locality": "Sebeborci"}, "country": "SI", "lat": 46.7083467, "lon": 16.1840822, "source": "golden"}
{"raw": "5250 Solkan, Vojkova cesta 9A", "components": {"house_number": "9A", "street": "Vojkova cesta", "postcode": "5250", "locality": "Solkan"}, "country": "SI", "lat": 45.9695706, "lon": 13.6444126, "source": "golden"}
{"raw": "1000 Ljubljana, Ulica borca Petra 25", "components": {"house_number": "25", "street": "Ulica borca Petra", "postcode": "1000", "locality": "Ljubljana"}, "country": "SI", "lat": 46.0352965, "lon": 14.4505095, "source": "golden"}
{"raw": "1000 Ljubljana, Vodnikova cesta 46", "components": {"house_number": "46", "street": "Vodnikova cesta", "postcode": "1000", "locality": "Ljubljana"}, "country": "SI", "lat": 46.0666406, "lon": 14.4905411, "source": "golden"}
{"raw": "1000 Ljubljana, Pot na Rakovo jelšo 365", "components": {"house_number": "365", "street": "Pot na Rakovo jelšo", "postcode": "1000", "locality": "Ljubljana"}, "country": "SI", "lat": 46.0225679, "lon": 14.5063806, "source": "golden"}
{"raw": "2391 Prevalje, Zgornji kraj 16", "components": {"house_number": "16", "street": "Zgornji kraj", "postcode": "2391", "locality": "Prevalje"}, "country": "SI", "lat": 46.5426387, "lon": 14.9111414, "source": "golden"}
{"raw": "Rogaška Slatina, 3250, Šlandrova ulica 14A", "components": {"house_number": "14A", "street": "Šlandrova ulica", "postcode": "3250", "locality": "Rogaška Slatina"}, "country": "SI", "lat": 46.24269, "lon": 15.6309184, "source": "golden"}
{"raw": "2231 Vukovje, Vukovje 80A", "components": {"house_number": "80A", "street": "Vukovje", "postcode": "2231", "locality": "Vukovje"}, "country": "SI", "lat": 46.5862879, "lon": 15.7567077, "source": "golden"}
{"raw": "6333 Padna, Padna 43", "components": {"house_number": "43", "street": "Padna", "postcode": "6333", "locality": "Padna"}, "country": "SI", "lat": 45.4912098, "lon": 13.6811161, "source": "golden"}
{"raw": "Soča 8B, 5232 Soča", "components": {"house_number": "8B", "street": "Soča", "postcode": "5232", "locality": "Soča"}, "country": "SI", "lat": 46.3360337, "lon": 13.6439827, "source": "golden"}
{"raw": "Zelše 17, 1380 Zelše", "components": {"house_number": "17", "street": "Zelše", "postcode": "1380", "locality": "Zelše"}, "country": "SI", "lat": 45.7947584, "lon": 14.3276297, "source": "golden"}
{"raw": "6219 Lokev, Lokev 89", "components": {"house_number": "89", "street": "Lokev", "postcode": "6219", "locality": "Lokev"}, "country": "SI", "lat": 45.6617638, "lon": 13.9268159, "source": "golden"}
{"raw": "2270 Ormož, Ptujska cesta 8D", "components": {"house_number": "8D", "street": "Ptujska cesta", "postcode": "2270", "locality": "Ormož"}, "country": "SI", "lat": 46.4076799, "lon": 16.1461741, "source": "golden"}
{"raw": "Širmanski Hrib, 1270, Širmanski Hrib 19", "components": {"house_number": "19", "street": "Širmanski Hrib", "postcode": "1270", "locality": "Širmanski Hrib"}, "country": "SI", "lat": 46.0552283, "lon": 14.7994015, "source": "golden"}
{"raw": "Ludranski Vrh 25C, 2393 Ludranski Vrh", "components": {"house_number": "25C", "street": "Ludranski Vrh", "postcode": "2393", "locality": "Ludranski Vrh"}, "country": "SI", "lat": 46.4490649, "lon": 14.8526551, "source": "golden"}
{"raw": "3312 Latkova vas, Latkova vas 18", "components": {"house_number": "18", "street": "Latkova vas", "postcode": "3312", "locality": "Latkova vas"}, "country": "SI", "lat": 46.2464062, "lon": 15.0957191, "source": "golden"}
{"raw": "8261 Velika Dolina, Velika Dolina 7B", "components": {"house_number": "7B", "street": "Velika Dolina", "postcode": "8261", "locality": "Velika Dolina"}, "country": "SI", "lat": 45.8526669, "lon": 15.6588521, "source": "golden"}
{"raw": "Trnovska vas 15, 2254 Trnovska vas", "components": {"house_number": "15", "street": "Trnovska vas", "postcode": "2254", "locality": "Trnovska vas"}, "country": "SI", "lat": 46.5208613, "lon": 15.9009664, "source": "golden"}
{"raw": "2380 Legen, Legen 108C", "components": {"house_number": "108C", "street": "Legen", "postcode": "2380", "locality": "Legen"}, "country": "SI", "lat": 46.5058717, "lon": 15.1064411, "source": "golden"}
{"raw": "Malo Mlačevo 40, 1290 Malo Mlačevo", "components": {"house_number": "40", "street": "Malo Mlačevo", "postcode": "1290", "locality": "Malo Mlačevo"}, "country": "SI", "lat": 45.9374247, "lon": 14.6690086, "source": "golden"}
{"raw": "9252 Radenci, Panonska cesta 2", "components": {"house_number": "2", "street": "Panonska cesta", "postcode": "9252", "locality": "Radenci"}, "country": "SI", "lat": 46.6422522, "lon": 16.0402163, "source": "golden"}
{"raw": "Globočice, 8262, Globočice 14", "components": {"house_number": "14", "street": "Globočice", "postcode": "8262", "locality": "Globočice"}, "country": "SI", "lat": 45.8621096, "lon": 15.5729855, "source": "golden"}
{"raw": "5270 Predmeja, Predmeja 100A", "components": {"house_number": "100A", "street": "Predmeja", "postcode": "5270", "locality": "Predmeja"}, "country": "SI", "lat": 45.9419851, "lon": 13.8906617, "source": "golden"}
{"raw": "5222 Ladra, Ladra 29", "components": {"house_number": "29", "street": "Ladra", "postcode": "5222", "locality": "Ladra"}, "country": "SI", "lat": 46.2368032, "lon": 13.6066361, "source": "golden"}
{"raw": "Jagodje / Jagodje 40, 6310 Jagodje / Jagodje", "components": {"house_number": "40", "street": "Jagodje / Jagodje", "postcode": "6310", "locality": "Jagodje / Jagodje"}, "country": "SI", "lat": 45.5205237, "lon": 13.6485194, "source": "golden"}
{"raw": "1270 Litija, Partizanska pot 41", "components": {"house_number": "41", "street": "Partizanska pot", "postcode": "1270", "locality": "Litija"}, "country": "SI", "lat": 46.0566188, "lon": 14.8426913, "source": "golden"}
{"raw": "Slovenska Bistrica, 2310, Kraigherjeva ulica 10A", "components": {"house_number": "10A", "street": "Kraigherjeva ulica", "postcode": "2310", "locality": "Slovenska Bistrica"}, "country": "SI", "lat": 46.3983321, "lon": 15.5637092, "source": "golden"}
{"raw": "8297 Leskovec v Podborštu, Leskovec v Podborštu 37B", "components": {"house_number": "37B", "street": "Leskovec v Podborštu", "postcode": "8297", "locality": "Leskovec v Podborštu"}, "country": "SI", "lat": 46.0222079, "lon": 15.1602592, "source": "golden"}
{"raw": "Dob, 1233, Vodnikova ulica 16", "components": {"house_number": "16", "street": "Vodnikova ulica", "postcode": "1233", "locality": "Dob"}, "country": "SI", "lat": 46.1537698, "lon": 14.6303114, "source": "golden"}
{"raw": "Kresniške Poljane 82, 1281 Kresniške Poljane", "components": {"house_number": "82", "street": "Kresniške Poljane", "postcode": "1281", "locality": "Kresniške Poljane"}, "country": "SI", "lat": 46.0874938, "lon": 14.7494225, "source": "golden"}
{"raw": "Tenetiše, 1270, Tenetiše 30", "components": {"house_number": "30", "street": "Tenetiše", "postcode": "1270", "locality": "Tenetiše"}, "country": "SI", "lat": 46.0562448, "lon": 14.8595449, "source": "golden"}
{"raw": "Naklo, 4202, Gorenjska cesta 7", "components": {"house_number": "7", "street": "Gorenjska cesta", "postcode": "4202", "locality": "Naklo"}, "country": "SI", "lat": 46.2720135, "lon": 14.3116319, "source": "golden"}
{"raw": "6230 Postojna, Vilharjeva ulica 20", "components": {"house_number": "20", "street": "Vilharjeva ulica", "postcode": "6230", "locality": "Postojna"}, "country": "SI", "lat": 45.776929, "lon": 14.2089233, "source": "golden"}
{"raw": "Planina pod Golico 57A, 4270 Planina pod Golico", "components": {"house_number": "57A", "street": "Planina pod Golico", "postcode": "4270", "locality": "Planina pod Golico"}, "country": "SI", "lat": 46.4652837, "lon": 14.0475053, "source": "golden"}
{"raw": "Štajngrob 27, 8297 Štajngrob", "components": {"house_number": "27", "street": "Štajngrob", "postcode": "8297", "locality": "Štajngrob"}, "country": "SI", "lat": 46.0147404, "lon": 15.1464842, "source": "golden"}
{"raw": "V Savinjski gaj 3, 3330 Mozirje", "components": {"house_number": "3", "street": "V Savinjski gaj", "postcode": "3330", "locality": "Mozirje"}, "country": "SI", "lat": 46.3355218, "lon": 14.9641883, "source": "golden"}
{"raw": "Vojkov drevored 2A, 6250 Ilirska Bistrica", "components": {"house_number": "2A", "street": "Vojkov drevored", "postcode": "6250", "locality": "Ilirska Bistrica"}, "country": "SI", "lat": 45.5666306, "lon": 14.2418199, "source": "golden"}
{"raw": "Godnje, 6221, Godnje 12", "components": {"house_number": "12", "street": "Godnje", "postcode": "6221", "locality": "Godnje"}, "country": "SI", "lat": 45.7521055, "lon": 13.8411913, "source": "golden"}
{"raw": "Sajovčevo naselje 8, 4208 Šenčur", "components": {"house_number": "8", "street": "Sajovčevo naselje", "postcode": "4208", "locality": "Šenčur"}, "country": "SI", "lat": 46.2520964, "lon": 14.4244451, "source": "golden"}
{"raw": "Trsek 10, 6273 Trsek", "components": {"house_number": "10", "street": "Trsek", "postcode": "6273", "locality": "Trsek"}, "country": "SI", "lat": 45.4805383, "lon": 13.8307059, "source": "golden"}
{"raw": "1313 Paka, Paka 6A", "components": {"house_number": "6A", "street": "Paka", "postcode": "1313", "locality": "Paka"}, "country": "SI", "lat": 45.780374, "lon": 14.7710562, "source": "golden"}
{"raw": "9231 Gančani, Gančani 55", "components": {"house_number": "55", "street": "Gančani", "postcode": "9231", "locality": "Gančani"}, "country": "SI", "lat": 46.6292444, "lon": 16.2462304, "source": "golden"}
{"raw": "Lopata 38, 3000 Lopata", "components": {"house_number": "38", "street": "Lopata", "postcode": "3000", "locality": "Lopata"}, "country": "SI", "lat": 46.2620145, "lon": 15.2252587, "source": "golden"}
{"raw": "2317 Podgrad na Pohorju, Podgrad na Pohorju 4", "components": {"house_number": "4", "street": "Podgrad na Pohorju", "postcode": "2317", "locality": "Podgrad na Pohorju"}, "country": "SI", "lat": 46.414164, "lon": 15.4461755, "source": "golden"}
{"raw": "3250 Rogaška Slatina, Tržaški hrib 7", "components": {"house_number": "7", "street": "Tržaški hrib", "postcode": "3250", "locality": "Rogaška Slatina"}, "country": "SI", "lat": 46.2333142, "lon": 15.6342986, "source": "golden"}
{"raw": "Tolsti Vrh p. R. na K. - del, 2390, Tolsti Vrh p. R. na K. - del 87A", "components": {"house_number": "87A", "street": "Tolsti Vrh p. R. na K. - del", "postcode": "2390", "locality": "Tolsti Vrh p. R. na K. - del"}, "country": "SI", "lat": 46.5559358, "lon": 14.9583573, "source": "golden"}
{"raw": "Lutverci, 9253, Lutverci 46", "components": {"house_number": "46", "street": "Lutverci", "postcode": "9253", "locality": "Lutverci"}, "country": "SI", "lat": 46.6855493, "lon": 15.9452734, "source": "golden"}
{"raw": "Suška cesta 20A, 4220 Škofja Loka", "components": {"house_number": "20A", "street": "Suška cesta", "postcode": "4220", "locality": "Škofja Loka"}, "country": "SI", "lat": 46.165423, "lon": 14.3177669, "source": "golden"}
{"raw": "1230 Dragomelj, Dragomelj 153B", "components": {"house_number": "153B", "street": "Dragomelj", "postcode": "1230", "locality": "Dragomelj"}, "country": "SI", "lat": 46.1069232, "lon": 14.5915593, "source": "golden"}
{"raw": "1386 Babno Polje, Babno Polje 71", "components": {"house_number": "71", "street": "Babno Polje", "postcode": "1386", "locality": "Babno Polje"}, "country": "SI", "lat": 45.6449542, "lon": 14.548143, "source": "golden"}
{"raw": "Strunjan / Strugnano 125, 6320 Strunjan / Strugnano", "components": {"house_number": "125", "street": "Strunjan / Strugnano", "postcode": "6320", "locality": "Strunjan / Strugnano"}, "country": "SI", "lat": 45.5290167, "lon": 13.6079369, "source": "golden"}
{"raw": "2373 Sv. Danijel, Sv. Danijel 38A", "components": {"house_number": "38A", "street": "Sv. Danijel", "postcode": "2373", "locality": "Sv. Danijel"}, "country": "SI", "lat": 46.5775631, "lon": 15.0778909, "source": "golden"}
{"raw": "1330 Mačkovec, Mačkovec 2", "components": {"house_number": "2", "street": "Mačkovec", "postcode": "1330", "locality": "Mačkovec"}, "country": "SI", "lat": 45.6175247, "lon": 14.963725, "source": "golden"}
{"raw": "6000 Koper / Capodistria, Vanganelska cesta / Strada di Vanganello 71C", "components": {"house_number": "71C", "street": "Vanganelska cesta / Strada di Vanganello", "postcode": "6000", "locality": "Koper / Capodistria"}, "country": "SI", "lat": 45.5298716, "lon": 13.7405005, "source": "golden"}
{"raw": "1231 Ljubljana, Dunajska cesta 345", "components": {"house_number": "345", "street": "Dunajska cesta", "postcode": "1231", "locality": "Ljubljana"}, "country": "SI", "lat": 46.1018498, "lon": 14.5265626, "source": "golden"}
{"raw": "Kovinarsko naselje 5A, 1420 Trbovlje", "components": {"house_number": "5A", "street": "Kovinarsko naselje", "postcode": "1420", "locality": "Trbovlje"}, "country": "SI", "lat": 46.1632012, "lon": 15.0498398, "source": "golden"}
{"raw": "Debenec 45C, 8233 Debenec", "components": {"house_number": "45C", "street": "Debenec", "postcode": "8233", "locality": "Debenec"}, "country": "SI", "lat": 45.9274265, "lon": 15.0957879, "source": "golden"}
{"raw": "Kranj, 4000, Triglavska ulica 5", "components": {"house_number": "5", "street": "Triglavska ulica", "postcode": "4000", "locality": "Kranj"}, "country": "SI", "lat": 46.2187767, "lon": 14.3742551, "source": "golden"}
{"raw": "Piršenbreg 49B, 8254 Piršenbreg", "components": {"house_number": "49B", "street": "Piršenbreg", "postcode": "8254", "locality": "Piršenbreg"}, "country": "SI", "lat": 45.9671037, "lon": 15.6505174, "source": "golden"}
{"raw": "5291 Orehovlje, Orehovlje 1C", "components": {"house_number": "1C", "street": "Orehovlje", "postcode": "5291", "locality": "Orehovlje"}, "country": "SI", "lat": 45.8981599, "lon": 13.6200294, "source": "golden"}
{"raw": "Mestinje 3, 3241 Mestinje", "components": {"house_number": "3", "street": "Mestinje", "postcode": "3241", "locality": "Mestinje"}, "country": "SI", "lat": 46.2330486, "lon": 15.564841, "source": "golden"}
{"raw": "Miklavž pri Taboru 19C, 3304 Miklavž pri Taboru", "components": {"house_number": "19C", "street": "Miklavž pri Taboru", "postcode": "3304", "locality": "Miklavž pri Taboru"}, "country": "SI", "lat": 46.2288495, "lon": 15.0404094, "source": "golden"}
{"raw": "Volarje, 5220, Volarje 33", "components": {"house_number": "33", "street": "Volarje", "postcode": "5220", "locality": "Volarje"}, "country": "SI", "lat": 46.2098119, "lon": 13.6717035, "source": "golden"}
{"raw": "Krajna vas 1F, 6221 Krajna vas", "components": {"house_number": "1F", "street": "Krajna vas", "postcode": "6221", "locality": "Krajna vas"}, "country": "SI", "lat": 45.76638, "lon": 13.805707, "source": "golden"}
{"raw": "Topolšica, 3326, Topolšica 6", "components": {"house_number": "6", "street": "Topolšica", "postcode": "3326", "locality": "Topolšica"}, "country": "SI", "lat": 46.3937563, "lon": 15.0456672, "source": "golden"}
{"raw": "8000 Novo mesto, Krajčeva ulica 42", "components": {"house_number": "42", "street": "Krajčeva ulica", "postcode": "8000", "locality": "Novo mesto"}, "country": "SI", "lat": 45.7891982, "lon": 15.1622397, "source": "golden"}
{"raw": "Želimlje, 1291, Želimlje 23C", "components": {"house_number": "23C", "street": "Želimlje", "postcode": "1291", "locality": "Želimlje"}, "country": "SI", "lat": 45.9063527, "lon": 14.5804919, "source": "golden"}
{"raw": "5212 Golo Brdo, Golo Brdo 1", "components": {"house_number": "1", "street": "Golo Brdo", "postcode": "5212", "locality": "Golo Brdo"}, "country": "SI", "lat": 46.0582822, "lon": 13.4978651, "source": "golden"}
{"raw": "Branik, 5295, Branik 61", "components": {"house_number": "61", "street": "Branik", "postcode": "5295", "locality": "Branik"}, "country": "SI", "lat": 45.8621077, "lon": 13.787586, "source": "golden"}
{"raw": "Tunjice 22, 1241 Tunjice", "components": {"house_number": "22", "street": "Tunjice", "postcode": "1241", "locality": "Tunjice"}, "country": "SI", "lat": 46.2380687, "lon": 14.5790602, "source": "golden"}
{"raw": "6000 Koper / Capodistria, Šmarska cesta / Strada di Šmarje 32B", "components": {"house_number": "32B", "street": "Šmarska cesta / Strada di Šmarje", "postcode": "6000", "locality": "Koper / Capodistria"}, "country": "SI", "lat": 45.525609, "lon": 13.7309816, "source": "golden"}
{"raw": "Dobravica 21, 8310 Dobravica", "components": {"house_number": "21", "street": "Dobravica", "postcode": "8310", "locality": "Dobravica"}, "country": "SI", "lat": 45.8437393, "lon": 15.3247448, "source": "golden"}
{"raw": "Ulica II. prekomorske brigade / Via della II Brig. d'Oltrem. 39F, 6000 Koper / Capodistria", "components": {"house_number": "39F", "street": "Ulica II. prekomorske brigade / Via della II Brig. d'Oltrem.", "postcode": "6000", "locality": "Koper / Capodistria"}, "country": "SI", "lat": 45.537114, "lon": 13.7177392, "source": "golden"}
{"raw": "1433 Radeče, Pod Pečico 6", "components": {"house_number": "6", "street": "Pod Pečico", "postcode": "1433", "locality": "Radeče"}, "country": "SI", "lat": 46.0668524, "lon": 15.161332, "source": "golden"}
{"raw": "Sv. Peter, 6333, Sv. Peter 120", "components": {"house_number": "120", "street": "Sv. Peter", "postcode": "6333", "locality": "Sv. Peter"}, "country": "SI", "lat": 45.458352, "lon": 13.672983, "source": "golden"}
{"raw": "8282 Veliki Dol, Veliki Dol 28A", "components": {"house_number": "28A", "street": "Veliki Dol", "postcode": "8282", "locality": "Veliki Dol"}, "country": "SI", "lat": 46.0204866, "lon": 15.5419174, "source": "golden"}
{"raw": "Naselje Slavka Černeta 4A, 4280 Kranjska Gora", "components": {"house_number": "4A", "street": "Naselje Slavka Černeta", "postcode": "4280", "locality": "Kranjska Gora"}, "country": "SI", "lat": 46.4861637, "lon": 13.7903212, "source": "golden"}
{"raw": "4260 Bled, Za Pecovco 12", "components": {"house_number": "12", "street": "Za Pecovco", "postcode": "4260", "locality": "Bled"}, "country": "SI", "lat": 46.3724995, "lon": 14.1080276, "source": "golden"}
{"raw": "Zgornji Kozji Vrh, 2360, Zgornji Kozji Vrh 34", "components": {"house_number": "34", "street": "Zgornji Kozji Vrh", "postcode": "2360", "locality": "Zgornji Kozji Vrh"}, "country": "SI", "lat": 46.5934463, "lon": 15.2778528, "source": "golden"}
{"raw": "2365 Sv. Vid, Sv. Vid 70", "components": {"house_number": "70", "street": "Sv. Vid", "postcode": "2365", "locality": "Sv. Vid"}, "country": "SI", "lat": 46.5766564, "lon": 15.2014822, "source": "golden"}
{"raw": "Koštabona 90, 6274 Koštabona", "components": {"house_number": "90", "street": "Koštabona", "postcode": "6274", "locality": "Koštabona"}, "country": "SI", "lat": 45.4725247, "lon": 13.744618, "source": "golden"}
{"raw": "5275 Godovič, Godovič 126", "components": {"house_number": "126", "street": "Godovič", "postcode": "5275", "locality": "Godovič"}, "country": "SI", "lat": 45.9581988, "lon": 14.0868588, "source": "golden"}
{"raw": "Kot 12, 6230 Postojna", "components": {"house_number": "12", "street": "Kot", "postcode": "6230", "locality": "Postojna"}, "country": "SI", "lat": 45.7763428, "lon": 14.2126478, "source": "golden"}
{"raw": "Hajdoše 46, 2288 Hajdoše", "components": {"house_number": "46", "street": "Hajdoše", "postcode": "2288", "locality": "Hajdoše"}, "country": "SI", "lat": 46.429756, "lon": 15.8262075, "source": "golden"}
{"raw": "2274 Hajndl, Hajndl 34", "components": {"house_number": "34", "street": "Hajndl", "postcode": "2274", "locality": "Hajndl"}, "country": "SI", "lat": 46.4191553, "lon": 16.1240124, "source": "golden"}
{"raw": "Polšnik 40, 1272 Polšnik", "components": {"house_number": "40", "street": "Polšnik", "postcode": "1272", "locality": "Polšnik"}, "country": "SI", "lat": 46.071054, "lon": 14.9626275, "source": "golden"}
{"raw": "8000 Novo mesto, Nad mlini 82", "components": {"house_number": "82", "street": "Nad mlini", "postcode": "8000", "locality": "Novo mesto"}, "country": "SI", "lat": 45.7973443, "lon": 15.1664955, "source": "golden"}
{"raw": "Mežica, 2392, Ulica kralja Matjaža 18", "components": {"house_number": "18", "street": "Ulica kralja Matjaža", "postcode": "2392", "locality": "Mežica"}, "country": "SI", "lat": 46.5185638, "lon": 14.8511119, "source": "golden"}
{"raw": "Lapajnetova ulica 59, 5280 Idrija", "components": {"house_number": "59", "street": "Lapajnetova ulica", "postcode": "5280", "locality": "Idrija"}, "country": "SI", "lat": 46.0027944, "lon": 14.0272368, "source": "golden"}
{"raw": "Žitkovci / Zsitkóc, 9223, Žitkovci / Zsitkóc 33", "components": {"house_number": "33", "street": "Žitkovci / Zsitkóc", "postcode": "9223", "locality": "Žitkovci / Zsitkóc"}, "country": "SI", "lat": 46.6436519, "lon": 16.3754551, "source": "golden"}
{"raw": "Jama, 4211, Jama 11", "components": {"house_number": "11", "street": "Jama", "postcode": "4211", "locality": "Jama"}, "country": "SI", "lat": 46.198617, "lon": 14.4000613, "source": "golden"}
{"raw": "Kozjak, 2382, Kozjak 90", "components": {"house_number": "90", "street": "Kozjak", "postcode": "2382", "locality": "Kozjak"}, "country": "SI", "lat": 46.393342, "lon": 15.2031601, "source": "golden"}
{"raw": "Velika Polana, 9225, Velika Polana 27A", "components": {"house_number": "27A", "street": "Velika Polana", "postcode": "9225", "locality": "Velika Polana"}, "country": "SI", "lat": 46.5729062, "lon": 16.3500908, "source": "golden"}
{"raw": "1411 Izlake, Zgornje Izlake 6", "components": {"house_number": "6", "street": "Zgornje Izlake", "postcode": "1411", "locality": "Izlake"}, "country": "SI", "lat": 46.1560477, "lon": 14.9317042, "source": "golden"}
{"raw": "Vojkov drevored 11, 6250 Ilirska Bistrica", "components": {"house_number": "11", "street": "Vojkov drevored", "postcode": "6250", "locality": "Ilirska Bistrica"}, "country": "SI", "lat": 45.5673866, "lon": 14.2404902, "source": "golden"}
{"raw": "Golovec 26, 1420 Trbovlje", "components": {"house_number": "26", "street": "Golovec", "postcode": "1420", "locality": "Trbovlje"}, "country": "SI", "lat": 46.1671746, "lon": 15.0572247, "source": "golden"}
{"raw": "Ljubljana, 1260, Anžurjeva ulica 12D", "components": {"house_number": "12D", "street": "Anžurjeva ulica", "postcode": "1260", "locality": "Ljubljana"}, "country": "SI", "lat": 46.051495, "lon": 14.5931182, "source": "golden"}
{"raw": "Dolenji Boštanj, 8294, Dolenji Boštanj 24A", "components": {"house_number": "24A", "street": "Dolenji Boštanj", "postcode": "8294", "locality": "Dolenji Boštanj"}, "country": "SI", "lat": 46.0070912, "lon": 15.2888219, "source": "golden"}
{"raw": "2370 Dravograd, Robindvor 105", "components": {"house_number": "105", "street": "Robindvor", "postcode": "2370", "locality": "Dravograd"}, "country": "SI", "lat": 46.5934294, "lon": 15.027968, "source": "golden"}
{"raw": "Vojsko, 8282, Vojsko 35", "components": {"house_number": "35", "street": "Vojsko", "postcode": "8282", "locality": "Vojsko"}, "country": "SI", "lat": 46.0431717, "lon": 15.5508865, "source": "golden"}
{"raw": "Zgornji Log 36, 1270 Zgornji Log", "components": {"house_number": "36", "street": "Zgornji Log", "postcode": "1270", "locality": "Zgornji Log"}, "country": "SI", "lat": 46.0742634, "lon": 14.8245032, "source": "golden"}
{"raw": "1431 Gore, Gore 30G", "components": {"house_number": "30G", "street": "Gore", "postcode": "1431", "locality": "Gore"}, "country": "SI", "lat": 46.116493, "lon": 15.1537788, "source": "golden"}
{"raw": "Padna, 6333, Padna 76", "components": {"house_number": "76", "street": "Padna", "postcode": "6333", "locality": "Padna"}, "country": "SI", "lat": 45.4910685, "lon": 13.683691, "source": "golden"}
{"raw": "6310 Korte, Korte 115E", "components": {"house_number": "115E", "street": "Korte", "postcode": "6310", "locality": "Korte"}, "country": "SI", "lat": 45.4838582, "lon": 13.6556648, "source": "golden"}
{"raw": "Rimske Toplice, 3272, Pod Kojzico 11A", "components": {"house_number": "11A", "street": "Pod Kojzico", "postcode": "3272", "locality": "Rimske Toplice"}, "country": "SI", "lat": 46.1309897, "lon": 15.188631, "source": "golden"}
{"raw": "Gore, 1431, Gore 26", "components": {"house_number": "26", "street": "Gore", "postcode": "1431", "locality": "Gore"}, "country": "SI", "lat": 46.1064957, "lon": 15.1611372, "source": "golden"}
{"raw": "Vintarovci, 2253, Vintarovci 28", "components": {"house_number": "28", "street": "Vintarovci", "postcode": "2253", "locality": "Vintarovci"}, "country": "SI", "lat": 46.498547, "lon": 15.8639103, "source": "golden"}
{"raw": "Dolgovaške Gorice / Hosszúfaluhegy 262, 9220 Dolgovaške Gorice / Hosszúfaluhegy", "components": {"house_number": "262", "street": "Dolgovaške Gorice / Hosszúfaluhegy", "postcode": "9220", "locality": "Dolgovaške Gorice / Hosszúfaluhegy"}, "country": "SI", "lat": 46.5861543, "lon": 16.4553493, "source": "golden"}
{"raw": "Metni Vrh 22, 8290 Metni Vrh", "components": {"house_number": "22", "street": "Metni Vrh", "postcode": "8290", "locality": "Metni Vrh"}, "country": "SI", "lat": 46.0436905, "lon": 15.3105774, "source": "golden"}
{"raw": "Čeče - del, 1430, Čeče - del 80A", "components": {"house_number": "80A", "street": "Čeče - del", "postcode": "1430", "locality": "Čeče - del"}, "country": "SI", "lat": 46.1675931, "lon": 15.0915161, "source": "golden"}
{"raw": "Obrtniška ulica 18, 8210 Trebnje", "components": {"house_number": "18", "street": "Obrtniška ulica", "postcode": "8210", "locality": "Trebnje"}, "country": "SI", "lat": 45.9084336, "lon": 15.0250441, "source": "golden"}
{"raw": "Dekmanca 34, 3256 Dekmanca", "components": {"house_number": "34", "street": "Dekmanca", "postcode": "3256", "locality": "Dekmanca"}, "country": "SI", "lat": 46.0740511, "lon": 15.6277269, "source": "golden"}
{"raw": "2391 Prevalje, Polje 2", "components": {"house_number": "2", "street": "Polje", "postcode": "2391", "locality": "Prevalje"}, "country": "SI", "lat": 46.5483423, "lon": 14.923142, "source": "golden"}
{"raw": "Brežice, 8250, Gradnikova ulica 8", "components": {"house_number": "8", "street": "Gradnikova ulica", "postcode": "8250", "locality": "Brežice"}, "country": "SI", "lat": 45.9032334, "lon": 15.6054484, "source": "golden"}
{"raw": "Miklavž na Dravskem polju, 2204, Livadna ulica 8", "components": {"house_number": "8", "street": "Livadna ulica", "postcode": "2204", "locality": "Miklavž na Dravskem polju"}, "country": "SI", "lat": 46.5087233, "lon": 15.7006935, "source": "golden"}
{"raw": "Koper / Capodistria, 6000, Oljčna pot / Vicolo degli Olivi 59", "components": {"house_number": "59", "street": "Oljčna pot / Vicolo degli Olivi", "postcode": "6000", "locality": "Koper / Capodistria"}, "country": "SI", "lat": 45.5330389, "lon": 13.7234653, "source": "golden"}
{"raw": "Podvinci, 2250, Podvinci 14", "components": {"house_number": "14", "street": "Podvinci", "postcode": "2250", "locality": "Podvinci"}, "country": "SI", "lat": 46.4319457, "lon": 15.9166633, "source": "golden"}
{"raw": "Vrbovo 31, 6250 Vrbovo", "components": {"house_number": "31", "street": "Vrbovo", "postcode": "6250", "locality": "Vrbovo"}, "country": "SI", "lat": 45.5528158, "lon": 14.2761387, "source": "golden"}
{"raw": "Zagorje ob Savi, 1410, Cesta 20. julija 4C", "components": {"house_number": "4C", "street": "Cesta 20. julija", "postcode": "1410", "locality": "Zagorje ob Savi"}, "country": "SI", "lat": 46.1309472, "lon": 14.9940729, "source": "golden"}
{"raw": "Kocjanova ulica 22, 4000 Kranj", "components": {"house_number": "22", "street": "Kocjanova ulica", "postcode": "4000", "locality": "Kranj"}, "country": "SI", "lat": 46.2369709, "lon": 14.3472084, "source": "golden"}
{"raw": "Petrovče 296, 3301 Petrovče", "components": {"house_number": "296", "street": "Petrovče", "postcode": "3301", "locality": "Petrovče"}, "country": "SI", "lat": 46.2437758, "lon": 15.1914292, "source": "golden"}
{"raw": "Gornji Kot 7, 8361 Gornji Kot", "components": {"house_number": "7", "street": "Gornji Kot", "postcode": "8361", "locality": "Gornji Kot"}, "country": "SI", "lat": 45.7977047, "lon": 14.9706705, "source": "golden"}
{"raw": "8340 Črnomelj, Prešernova ulica 18", "components": {"house_number": "18", "street": "Prešernova ulica", "postcode": "8340", "locality": "Črnomelj"}, "country": "SI", "lat": 45.5755849, "lon": 15.1841744, "source": "golden"}
{"raw": "Vrbovec 8, 8211 Vrbovec", "components": {"house_number": "8", "street": "Vrbovec", "postcode": "8211", "locality": "Vrbovec"}, "country": "SI", "lat": 45.8626374, "lon": 14.9973856, "source": "golden"}
{"raw": "Ratanska vas, 3250, Ratanska vas 3", "components": {"house_number": "3", "street": "Ratanska vas", "postcode": "3250", "locality": "Ratanska vas"}, "country": "SI", "lat": 46.2466062, "lon": 15.6321175, "source": "golden"}
{"raw": "Forme 5, 4209 Forme", "components": {"house_number": "5", "street": "Forme", "postcode": "4209", "locality": "Forme"}, "country": "SI", "lat": 46.1910844, "lon": 14.3209344, "source": "golden"}
{"raw": "Dornberk, 5294, Čuklja 2A", "components": {"house_number": "2A", "street": "Čuklja", "postcode": "5294", "locality": "Dornberk"}, "country": "SI", "lat": 45.88613, "lon": 13.7383607, "source": "golden"}
{"raw": "Srednji Radenci, 8342, Srednji Radenci 5", "components": {"house_number": "5", "street": "Srednji Radenci", "postcode": "8342", "locality": "Srednji Radenci"}, "country": "SI", "lat": 45.4667785, "lon": 15.0934444, "source": "golden"}
{"raw": "Breg ob Kokri, 4205, Breg ob Kokri 3A", "components": {"house_number": "3A", "street": "Breg ob Kokri", "postcode": "4205", "locality": "Breg ob Kokri"}, "country": "SI", "lat": 46.2909621, "lon": 14.4186519, "source": "golden"}
{"raw": "5262 Batuje, Batuje 10", "components": {"house_number": "10", "street": "Batuje", "postcode": "5262", "locality": "Batuje"}, "country": "SI", "lat": 45.8943341, "lon": 13.7770784, "source": "golden"}
{"raw": "Prapetno Brdo, 5283, Prapetno Brdo 39", "components": {"house_number": "39", "street": "Prapetno Brdo", "postcode": "5283", "locality": "Prapetno Brdo"}, "country": "SI", "lat": 46.1164768, "lon": 13.8524009, "source": "golden"}
{"raw": "Zenkovci 30, 9265 Zenkovci", "components": {"house_number": "30", "street": "Zenkovci", "postcode": "9265", "locality": "Zenkovci"}, "country": "SI", "lat": 46.7237858, "lon": 16.0803495, "source": "golden"}
{"raw": "Stari trg 180, 2380 Stari trg", "components": {"house_number": "180", "street": "Stari trg", "postcode": "2380", "locality": "Stari trg"}, "country": "SI", "lat": 46.4872467, "lon": 15.0741017, "source": "golden"}
{"raw": "Veliki Kamen, 8282, Veliki Kamen 45", "components": {"house_number": "45", "street": "Veliki Kamen", "postcode": "8282", "locality": "Veliki Kamen"}, "country": "SI", "lat": 46.0237291, "lon": 15.5238277, "source": "golden"}
{"raw": "Visole, 2310, Visole 77", "components": {"house_number": "77", "street": "Visole", "postcode": "2310", "locality": "Visole"}, "country": "SI", "lat": 46.404944, "lon": 15.5300271, "source": "golden"}
{"raw": "Libeliška Gora, 2372, Libeliška Gora 41", "components": {"house_number": "41", "street": "Libeliška Gora", "postcode": "2372", "locality": "Libeliška Gora"}, "country": "SI", "lat": 46.6141682, "lon": 14.9324361, "source": "golden"}
{"raw": "2360 Radlje ob Dravi, Mariborska cesta 50", "components": {"house_number": "50", "street": "Mariborska cesta", "postcode": "2360", "locality": "Radlje ob Dravi"}, "country": "SI", "lat": 46.613093, "lon": 15.2301568, "source": "golden"}
{"raw": "Orlek 43, 6210 Orlek", "components": {"house_number": "43", "street": "Orlek", "postcode": "6210", "locality": "Orlek"}, "country": "SI", "lat": 45.6878668, "lon": 13.8410807, "source": "golden"}
{"raw": "Lopaca, 3262, Lopaca 21", "components": {"house_number": "21", "street": "Lopaca", "postcode": "3262", "locality": "Lopaca"}, "country": "SI", "lat": 46.1236303, "lon": 15.465265, "source": "golden"}
{"raw": "Rašiška cesta 14, 1234 Mengeš", "components": {"house_number": "14", "street": "Rašiška cesta", "postcode": "1234", "locality": "Mengeš"}, "country": "SI", "lat": 46.1614691, "lon": 14.5609214, "source": "golden"}
{"raw": "1270 Litija, Sitarjevška cesta 10", "components": {"house_number": "10", "street": "Sitarjevška cesta", "postcode": "1270", "locality": "Litija"}, "country": "SI", "lat": 46.0521705, "lon": 14.8338647, "source": "golden"}
{"raw": "Dolnji Kot, 8361, Dolnji Kot 52", "components": {"house_number": "52", "street": "Dolnji Kot", "postcode": "8361", "locality": "Dolnji Kot"}, "country": "SI", "lat": 45.7952514, "lon": 14.9874583, "source": "golden"}
{"raw": "Kosovelova ulica 18, 6250 Ilirska Bistrica", "components": {"house_number": "18", "street": "Kosovelova ulica", "postcode": "6250", "locality": "Ilirska Bistrica"}, "country": "SI", "lat": 45.5722633, "lon": 14.2431407, "source": "golden"}
{"raw": "9251 Petanjci, Petanjci 51", "components": {"house_number": "51", "street": "Petanjci", "postcode": "9251", "locality": "Petanjci"}, "country": "SI", "lat": 46.6487512, "lon": 16.0662343, "source": "golden"}
{"raw": "Poljanska cesta 41, 1000 Ljubljana", "components": {"house_number": "41", "street": "Poljanska cesta", "postcode": "1000", "locality": "Ljubljana"}, "country": "SI", "lat": 46.0492332, "lon": 14.5181736, "source": "golden"}
{"raw": "Sv. Primož na Pohorju, 2367, Sv. Primož na Pohorju 73A", "components": {"house_number": "73A", "street": "Sv. Primož na Pohorju", "postcode": "2367", "locality": "Sv. Primož na Pohorju"}, "country": "SI", "lat": 46.5638245, "lon": 15.1757385, "source": "golden"}
{"raw": "Dolenje pri Jelšanah 20A, 6254 Dolenje pri Jelšanah", "components": {"house_number": "20A", "street": "Dolenje pri Jelšanah", "postcode": "6254", "locality": "Dolenje pri Jelšanah"}, "country": "SI", "lat": 45.5066926, "lon": 14.2666842, "source": "golden"}
{"raw": "Slance 14A, 3221 Slance", "components": {"house_number": "14A", "street": "Slance", "postcode": "3221", "locality": "Slance"}, "country": "SI", "lat": 46.2338481, "lon": 15.3050101, "source": "golden"}
{"raw": "Debro 50, 3270 Debro", "components": {"house_number": "50", "street": "Debro", "postcode": "3270", "locality": "Debro"}, "country": "SI", "lat": 46.1838729, "lon": 15.2253021, "source": "golden"}
{"raw": "4204 Trstenik, Trstenik 132", "components": {"house_number": "132", "street": "Trstenik", "postcode": "4204", "locality": "Trstenik"}, "country": "SI", "lat": 46.3140596, "lon": 14.3697291, "source": "golden"}
{"raw": "Podgorje, 2381, Podgorje 44", "components": {"house_number": "44", "street": "Podgorje", "postcode": "2381", "locality": "Podgorje"}, "country": "SI", "lat": 46.4683026, "lon": 15.0822922, "source": "golden"}
{"raw": "Tirna, 1410, Tirna 40", "components": {"house_number": "40", "street": "Tirna", "postcode": "1410", "locality": "Tirna"}, "country": "SI", "lat": 46.1054703, "lon": 14.902947, "source": "golden"}
{"raw": "Rakitnik, 6258, Rakitnik 20B", "components": {"house_number": "20B", "street": "Rakitnik", "postcode": "6258", "locality": "Rakitnik"}, "country": "SI", "lat": 45.7466527, "lon": 14.1989023, "source": "golden"}
{"raw": "1330 Kočevje, Trata V 3", "components": {"house_number": "3", "street": "Trata V", "postcode": "1330", "locality": "Kočevje"}, "country": "SI", "lat": 45.647565, "lon": 14.8626995, "source": "golden"}
{"raw": "Suhi Vrh, 2391, Suhi Vrh 12", "components": {"house_number": "12", "street": "Suhi Vrh", "postcode": "2391", "locality": "Suhi Vrh"}, "country": "SI", "lat": 46.5708987, "lon": 14.912726, "source": "golden"}
{"raw": "Pod vinogradi / Via Sotto le Vigne 3, 6310 Jagodje / Jagodje", "components": {"house_number": "3", "street": "Pod vinogradi / Via Sotto le Vigne", "postcode": "6310", "locality": "Jagodje / Jagodje"}, "country": "SI", "lat": 45.5297534, "lon": 13.644496, "source": "golden"}
{"raw": "Hrastnik, 1430, Cesta Hermana Debelaka 13", "components": {"house_number": "13", "street": "Cesta Hermana Debelaka", "postcode": "1430", "locality": "Hrastnik"}, "country": "SI", "lat": 46.1230165, "lon": 15.0957123, "source": "golden"}
{"raw": "Čežarji, 6276, Montinjančevo naselje 18", "components": {"house_number": "18", "street": "Montinjančevo naselje", "postcode": "6276", "locality": "Čežarji"}, "country": "SI", "lat": 45.5340204, "lon": 13.8058985, "source": "golden"}
{"raw": "Leskovec pri Krškem, 8273, Cvetna pot 4", "components": {"house_number": "4", "street": "Cvetna pot", "postcode": "8273", "locality": "Leskovec pri Krškem"}, "country": "SI", "lat": 45.9382526, "lon": 15.4696702, "source": "golden"}
{"raw": "Sv. Primož nad Muto 67, 2366 Sv. Primož nad Muto", "components": {"house_number": "67", "street": "Sv. Primož nad Muto", "postcode": "2366", "locality": "Sv. Primož nad Muto"}, "country": "SI", "lat": 46.6306045, "lon": 15.1590551, "source": "golden"}
{"raw": "Krašči, 9261, Krašči 17", "components": {"house_number": "17", "street": "Krašči", "postcode": "9261", "locality": "Krašči"}, "country": "SI", "lat": 46.7517879, "lon": 16.0469295, "source": "golden"}
{"raw": "Celje, 3000, Mariborska cesta 161", "components": {"house_number": "161", "street": "Mariborska cesta", "postcode": "3000", "locality": "Celje"}, "country": "SI", "lat": 46.2555893, "lon": 15.282536, "source": "golden"}
{"raw": "Potoška vas 53, 1410 Potoška vas", "components": {"house_number": "53", "street": "Potoška vas", "postcode": "1410", "locality": "Potoška vas"}, "country": "SI", "lat": 46.1592981, "lon": 15.0055287, "source": "golden"}
{"raw": "Krško, 8270, Cesta krških žrtev 80", "components": {"house_number": "80", "street": "Cesta krških žrtev", "postcode": "8270", "locality": "Krško"}, "country": "SI", "lat": 45.9580511, "lon": 15.486041, "source": "golden"}
{"raw": "Fulneška ulica 1, 9240 Ljutomer", "components": {"house_number": "1", "street": "Fulneška ulica", "postcode": "9240", "locality": "Ljutomer"}, "country": "SI", "lat": 46.5169068, "lon": 16.2010947, "source": "golden"}
{"raw": "8361 Srednji Lipovec, Srednji Lipovec 28", "components": {"house_number": "28", "street": "Srednji Lipovec", "postcode": "8361", "locality": "Srednji Lipovec"}, "country": "SI", "lat": 45.8143637, "lon": 15.0001801, "source": "golden"}
{"raw": "Račica 20, 1434 Račica", "components": {"house_number": "20", "street": "Račica", "postcode": "1434", "locality": "Račica"}, "country": "SI", "lat": 46.0524044, "lon": 15.2147388, "source": "golden"}
{"raw": "3261 Pilštanj, Pilštanj 54", "components": {"house_number": "54", "street": "Pilštanj", "postcode": "3261", "locality": "Pilštanj"}, "country": "SI", "lat": 46.0980027, "lon": 15.5376711, "source": "golden"}
{"raw": "8282 Veliki Dol, Veliki Dol 17A", "components": {"house_number": "17A", "street": "Veliki Dol", "postcode": "8282", "locality": "Veliki Dol"}, "country": "SI", "lat": 46.0293254, "lon": 15.5393557, "source": "golden"}
{"raw": "Dolenje Radulje 41, 8276 Dolenje Radulje", "components": {"house_number": "41", "street": "Dolenje Radulje", "postcode": "8276", "locality": "Dolenje Radulje"}, "country": "SI", "lat": 45.9432623, "lon": 15.331671, "source": "golden"}
{"raw": "2380 Slovenj Gradec, Tomšičeva ulica 84", "components": {"house_number": "84", "street": "Tomšičeva ulica", "postcode": "2380", "locality": "Slovenj Gradec"}, "country": "SI", "lat": 46.5008335, "lon": 15.0848558, "source": "golden"}
{"raw": "Kamnik, 1241, Šutna 5", "components": {"house_number": "5", "street": "Šutna", "postcode": "1241", "locality": "Kamnik"}, "country": "SI", "lat": 46.2240979, "lon": 14.6100709, "source": "golden"}
{"raw": "8360 Prapreče, Prapreče 10", "components": {"house_number": "10", "street": "Prapreče", "postcode": "8360", "locality": "Prapreče"}, "country": "SI", "lat": 45.8372347, "lon": 14.9189262, "source": "golden"}
{"raw": "Maribor, 2000, Orožnova ulica 3A", "components": {"house_number": "3A", "street": "Orožnova ulica", "postcode": "2000", "locality": "Maribor"}, "country": "SI", "lat": 46.5586975, "lon": 15.6430232, "source": "golden"}
{"raw": "Ižakovci, 9231, Ižakovci 115", "components": {"house_number": "115", "street": "Ižakovci", "postcode": "9231", "locality": "Ižakovci"}, "country": "SI", "lat": 46.5870467, "lon": 16.2113081, "source": "golden"}
{"raw": "Gažon, 6274, Gažon 35A", "components": {"house_number": "35A", "street": "Gažon", "postcode": "6274", "locality": "Gažon"}, "country": "SI", "lat": 45.5212229, "lon": 13.7026114, "source": "golden"}
{"raw": "Gabrje 12, 8295 Gabrje", "components": {"house_number": "12", "street": "Gabrje", "postcode": "8295", "locality": "Gabrje"}, "country": "SI", "lat": 45.9886451, "lon": 15.2206105, "source": "golden"}
{"raw": "Žička cesta 24, 3210 Slovenske Konjice", "components": {"house_number": "24", "street": "Žička cesta", "postcode": "3210", "locality": "Slovenske Konjice"}, "country": "SI", "lat": 46.3344763, "lon": 15.4226661, "source": "golden"}
{"raw": "Log pri Mlinšah 5A, 1411 Log pri Mlinšah", "components": {"house_number": "5A", "street": "Log pri Mlinšah", "postcode": "1411", "locality": "Log pri Mlinšah"}, "country": "SI", "lat": 46.1362211, "lon": 14.8649846, "source": "golden"}
{"raw": "Jablan, 8216, Jablan 18A", "components": {"house_number": "18A", "street": "Jablan", "postcode": "8216", "locality": "Jablan"}, "country": "SI", "lat": 45.838411, "lon": 15.0958282, "source": "golden"}
{"raw": "5275 Godovič, Godovič 40B", "components": {"house_number": "40B", "street": "Godovič", "postcode": "5275", "locality": "Godovič"}, "country": "SI", "lat": 45.9611667, "lon": 14.0980216, "source": "golden"}
{"raw": "Zgornja Senarska, 2235, Zgornja Senarska 27A", "components": {"house_number": "27A", "street": "Zgornja Senarska", "postcode": "2235", "locality": "Zgornja Senarska"}, "country": "SI", "lat": 46.5626995, "lon": 15.8786239, "source": "golden"}
{"raw": "8261 Ribnica, Ribnica 14", "components": {"house_number": "14", "street": "Ribnica", "postcode": "8261", "locality": "Ribnica"}, "country": "SI", "lat": 45.8703509, "lon": 15.6660681, "source": "golden"}
{"raw": "3000 Celje, Smrekarjeva ulica 20", "components": {"house_number": "20", "street": "Smrekarjeva ulica", "postcode": "3000", "locality": "Celje"}, "country": "SI", "lat": 46.2465975, "lon": 15.265216, "source": "golden"}
{"raw": "Ljubljana, 1000, Mire Lenardičeve ulica 11A", "components": {"house_number": "11A", "street": "Mire Lenardičeve ulica", "postcode": "1000", "locality": "Ljubljana"}, "country": "SI", "lat": 46.0859678, "lon": 14.5091515, "source": "golden"}
{"raw": "Volčja Draga, 5293, Volčja Draga 54A", "components": {"house_number": "54A", "street": "Volčja Draga", "postcode": "5293", "locality": "Volčja Draga"}, "country": "SI", "lat": 45.9080869, "lon": 13.6741768, "source": "golden"}
{"raw": "9244 Kocjan, Kocjan 7", "components": {"house_number": "7", "street": "Kocjan", "postcode": "9244", "locality": "Kocjan"}, "country": "SI", "lat": 46.6034602, "lon": 16.0330512, "source": "golden"}
{"raw": "6273 Lopar, Lopar 33A", "components": {"house_number": "33A", "street": "Lopar", "postcode": "6273", "locality": "Lopar"}, "country": "SI", "lat": 45.5087037, "lon": 13.8263347, "source": "golden"}
{"raw": "Mestni Vrh 39A, 2250 Mestni Vrh", "components": {"house_number": "39A", "street": "Mestni Vrh", "postcode": "2250", "locality": "Mestni Vrh"}, "country": "SI", "lat": 46.4549889, "lon": 15.8632472, "source": "golden"}
{"raw": "Gradin, 6272, Gradin 26", "components": {"house_number": "26", "street": "Gradin", "postcode": "6272", "locality": "Gradin"}, "country": "SI", "lat": 45.4576708, "lon": 13.8499746, "source": "golden"}
{"raw": "Hudi Vrh, 1385, Hudi Vrh 14", "components": {"house_number": "14", "street": "Hudi Vrh", "postcode": "1385", "locality": "Hudi Vrh"}, "country": "SI", "lat": 45.7600589, "lon": 14.5217873, "source": "golden"}
{"raw": "4274 Breg, Breg 83", "components": {"house_number": "83", "street": "Breg", "postcode": "4274", "locality": "Breg"}, "country": "SI", "lat": 46.3950921, "lon": 14.1256175, "source": "golden"}
{"raw": "Spodnje Grušovje, 3210, Spodnje Grušovje 1", "components": {"house_number": "1", "street": "Spodnje Grušovje", "postcode": "3210", "locality": "Spodnje Grušovje"}, "country": "SI", "lat": 46.3546069, "lon": 15.4893371, "source": "golden"}
{"raw": "6310 Izola / Isola, Obrtna ulica / Via degli Artigiani 22", "components": {"house_number": "22", "street": "Obrtna ulica / Via degli Artigiani", "postcode": "6310", "locality": "Izola / Isola"}, "country": "SI", "lat": 45.5279296, "lon": 13.6653691, "source": "golden"}
{"raw": "2000 Maribor, Šolska ulica 31", "components": {"house_number": "31", "street": "Šolska ulica", "postcode": "2000", "locality": "Maribor"}, "country": "SI", "lat": 46.5533934, "lon": 15.668991, "source": "golden"}
{"raw": "2000 Maribor, Bolfenška ulica 48", "components": {"house_number": "48", "street": "Bolfenška ulica", "postcode": "2000", "locality": "Maribor"}, "country": "SI", "lat": 46.5397116, "lon": 15.6321991, "source": "golden"}
{"raw": "Šalara / Salara 9A, 6000 Šalara / Salara", "components": {"house_number": "9A", "street": "Šalara / Salara", "postcode": "6000", "locality": "Šalara / Salara"}, "country": "SI", "lat": 45.5235178, "lon": 13.7201859, "source": "golden"}
{"raw": "2317 Čadram, Čadram 28", "components": {"house_number": "28", "street": "Čadram", "postcode": "2317", "locality": "Čadram"}, "country": "SI", "lat": 46.3895817, "lon": 15.4603946, "source": "golden"}
{"raw": "Nova vas pri Lescah 31, 4240 Nova vas pri Lescah", "components": {"house_number": "31", "street": "Nova vas pri Lescah", "postcode": "4240", "locality": "Nova vas pri Lescah"}, "country": "SI", "lat": 46.3608074, "lon": 14.1895693, "source": "golden"}
{"raw": "6230 Postojna, Kraigherjeva ulica 4B", "components": {"house_number": "4B", "street": "Kraigherjeva ulica", "postcode": "6230", "locality": "Postojna"}, "country": "SI", "lat": 45.7748891, "lon": 14.2171559, "source": "golden"}
{"raw": "3214 Zreče, Cesta na Roglo 5", "components": {"house_number": "5", "street": "Cesta na Roglo", "postcode": "3214", "locality": "Zreče"}, "country": "SI", "lat": 46.3657145, "lon": 15.3922871, "source": "golden"}
{"raw": "Notranje Gorice, 1357, Gmajna 52A", "components": {"house_number": "52A", "street": "Gmajna", "postcode": "1357", "locality": "Notranje Gorice"}, "country": "SI", "lat": 45.9933929, "lon": 14.4087115, "source": "golden"}
{"raw": "Malkovec, 8295, Malkovec 113", "components": {"house_number": "113", "street": "Malkovec", "postcode": "8295", "locality": "Malkovec"}, "country": "SI", "lat": 45.9493157, "lon": 15.2161591, "source": "golden"}
{"raw": "Jurčičeva cesta 15, 1294 Višnja Gora", "components": {"house_number": "15", "street": "Jurčičeva cesta", "postcode": "1294", "locality": "Višnja Gora"}, "country": "SI", "lat": 45.9543283, "lon": 14.7490559, "source": "golden"}
{"raw": "2391 Breznica, Breznica 21", "components": {"house_number": "21", "street": "Breznica", "postcode": "2391", "locality": "Breznica"}, "country": "SI", "lat": 46.5491131, "lon": 14.9071014, "source": "golden"}
{"raw": "9224 Gomilica, Gomilica 93", "components": {"house_number": "93", "street": "Gomilica", "postcode": "9224", "locality": "Gomilica"}, "country": "SI", "lat": 46.6024651, "lon": 16.3126182, "source": "golden"}
{"raw": "Lemerje 4, 9201 Lemerje", "components": {"house_number": "4", "street": "Lemerje", "postcode": "9201", "locality": "Lemerje"}, "country": "SI", "lat": 46.709813, "lon": 16.109603, "source": "golden"}
{"raw": "Preserje, 1352, Preserje 48A", "components": {"house_number": "48A", "street": "Preserje", "postcode": "1352", "locality": "Preserje"}, "country": "SI", "lat": 45.9578794, "lon": 14.4193198, "source": "golden"}
{"raw": "Dolenje Polje 179, 8351 Dolenje Polje", "components": {"house_number": "179", "street": "Dolenje Polje", "postcode": "8351", "locality": "Dolenje Polje"}, "country": "SI", "lat": 45.7758775, "lon": 15.0498922, "source": "golden"}
{"raw": "Krkavče 123, 6274 Krkavče", "components": {"house_number": "123", "street": "Krkavče", "postcode": "6274", "locality": "Krkavče"}, "country": "SI", "lat": 45.4577984, "lon": 13.7047062, "source": "golden"}
{"raw": "Koper / Capodistria, 6000, Vanganelska cesta / Strada di Vanganello 37B", "components": {"house_number": "37B", "street": "Vanganelska cesta / Strada di Vanganello", "postcode": "6000", "locality": "Koper / Capodistria"}, "country": "SI", "lat": 45.5302373, "lon": 13.7393913, "source": "golden"}
{"raw": "4228 Železniki, Dašnica 45", "components": {"house_number": "45", "street": "Dašnica", "postcode": "4228", "locality": "Železniki"}, "country": "SI", "lat": 46.2271248, "lon": 14.1630704, "source": "golden"}
{"raw": "Celjska cesta 40, 2380 Slovenj Gradec", "components": {"house_number": "40", "street": "Celjska cesta", "postcode": "2380", "locality": "Slovenj Gradec"}, "country": "SI", "lat": 46.5039202, "lon": 15.0837792, "source": "golden"}
{"raw": "Cesta na Markovec / Strada di Monte Marco 40, 6000 Koper / Capodistria", "components": {"house_number": "40", "street": "Cesta na Markovec / Strada di Monte Marco", "postcode": "6000", "locality": "Koper / Capodistria"}, "country": "SI", "lat": 45.5364244, "lon": 13.7044769, "source": "golden"}
{"raw": "Lipje, 3320, Lipje 38", "components": {"house_number": "38", "street": "Lipje", "postcode": "3320", "locality": "Lipje"}, "country": "SI", "lat": 46.3517351, "lon": 15.160765, "source": "golden"}
{"raw": "2380 Slovenj Gradec, Podgorska cesta 26", "components": {"house_number": "26", "street": "Podgorska cesta", "postcode": "2380", "locality": "Slovenj Gradec"}, "country": "SI", "lat": 46.5042061, "lon": 15.0735645, "source": "golden"}
{"raw": "6230 Šmihel pod Nanosom, Šmihel pod Nanosom 16", "components": {"house_number": "16", "street": "Šmihel pod Nanosom", "postcode": "6230", "locality": "Šmihel pod Nanosom"}, "country": "SI", "lat": 45.796238, "lon": 14.1202262, "source": "golden"}
{"raw": "Budanje, 5271, Budanje 6B", "components": {"house_number": "6B", "street": "Budanje", "postcode": "5271", "locality": "Budanje"}, "country": "SI", "lat": 45.8682817, "lon": 13.9397212, "source": "golden"}
{"raw": "Veliki Dol, 6221, Veliki Dol 51C", "components": {"house_number": "51C", "street": "Veliki Dol", "postcode": "6221", "locality": "Veliki Dol"}, "country": "SI", "lat": 45.7698075, "lon": 13.7550653, "source": "golden"}
{"raw": "Brunšvik 49B, 2327 Brunšvik", "components": {"house_number": "49B", "street": "Brunšvik", "postcode": "2327", "locality": "Brunšvik"}, "country": "SI", "lat": 46.43773, "lon": 15.7292329, "source": "golden"}
{"raw": "Dobriška vas, 3210, Dobriška vas 6A", "components": {"house_number": "6A", "street": "Dobriška vas", "postcode": "3210", "locality": "Dobriška vas"}, "country": "SI", "lat": 46.363596, "lon": 15.4542111, "source": "golden"}
{"raw": "Postojna, 6230, Raubarkomanda 3", "components": {"house_number": "3", "street": "Raubarkomanda", "postcode": "6230", "locality": "Postojna"}, "country": "SI", "lat": 45.7910139, "lon": 14.2291108, "source": "golden"}
{"raw": "Hrastnik pri Trojanah 1, 1222 Hrastnik pri Trojanah", "components": {"house_number": "1", "street": "Hrastnik pri Trojanah", "postcode": "1222", "locality": "Hrastnik pri Trojanah"}, "country": "SI", "lat": 46.1846057, "lon": 14.9066162, "source": "golden"}
{"raw": "3320 Kavče, Kavče 34B", "components": {"house_number": "34B", "street": "Kavče", "postcode": "3320", "locality": "Kavče"}, "country": "SI", "lat": 46.3438038, "lon": 15.1024756, "source": "golden"}
{"raw": "Šmartno v Tuhinju, 1219, Šmartno v Tuhinju 13", "components": {"house_number": "13", "street": "Šmartno v Tuhinju", "postcode": "1219", "locality": "Šmartno v Tuhinju"}, "country": "SI", "lat": 46.2150495, "lon": 14.7332639, "source": "golden"}
{"raw": "Čolnica 3, 5213 Čolnica", "components": {"house_number": "3", "street": "Čolnica", "postcode": "5213", "locality": "Čolnica"}, "country": "SI", "lat": 46.0948883, "lon": 13.6201865, "source": "golden"}
{"raw": "Ozeljan 122, 5261 Ozeljan", "components": {"house_number": "122", "street": "Ozeljan", "postcode": "5261", "locality": "Ozeljan"}, "country": "SI", "lat": 45.9448772, "lon": 13.7383828, "source": "golden"}
{"raw": "3230 Šentjur, Pod vrbco 33", "components": {"house_number": "33", "street": "Pod vrbco", "postcode": "3230", "locality": "Šentjur"}, "country": "SI", "lat": 46.2207056, "lon": 15.4055375, "source": "golden"}
{"raw": "Cesta na Štibuhu 11, 2380 Slovenj Gradec", "components": {"house_number": "11", "street": "Cesta na Štibuhu", "postcode": "2380", "locality": "Slovenj Gradec"}, "country": "SI", "lat": 46.5032419, "lon": 15.0759345, "source": "golden"}
{"raw": "Vrh nad Laškim 6C, 3270 Vrh nad Laškim", "components": {"house_number": "6C", "street": "Vrh nad Laškim", "postcode": "3270", "locality": "Vrh nad Laškim"}, "country": "SI", "lat": 46.1285774, "lon": 15.2846941, "source": "golden"}
{"raw": "Ženavlje 65A, 9203 Ženavlje", "components": {"house_number": "65A", "street": "Ženavlje", "postcode": "9203", "locality": "Ženavlje"}, "country": "SI", "lat": 46.8320656, "lon": 16.1728756, "source": "golden"}
{"raw": "4224 Lučine, Lučine 32A", "components": {"house_number": "32A", "street": "Lučine", "postcode": "4224", "locality": "Lučine"}, "country": "SI", "lat": 46.059526, "lon": 14.1977626, "source": "golden"}
{"raw": "Portorož / Portorose, 6320, K sončni poti / Alla Strada del Sole 11", "components": {"house_number": "11", "street": "K sončni poti / Alla Strada del Sole", "postcode": "6320", "locality": "Portorož / Portorose"},